{"iso_num": null, "projects": [{"title": "making budgets and aid work (mbaw)", "id": "00047111", "subnational": [{"outputID": "00056407", "output_locID": "00056407-1", "name": "Wilayat-e Kabul", "focus_area": "3", "lat": "34.500000", "type": "ADM1", "awardID": "00047111", "lon": "69.416670", "precision": "1", "focus_area_descr": "Responsive Institutions"}, {"outputID": "00081439", "output_locID": "00081439-1", "name": "Islamic Republic of Afghanistan", "focus_area": "3", "lat": "33.000000", "type": "PCLI", "awardID": "00047111", "lon": "66.000000", "precision": "1", "focus_area_descr": "Responsive Institutions"}, {"outputID": "00081415", "output_locID": "00081415-1", "name": "Islamic Republic of Afghanistan", "focus_area": "7", "lat": "33.000000", "type": "PCLI", "awardID": "00047111", "lon": "66.000000", "precision": "1", "focus_area_descr": "Development Impact & Effectiveness"}, {"outputID": "00081414", "output_locID": "00081414-1", "name": "Wilayat-e Kabul", "focus_area": "3", "lat": "34.500000", "type": "ADM1", "awardID": "00047111", "lon": "69.416670", "precision": "1", "focus_area_descr": "Responsive Institutions"}]}, {"title": "enhancing legal and electoral capacity for tomorrow", "id": "00043217", "subnational": [{"outputID": "00050324", "output_locID": "00050324-1", "name": "Islamic Republic of Afghanistan", "focus_area": "-", "lat": "33.000000", "type": "PCLI", "awardID": "00043217", "lon": "66.000000", "precision": "1", "focus_area_descr": "-"}]}, {"title": "enhancing legal and electoral capacity for tomorrow 2", "id": "00063078", "subnational": [{"outputID": "00080396", "output_locID": "00080396-1", "name": "Wilayat-e Kabul", "focus_area": "2", "lat": "34.500000", "type": "ADM1", "awardID": "00063078", "lon": "69.416670", "precision": "1", "focus_area_descr": "Democratic Governance"}, {"outputID": "00083558", "output_locID": "00083558-1", "name": "Wilayat-e Kabul", "focus_area": "2", "lat": "34.500000", "type": "ADM1", "awardID": "00063078", "lon": "69.416670", "precision": "1", "focus_area_descr": "Democratic Governance"}, {"outputID": "00087872", "output_locID": "00087872-1", "name": "Islamic Republic of Afghanistan", "focus_area": "2", "lat": "33.000000", "type": "PCLI", "awardID": "00063078", "lon": "66.000000", "precision": "1", "focus_area_descr": "Democratic Governance"}, {"outputID": "00087512", "output_locID": "00087512-1", "name": "Wilayat-e Kabul", "focus_area": "2", "lat": "34.500000", "type": "ADM1", "awardID": "00063078", "lon": "69.416670", "precision": "1", "focus_area_descr": "Democratic Governance"}, {"outputID": "00080394", "output_locID": "00080394-1", "name": "Wilayat-e Kabul", "focus_area": "2", "lat": "34.500000", "type": "ADM1", "awardID": "00063078", "lon": "69.416670", "precision": "1", "focus_area_descr": "Democratic Governance"}, {"outputID": "00087513", "output_locID": "00087513-1", "name": "Wilayat-e Kabul", "focus_area": "2", "lat": "34.500000", "type": "ADM1", "awardID": "00063078", "lon": "69.416670", "precision": "1", "focus_area_descr": "Democratic Governance"}, {"outputID": "00080395", "output_locID": "00080395-1", "name": "Wilayat-e Kabul", "focus_area": "2", "lat": "34.500000", "type": "ADM1", "awardID": "00063078", "lon": "69.416670", "precision": "1", "focus_area_descr": "Democratic Governance"}, {"outputID": "00087514", "output_locID": "00087514-1", "name": "Wilayat-e Kabul", "focus_area": "2", "lat": "34.500000", "type": "ADM1", "awardID": "00063078", "lon": "69.416670", "precision": "1", "focus_area_descr": "Democratic Governance"}, {"outputID": "00080393", "output_locID": "00080393-1", "name": "Wilayat-e Kabul", "focus_area": "2", "lat": "34.500000", "type": "ADM1", "awardID": "00063078", "lon": "69.416670", "precision": "1", "focus_area_descr": "Democratic Governance"}]}, {"title": "afghanistan peace & reintegration programme", "id": "00060777", "subnational": [{"outputID": "00079528", "output_locID": "00079528-1", "name": "Islamic Republic of Afghanistan", "focus_area": "5", "lat": "33.000000", "type": "PCLI", "awardID": "00060777", "lon": "66.000000", "precision": "1", "focus_area_descr": "Climate Change & Disaster Resilience"}, {"outputID": "00079529", "output_locID": "00079529-1", "name": "Islamic Republic of Afghanistan", "focus_area": "5", "lat": "33.000000", "type": "PCLI", "awardID": "00060777", "lon": "66.000000", "precision": "1", "focus_area_descr": "Climate Change & Disaster Resilience"}, {"outputID": "00079480", "output_locID": "00079480-1", "name": "Kabul", "focus_area": "5", "lat": "34.528130", "type": "PPLC", "awardID": "00060777", "lon": "69.172330", "precision": "1", "focus_area_descr": "Climate Change & Disaster Resilience"}, {"outputID": "00076674", "output_locID": "00076674-1", "name": "Badghis", "focus_area": "5", "lat": "35.000000", "type": "ADM1", "awardID": "00060777", "lon": "63.750000", "precision": "1", "focus_area_descr": "Climate Change & Disaster Resilience"}, {"outputID": "00076674", "output_locID": "00076674-2", "name": "Wilayat-e Baghlan", "focus_area": "5", "lat": "35.750000", "type": "ADM1", "awardID": "00060777", "lon": "69.000000", "precision": "1", "focus_area_descr": "Climate Change & Disaster Resilience"}, {"outputID": "00076674", "output_locID": "00076674-3", "name": "Helmand", "focus_area": "5", "lat": "31.000000", "type": "ADM1", "awardID": "00060777", "lon": "64.000000", "precision": "1", "focus_area_descr": "Climate Change & Disaster Resilience"}, {"outputID": "00076674", "output_locID": "00076674-4", "name": "Herat", "focus_area": "5", "lat": "34.500000", "type": "ADM1", "awardID": "00060777", "lon": "62.000000", "precision": "1", "focus_area_descr": "Climate Change & Disaster Resilience"}, {"outputID": "00076674", "output_locID": "00076674-5", "name": "Kandahar", "focus_area": "5", "lat": "31.000000", "type": "ADM1", "awardID": "00060777", "lon": "65.750000", "precision": "1", "focus_area_descr": "Climate Change & Disaster Resilience"}, {"outputID": "00076674", "output_locID": "00076674-6", "name": "Khost", "focus_area": "5", "lat": "33.339510", "type": "PPLA", "awardID": "00060777", "lon": "69.920410", "precision": "1", "focus_area_descr": "Climate Change & Disaster Resilience"}, {"outputID": "00076674", "output_locID": "00076674-7", "name": "Kunduz", "focus_area": "5", "lat": "36.750000", "type": "ADM1", "awardID": "00060777", "lon": "68.750000", "precision": "1", "focus_area_descr": "Climate Change & Disaster Resilience"}, {"outputID": "00076674", "output_locID": "00076674-8", "name": "Nangarhar", "focus_area": "5", "lat": "34.333330", "type": "ADM1", "awardID": "00060777", "lon": "70.416670", "precision": "1", "focus_area_descr": "Climate Change & Disaster Resilience"}, {"outputID": "00079526", "output_locID": "00079526-1", "name": "Kabul", "focus_area": "5", "lat": "34.528130", "type": "PPLC", "awardID": "00060777", "lon": "69.172330", "precision": "1", "focus_area_descr": "Climate Change & Disaster Resilience"}, {"outputID": "00079527", "output_locID": "00079527-1", "name": "Helmand", "focus_area": "5", "lat": "31.000000", "type": "ADM1", "awardID": "00060777", "lon": "64.000000", "precision": "1", "focus_area_descr": "Climate Change & Disaster Resilience"}, {"outputID": "00079527", "output_locID": "00079527-2", "name": "Kabul", "focus_area": "5", "lat": "34.528130", "type": "PPLC", "awardID": "00060777", "lon": "69.172330", "precision": "1", "focus_area_descr": "Climate Change & Disaster Resilience"}, {"outputID": "00079527", "output_locID": "00079527-3", "name": "Kandahar", "focus_area": "5", "lat": "31.000000", "type": "ADM1", "awardID": "00060777", "lon": "65.750000", "precision": "1", "focus_area_descr": "Climate Change & Disaster Resilience"}, {"outputID": "00079527", "output_locID": "00079527-4", "name": "Kunduz", "focus_area": "5", "lat": "36.750000", "type": "ADM1", "awardID": "00060777", "lon": "68.750000", "precision": "1", "focus_area_descr": "Climate Change & Disaster Resilience"}, {"outputID": "00079527", "output_locID": "00079527-5", "name": "Nangarhar", "focus_area": "5", "lat": "34.333330", "type": "ADM1", "awardID": "00060777", "lon": "70.416670", "precision": "1", "focus_area_descr": "Climate Change & Disaster Resilience"}]}, {"title": "law and order trust fund for afghanistan \u2013 phase vi", "id": "00061104", "subnational": [{"outputID": "00077274", "output_locID": "00077274-1", "name": "Islamic Republic of Afghanistan", "focus_area": "3", "lat": "33.000000", "type": "PCLI", "awardID": "00061104", "lon": "66.000000", "precision": "1", "focus_area_descr": "Responsive Institutions"}, {"outputID": "00078879", "output_locID": "00078879-1", "name": "Islamic Republic of Afghanistan", "focus_area": "3", "lat": "33.000000", "type": "PCLI", "awardID": "00061104", "lon": "66.000000", "precision": "1", "focus_area_descr": "Responsive Institutions"}, {"outputID": "00077273", "output_locID": "00077273-1", "name": "Islamic Republic of Afghanistan", "focus_area": "3", "lat": "33.000000", "type": "PCLI", "awardID": "00061104", "lon": "66.000000", "precision": "1", "focus_area_descr": "Responsive Institutions"}, {"outputID": "00077275", "output_locID": "00077275-1", "name": "Islamic Republic of Afghanistan", "focus_area": "3", "lat": "33.000000", "type": "PCLI", "awardID": "00061104", "lon": "66.000000", "precision": "1", "focus_area_descr": "Responsive Institutions"}, {"outputID": "00081410", "output_locID": "00081410-1", "name": "Islamic Republic of Afghanistan", "focus_area": "3", "lat": "33.000000", "type": "PCLI", "awardID": "00061104", "lon": "66.000000", "precision": "1", "focus_area_descr": "Responsive Institutions"}, {"outputID": "00081409", "output_locID": "00081409-1", "name": "Islamic Republic of Afghanistan", "focus_area": "3", "lat": "33.000000", "type": "PCLI", "awardID": "00061104", "lon": "66.000000", "precision": "1", "focus_area_descr": "Responsive Institutions"}]}, {"title": "afghanistan sub-national governance programme ii", "id": "00058922", "subnational": [{"outputID": "00073419", "output_locID": "00073419-1", "name": "Herat", "focus_area": "3", "lat": "34.500000", "type": "ADM1", "awardID": "00058922", "lon": "62.000000", "precision": "1", "focus_area_descr": "Responsive Institutions"}, {"outputID": "00078991", "output_locID": "00078991-1", "name": "Islamic Republic of Afghanistan", "focus_area": "3", "lat": "33.000000", "type": "PCLI", "awardID": "00058922", "lon": "66.000000", "precision": "1", "focus_area_descr": "Responsive Institutions"}, {"outputID": "00079239", "output_locID": "00079239-1", "name": "Islamic Republic of Afghanistan", "focus_area": "3", "lat": "33.000000", "type": "PCLI", "awardID": "00058922", "lon": "66.000000", "precision": "1", "focus_area_descr": "Responsive Institutions"}, {"outputID": "00078993", "output_locID": "00078993-1", "name": "Islamic Republic of Afghanistan", "focus_area": "3", "lat": "33.000000", "type": "PCLI", "awardID": "00058922", "lon": "66.000000", "precision": "1", "focus_area_descr": "Responsive Institutions"}, {"outputID": "00076101", "output_locID": "00076101-1", "name": "North East Region, Afghanistan", "focus_area": "2", "lat": "33", "type": "PCL", "awardID": "00058922", "lon": "66", "precision": "9", "focus_area_descr": "Democratic Governance"}, {"outputID": "00076102", "output_locID": "00076102-1", "name": "North Region, Afghanistan", "focus_area": "2", "lat": "33", "type": "PCL", "awardID": "00058922", "lon": "66", "precision": "9", "focus_area_descr": "Democratic Governance"}, {"outputID": "00076104", "output_locID": "00076104-1", "name": "Afghanistan", "focus_area": "2", "lat": "33", "type": "PCL", "awardID": "00058922", "lon": "66", "precision": "9", "focus_area_descr": "Democratic Governance"}, {"outputID": "00076105", "output_locID": "00076105-1", "name": "West Region, Afghanistan", "focus_area": "2", "lat": "33", "type": "PCL", "awardID": "00058922", "lon": "66", "precision": "9", "focus_area_descr": "Democratic Governance"}, {"outputID": "00076106", "output_locID": "00076106-1", "name": "Southern Region, Afghanistan", "focus_area": "2", "lat": "33", "type": "PCL", "awardID": "00058922", "lon": "66", "precision": "9", "focus_area_descr": "Democratic Governance"}]}, {"title": "national institution building project", "id": "00058898", "subnational": [{"outputID": "00081998", "output_locID": "00081998-1", "name": "Badghis", "focus_area": "8", "lat": "35.000000", "type": "ADM1", "awardID": "00058898", "lon": "63.750000", "precision": "1", "focus_area_descr": "South-South"}, {"outputID": "00081998", "output_locID": "00081998-2", "name": "Balkh", "focus_area": "8", "lat": "36.756350", "type": "PPLA2", "awardID": "00058898", "lon": "66.897200", "precision": "1", "focus_area_descr": "South-South"}, {"outputID": "00081998", "output_locID": "00081998-3", "name": "Wilayat-e Bamyan", "focus_area": "8", "lat": "34.750000", "type": "ADM1", "awardID": "00058898", "lon": "67.250000", "precision": "1", "focus_area_descr": "South-South"}, {"outputID": "00081998", "output_locID": "00081998-4", "name": "Farah", "focus_area": "8", "lat": "32.500000", "type": "ADM1", "awardID": "00058898", "lon": "62.500000", "precision": "1", "focus_area_descr": "South-South"}, {"outputID": "00081998", "output_locID": "00081998-5", "name": "Faryab Province", "focus_area": "8", "lat": "36.250000", "type": "ADM1", "awardID": "00058898", "lon": "64.833330", "precision": "1", "focus_area_descr": "South-South"}, {"outputID": "00081998", "output_locID": "00081998-6", "name": "Wilayat-e Ghor", "focus_area": "8", "lat": "34.000000", "type": "ADM1", "awardID": "00058898", "lon": "65.000000", "precision": "1", "focus_area_descr": "South-South"}, {"outputID": "00081998", "output_locID": "00081998-7", "name": "Herat", "focus_area": "8", "lat": "34.500000", "type": "ADM1", "awardID": "00058898", "lon": "62.000000", "precision": "1", "focus_area_descr": "South-South"}, {"outputID": "00081998", "output_locID": "00081998-8", "name": "Wilayat-e Jowzjan", "focus_area": "8", "lat": "36.833330", "type": "ADM1", "awardID": "00058898", "lon": "65.833330", "precision": "1", "focus_area_descr": "South-South"}, {"outputID": "00081998", "output_locID": "00081998-9", "name": "Samangan", "focus_area": "8", "lat": "36.000000", "type": "ADM1", "awardID": "00058898", "lon": "67.666670", "precision": "1", "focus_area_descr": "South-South"}, {"outputID": "00081998", "output_locID": "00081998-10", "name": "Sar-e Pul", "focus_area": "8", "lat": "36.215440", "type": "PPLA", "awardID": "00058898", "lon": "65.932490", "precision": "1", "focus_area_descr": "South-South"}, {"outputID": "00081998", "output_locID": "00081998-11", "name": "Sar-e Pul", "focus_area": "8", "lat": "36.215440", "type": "PPLA", "awardID": "00058898", "lon": "65.932490", "precision": "1", "focus_area_descr": "South-South"}, {"outputID": "00081998", "output_locID": "00081998-12", "name": "Daykundi Province", "focus_area": "8", "lat": "33.750000", "type": "ADM1", "awardID": "00058898", "lon": "66.250000", "precision": "1", "focus_area_descr": "South-South"}, {"outputID": "00082621", "output_locID": "00082621-1", "name": "Herat", "focus_area": "8", "lat": "34.500000", "type": "ADM1", "awardID": "00058898", "lon": "62.000000", "precision": "1", "focus_area_descr": "South-South"}, {"outputID": "00082621", "output_locID": "00082621-2", "name": "Wilayat-e Kuna?", "focus_area": "8", "lat": "34.950000", "type": "ADM1", "awardID": "00058898", "lon": "71.133330", "precision": "1", "focus_area_descr": "South-South"}, {"outputID": "00082621", "output_locID": "00082621-3", "name": "Nangarhar", "focus_area": "8", "lat": "34.333330", "type": "ADM1", "awardID": "00058898", "lon": "70.416670", "precision": "1", "focus_area_descr": "South-South"}, {"outputID": "00073380", "output_locID": "00073380-1", "name": "Kabul", "focus_area": "8", "lat": "34.528130", "type": "PPLC", "awardID": "00058898", "lon": "69.172330", "precision": "1", "focus_area_descr": "South-South"}]}, {"title": "project management support-nsgp", "id": "00058936", "subnational": [{"outputID": "00081110", "output_locID": "00081110-1", "name": "Kabul", "focus_area": "3", "lat": "34.528130", "type": "PPLC", "awardID": "00058936", "lon": "69.172330", "precision": "1", "focus_area_descr": "Responsive Institutions"}, {"outputID": "00081109", "output_locID": "00081109-1", "name": "Kabul", "focus_area": "3", "lat": "34.528130", "type": "PPLC", "awardID": "00058936", "lon": "69.172330", "precision": "1", "focus_area_descr": "Responsive Institutions"}, {"outputID": "00081884", "output_locID": "00081884-1", "name": "Kabul", "focus_area": "3", "lat": "34.528130", "type": "PPLC", "awardID": "00058936", "lon": "69.172330", "precision": "1", "focus_area_descr": "Responsive Institutions"}, {"outputID": "00073445", "output_locID": "00073445-1", "name": "Kabul", "focus_area": "3", "lat": "34.528130", "type": "PPLC", "awardID": "00058936", "lon": "69.172330", "precision": "1", "focus_area_descr": "Responsive Institutions"}, {"outputID": "00081108", "output_locID": "00081108-1", "name": "Kabul", "focus_area": "3", "lat": "34.528130", "type": "PPLC", "awardID": "00058936", "lon": "69.172330", "precision": "1", "focus_area_descr": "Responsive Institutions"}]}, {"title": "national area-based development programme phase iii", "id": "00057359", "subnational": [{"outputID": "00070832", "output_locID": "00070832-1", "name": "Islamic Republic of Afghanistan", "focus_area": "8", "lat": "33.000000", "type": "PCLI", "awardID": "00057359", "lon": "66.000000", "precision": "1", "focus_area_descr": "South-South"}, {"outputID": "00081444", "output_locID": "00081444-1", "name": "Islamic Republic of Afghanistan", "focus_area": "8", "lat": "33.000000", "type": "PCLI", "awardID": "00057359", "lon": "66.000000", "precision": "1", "focus_area_descr": "South-South"}, {"outputID": "00081451", "output_locID": "00081451-1", "name": "Islamic Republic of Afghanistan", "focus_area": "8", "lat": "33.000000", "type": "PCLI", "awardID": "00057359", "lon": "66.000000", "precision": "1", "focus_area_descr": "South-South"}, {"outputID": "00081449", "output_locID": "00081449-1", "name": "Badakhshan", "focus_area": "8", "lat": "36.750000", "type": "ADM1", "awardID": "00057359", "lon": "72.000000", "precision": "1", "focus_area_descr": "South-South"}, {"outputID": "00081452", "output_locID": "00081452-1", "name": "Islamic Republic of Afghanistan", "focus_area": "8", "lat": "33.000000", "type": "PCLI", "awardID": "00057359", "lon": "66.000000", "precision": "1", "focus_area_descr": "South-South"}, {"outputID": "00081443", "output_locID": "00081443-1", "name": "Islamic Republic of Afghanistan", "focus_area": "8", "lat": "33.000000", "type": "PCLI", "awardID": "00057359", "lon": "66.000000", "precision": "1", "focus_area_descr": "South-South"}]}, {"title": "justice and human rights in afghanistan phase ii", "id": "00068012", "subnational": [{"outputID": "00085458", "output_locID": "00085458-1", "name": "Nangarhar", "focus_area": "2", "lat": "34.333330", "type": "ADM1", "awardID": "00068012", "lon": "70.416670", "precision": "1", "focus_area_descr": "Democratic Governance"}, {"outputID": "00083458", "output_locID": "00083458-1", "name": "Badakhshan", "focus_area": "2", "lat": "36.750000", "type": "ADM1", "awardID": "00068012", "lon": "72.000000", "precision": "1", "focus_area_descr": "Democratic Governance"}, {"outputID": "00083458", "output_locID": "00083458-2", "name": "Badghis", "focus_area": "2", "lat": "35.000000", "type": "ADM1", "awardID": "00068012", "lon": "63.750000", "precision": "1", "focus_area_descr": "Democratic Governance"}, {"outputID": "00083458", "output_locID": "00083458-3", "name": "Wilayat-e Baghlan", "focus_area": "2", "lat": "35.750000", "type": "ADM1", "awardID": "00068012", "lon": "69.000000", "precision": "1", "focus_area_descr": "Democratic Governance"}, {"outputID": "00083458", "output_locID": "00083458-4", "name": "Wilayat-e Bamyan", "focus_area": "2", "lat": "34.750000", "type": "ADM1", "awardID": "00068012", "lon": "67.250000", "precision": "1", "focus_area_descr": "Democratic Governance"}, {"outputID": "00083458", "output_locID": "00083458-5", "name": "Daykundi Province", "focus_area": "2", "lat": "33.750000", "type": "ADM1", "awardID": "00068012", "lon": "66.250000", "precision": "1", "focus_area_descr": "Democratic Governance"}, {"outputID": "00083458", "output_locID": "00083458-6", "name": "Faryab Province", "focus_area": "2", "lat": "36.250000", "type": "ADM1", "awardID": "00068012", "lon": "64.833330", "precision": "1", "focus_area_descr": "Democratic Governance"}, {"outputID": "00083458", "output_locID": "00083458-7", "name": "Wilayat-e Ghor", "focus_area": "2", "lat": "34.000000", "type": "ADM1", "awardID": "00068012", "lon": "65.000000", "precision": "1", "focus_area_descr": "Democratic Governance"}, {"outputID": "00083458", "output_locID": "00083458-8", "name": "Wilayat-e Jowzjan", "focus_area": "2", "lat": "36.833330", "type": "ADM1", "awardID": "00068012", "lon": "65.833330", "precision": "1", "focus_area_descr": "Democratic Governance"}, {"outputID": "00083458", "output_locID": "00083458-9", "name": "Wilayat-e Kabul", "focus_area": "2", "lat": "34.500000", "type": "ADM1", "awardID": "00068012", "lon": "69.416670", "precision": "1", "focus_area_descr": "Democratic Governance"}, {"outputID": "00083458", "output_locID": "00083458-10", "name": "Wilayat-e Kuna?", "focus_area": "2", "lat": "34.950000", "type": "ADM1", "awardID": "00068012", "lon": "71.133330", "precision": "1", "focus_area_descr": "Democratic Governance"}, {"outputID": "00083458", "output_locID": "00083458-11", "name": "Panjshir", "focus_area": "2", "lat": "35.402480", "type": "ADM1", "awardID": "00068012", "lon": "69.982910", "precision": "1", "focus_area_descr": "Democratic Governance"}, {"outputID": "00083458", "output_locID": "00083458-12", "name": "Sar-e Pul", "focus_area": "2", "lat": "35.833330", "type": "ADM1", "awardID": "00068012", "lon": "66.166670", "precision": "1", "focus_area_descr": "Democratic Governance"}, {"outputID": "00085460", "output_locID": "00085460-1", "name": "Herat", "focus_area": "2", "lat": "34.500000", "type": "ADM1", "awardID": "00068012", "lon": "62.000000", "precision": "1", "focus_area_descr": "Democratic Governance"}, {"outputID": "00085461", "output_locID": "00085461-1", "name": "Wilayat-e Kabul", "focus_area": "2", "lat": "34.500000", "type": "ADM1", "awardID": "00068012", "lon": "69.416670", "precision": "1", "focus_area_descr": "Democratic Governance"}, {"outputID": "00085459", "output_locID": "00085459-1", "name": "Balkh", "focus_area": "3", "lat": "36.750000", "type": "ADM1", "awardID": "00068012", "lon": "67.000000", "precision": "1", "focus_area_descr": "Responsive Institutions"}, {"outputID": "00083456", "output_locID": "00083456-1", "name": "Balkh", "focus_area": "6", "lat": "36.75", "type": "ADM1", "awardID": "00068012", "lon": "67", "precision": "4", "focus_area_descr": "Crisis Prevention & Recovery"}, {"outputID": "00083456", "output_locID": "00083456-2", "name": "Kabul", "focus_area": "6", "lat": "34.5", "type": "ADM1", "awardID": "00068012", "lon": "69.41667", "precision": "4", "focus_area_descr": "Crisis Prevention & Recovery"}, {"outputID": "00083464", "output_locID": "00083464-1", "name": "Kabul", "focus_area": "6", "lat": "34.5", "type": "ADM1", "awardID": "00068012", "lon": "69.41667", "precision": "4", "focus_area_descr": "Crisis Prevention & Recovery"}]}, {"title": "icspa-support to the parliament of afghanistan", "id": "00080438", "subnational": []}, {"title": "establishing integrated models for protected areas", "id": "00076820", "subnational": []}, {"title": "response to 2014 disaster", "id": "00080949", "subnational": []}, {"title": "strengthening national policy planning and management ca", "id": "00081824", "subnational": []}, {"title": "law and order trust fund for afghanistan \u2013 phase vii", "id": "00085894", "subnational": []}, {"title": "gender equality project (gep - ii)", "id": "00071928", "subnational": [{"outputID": "00085146", "output_locID": "00085146-1", "name": "Wilayat-e Bamyan", "focus_area": "4", "lat": "34.750000", "type": "ADM1", "awardID": "00071928", "lon": "67.250000", "precision": "1", "focus_area_descr": "Gender Equality"}, {"outputID": "00085178", "output_locID": "00085178-1", "name": "Wilayat-e Bamyan", "focus_area": "4", "lat": "34.750000", "type": "ADM1", "awardID": "00071928", "lon": "67.250000", "precision": "1", "focus_area_descr": "Gender Equality"}, {"outputID": "00085179", "output_locID": "00085179-1", "name": "Wilayat-e Bamyan", "focus_area": "4", "lat": "34.750000", "type": "ADM1", "awardID": "00071928", "lon": "67.250000", "precision": "1", "focus_area_descr": "Gender Equality"}, {"outputID": "00085152", "output_locID": "00085152-1", "name": "Wilayat-e Bamyan", "focus_area": "4", "lat": "34.750000", "type": "ADM1", "awardID": "00071928", "lon": "67.250000", "precision": "1", "focus_area_descr": "Gender Equality"}]}, {"title": "afghanistan integrity initiative", "id": "00077819", "subnational": []}, {"title": "strengthening the resilience of rural livelihood options", "id": "00076056", "subnational": []}, {"title": "disbandment of illegal armed groups(diag)", "id": "00039048", "subnational": [{"outputID": "00043604", "output_locID": "00043604-1", "name": "Islamic Republic of Afghanistan", "focus_area": "-", "lat": "33.000000", "type": "PCLI", "awardID": "00039048", "lon": "66.000000", "precision": "1", "focus_area_descr": "-"}]}, {"title": "institutional capacity building for gender equality", "id": "00045877", "subnational": [{"outputID": "00054320", "output_locID": "00054320-1", "name": "Balkh University", "focus_area": "-", "lat": "36.710070", "type": "UNIV", "awardID": "00045877", "lon": "67.127260", "precision": "1", "focus_area_descr": "-"}, {"outputID": "00054320", "output_locID": "00054320-2", "name": "Herat University", "focus_area": "-", "lat": "34.360500", "type": "UNIV", "awardID": "00045877", "lon": "62.205130", "precision": "1", "focus_area_descr": "-"}, {"outputID": "00054320", "output_locID": "00054320-3", "name": "Kabul University", "focus_area": "-", "lat": "34.517780", "type": "UNIV", "awardID": "00045877", "lon": "69.128060", "precision": "1", "focus_area_descr": "-"}, {"outputID": "00081441", "output_locID": "00081441-1", "name": "Balkh", "focus_area": "-", "lat": "36.750000", "type": "ADM1", "awardID": "00045877", "lon": "67.000000", "precision": "1", "focus_area_descr": "-"}, {"outputID": "00081441", "output_locID": "00081441-2", "name": "Wilayat-e Bamyan", "focus_area": "-", "lat": "34.750000", "type": "ADM1", "awardID": "00045877", "lon": "67.250000", "precision": "1", "focus_area_descr": "-"}, {"outputID": "00081441", "output_locID": "00081441-3", "name": "Herat", "focus_area": "-", "lat": "34.500000", "type": "ADM1", "awardID": "00045877", "lon": "62.000000", "precision": "1", "focus_area_descr": "-"}, {"outputID": "00081441", "output_locID": "00081441-4", "name": "Wilayat-e Kabul", "focus_area": "-", "lat": "34.500000", "type": "ADM1", "awardID": "00045877", "lon": "69.416670", "precision": "1", "focus_area_descr": "-"}, {"outputID": "00081441", "output_locID": "00081441-5", "name": "Nangarhar", "focus_area": "-", "lat": "34.333330", "type": "ADM1", "awardID": "00045877", "lon": "70.416670", "precision": "1", "focus_area_descr": "-"}, {"outputID": "00081440", "output_locID": "00081440-1", "name": "Balkh", "focus_area": "2", "lat": "36.75", "type": "ADM1", "awardID": "00045877", "lon": "67", "precision": "4", "focus_area_descr": "Democratic Governance"}, {"outputID": "00081440", "output_locID": "00081440-2", "name": "Herat", "focus_area": "2", "lat": "34.5", "type": "ADM1", "awardID": "00045877", "lon": "62", "precision": "4", "focus_area_descr": "Democratic Governance"}]}, {"title": "policy analysis and development - pad", "id": "00051206", "subnational": [{"outputID": "00081999", "output_locID": "00081999-1", "name": "Islamic Republic of Afghanistan", "focus_area": "3", "lat": "33.000000", "type": "PCLI", "awardID": "00051206", "lon": "66.000000", "precision": "1", "focus_area_descr": "Responsive Institutions"}, {"outputID": "00063647", "output_locID": "00063647-1", "name": "Afghanistan", "focus_area": "2", "lat": "33", "type": "PCL", "awardID": "00051206", "lon": "66", "precision": "9", "focus_area_descr": "Democratic Governance"}]}, {"title": "justice and human rights in afghanistan", "id": "00057613", "subnational": [{"outputID": "00071252", "output_locID": "00071252-1", "name": "Badakhshan", "focus_area": "-", "lat": "36.750000", "type": "ADM1", "awardID": "00057613", "lon": "72.000000", "precision": "1", "focus_area_descr": "-"}, {"outputID": "00071252", "output_locID": "00071252-2", "name": "Faryab Province", "focus_area": "-", "lat": "36.250000", "type": "ADM1", "awardID": "00057613", "lon": "64.833330", "precision": "1", "focus_area_descr": "-"}, {"outputID": "00071252", "output_locID": "00071252-3", "name": "Wilayat-e Jowzjan", "focus_area": "-", "lat": "36.833330", "type": "ADM1", "awardID": "00057613", "lon": "65.833330", "precision": "1", "focus_area_descr": "-"}]}, {"title": "enhancing legal and electoral capacity for tomorrow", "id": "00057970", "subnational": [{"outputID": "00071801", "output_locID": "00071801-1", "name": "Islamic Republic of Afghanistan", "focus_area": "-", "lat": "33.000000", "type": "PCLI", "awardID": "00057970", "lon": "66.000000", "precision": "1", "focus_area_descr": "-"}]}, {"title": "security gap project", "id": "00059538", "subnational": [{"outputID": "00074497", "output_locID": "00074497-1", "name": "Islamic Republic of Afghanistan", "focus_area": "3", "lat": "33.000000", "type": "PCLI", "awardID": "00059538", "lon": "66.000000", "precision": "1", "focus_area_descr": "Responsive Institutions"}, {"outputID": "00083705", "output_locID": "00083705-1", "name": "Islamic Republic of Afghanistan", "focus_area": "3", "lat": "33.000000", "type": "PCLI", "awardID": "00059538", "lon": "66.000000", "precision": "1", "focus_area_descr": "Responsive Institutions"}]}, {"title": "afghanistan integrity initiative", "id": "00065840", "subnational": [{"outputID": "00082180", "output_locID": "00082180-1", "name": "Islamic Republic of Afghanistan", "focus_area": "2", "lat": "33.000000", "type": "PCLI", "awardID": "00065840", "lon": "66.000000", "precision": "1", "focus_area_descr": "Democratic Governance"}]}, {"title": "intergrated models for pa & their co-management in afg", "id": "00067278", "subnational": [{"outputID": "00083147", "output_locID": "00083147-1", "name": "Wilayat-e Bamyan", "focus_area": "2", "lat": "34.750000", "type": "ADM1", "awardID": "00067278", "lon": "67.250000", "precision": "1", "focus_area_descr": "Democratic Governance"}]}, {"title": "strategic support to afghanistan parliament", "id": "00067595", "subnational": [{"outputID": "00085532", "output_locID": "00085532-1", "name": "Wilayat-e Kabul", "focus_area": "2", "lat": "34.500000", "type": "ADM1", "awardID": "00067595", "lon": "69.416670", "precision": "1", "focus_area_descr": "Democratic Governance"}, {"outputID": "00085533", "output_locID": "00085533-1", "name": "Wilayat-e Kabul", "focus_area": "2", "lat": "34.500000", "type": "ADM1", "awardID": "00067595", "lon": "69.416670", "precision": "1", "focus_area_descr": "Democratic Governance"}, {"outputID": "00083282", "output_locID": "00083282-1", "name": "Kabul", "focus_area": "2", "lat": "34.5", "type": "ADM1", "awardID": "00067595", "lon": "69.41667", "precision": "4", "focus_area_descr": "Democratic Governance"}]}, {"title": "operationalizing the undp afghanistan policy facilitatio", "id": "00068011", "subnational": []}, {"title": "ppg-resilience of rural livelihood", "id": "00072162", "subnational": [{"outputID": "00085336", "output_locID": "00085336-1", "name": "Herat", "focus_area": "5", "lat": "34.500000", "type": "ADM1", "awardID": "00072162", "lon": "62.000000", "precision": "1", "focus_area_descr": "Climate Change & Disaster Resilience"}]}, {"title": "un afghanistan risk management unit", "id": "00076393", "subnational": []}, {"title": "transition to transformation through the new deal", "id": "00077227", "subnational": []}, {"title": "capacity development & public administration", "id": "00078423", "subnational": []}, {"title": "access to justice at district level (ajdl)", "id": "00041283", "subnational": [{"outputID": "00047952", "output_locID": "00047952-1", "name": "Kabul", "focus_area": "6", "lat": "34.52813", "type": "PPLC", "awardID": "00041283", "lon": "69.17233", "precision": "3", "focus_area_descr": "Crisis Prevention & Recovery"}]}, {"title": "accountability & transparency project", "id": "00045444", "subnational": [{"outputID": "00053687", "output_locID": "00053687-1", "name": "Afghanistan", "focus_area": "6", "lat": "33", "type": "PCL", "awardID": "00045444", "lon": "66", "precision": "9", "focus_area_descr": "Crisis Prevention & Recovery"}]}, {"title": "afghan independent human right commission", "id": "00036021", "subnational": []}, {"title": "afghan natnl. dev. strategy", "id": "00044192", "subnational": [{"outputID": "00051821", "output_locID": "00051821-1", "name": "Afghanistan", "focus_area": "1", "lat": "33", "type": "PCL", "awardID": "00044192", "lon": "66", "precision": "9", "focus_area_descr": "Inclusive & Sustainable Growth"}]}, {"title": "afghanistan sub-national governance programme (asgp)", "id": "00043947", "subnational": [{"outputID": "00051486", "output_locID": "00051486-1", "name": "Afghanistan", "focus_area": "2", "lat": "33", "type": "PCL", "awardID": "00043947", "lon": "66", "precision": "9", "focus_area_descr": "Democratic Governance"}]}, {"title": "bridging the public information gap", "id": "00033167", "subnational": []}, {"title": "capacity building for human development", "id": "00043022", "subnational": [{"outputID": "00050008", "output_locID": "00050008-1", "name": "Afghanistan", "focus_area": "2", "lat": "33", "type": "PCL", "awardID": "00043022", "lon": "66", "precision": "9", "focus_area_descr": "Democratic Governance"}]}, {"title": "capacity for afghan pub. serv.9", "id": "00044410", "subnational": [{"outputID": "00052210", "output_locID": "00052210-1", "name": "Afghanistan", "focus_area": "2", "lat": "33", "type": "PCL", "awardID": "00044410", "lon": "66", "precision": "9", "focus_area_descr": "Democratic Governance"}]}, {"title": "comprehensive disaster risk reduction project", "id": "00044487", "subnational": [{"outputID": "00052355", "output_locID": "00052355-1", "name": "Afghanistan", "focus_area": "5", "lat": "33", "type": "PCL", "awardID": "00044487", "lon": "66", "precision": "9", "focus_area_descr": "Climate Change & Disaster Resilience"}, {"outputID": "00073939", "output_locID": "00073939-1", "name": "Afghanistan", "focus_area": "5", "lat": "33", "type": "PCL", "awardID": "00044487", "lon": "66", "precision": "9", "focus_area_descr": "Climate Change & Disaster Resilience"}]}, {"title": "counter narcotics trust fund", "id": "00040456", "subnational": [{"outputID": "00045781", "output_locID": "00045781-1", "name": "Badakshan", "focus_area": "1", "lat": "36.75", "type": "ADM1", "awardID": "00040456", "lon": "72", "precision": "4", "focus_area_descr": "Inclusive & Sustainable Growth"}, {"outputID": "00045781", "output_locID": "00045781-2", "name": "Farah", "focus_area": "1", "lat": "32.5", "type": "ADM1", "awardID": "00040456", "lon": "62.5", "precision": "4", "focus_area_descr": "Inclusive & Sustainable Growth"}, {"outputID": "00045781", "output_locID": "00045781-3", "name": "Ghor", "focus_area": "1", "lat": "34", "type": "ADM1", "awardID": "00040456", "lon": "65", "precision": "4", "focus_area_descr": "Inclusive & Sustainable Growth"}, {"outputID": "00045781", "output_locID": "00045781-4", "name": "Helmand", "focus_area": "1", "lat": "31", "type": "ADM1", "awardID": "00040456", "lon": "64", "precision": "4", "focus_area_descr": "Inclusive & Sustainable Growth"}, {"outputID": "00045781", "output_locID": "00045781-5", "name": "Kabul", "focus_area": "1", "lat": "34.5", "type": "ADM1", "awardID": "00040456", "lon": "69.41667", "precision": "4", "focus_area_descr": "Inclusive & Sustainable Growth"}, {"outputID": "00045781", "output_locID": "00045781-6", "name": "Kandahar", "focus_area": "1", "lat": "31", "type": "ADM1", "awardID": "00040456", "lon": "65.75", "precision": "4", "focus_area_descr": "Inclusive & Sustainable Growth"}, {"outputID": "00045781", "output_locID": "00045781-7", "name": "Nangarhar", "focus_area": "1", "lat": "34.33333", "type": "ADM1", "awardID": "00040456", "lon": "70.41667", "precision": "4", "focus_area_descr": "Inclusive & Sustainable Growth"}, {"outputID": "00045781", "output_locID": "00045781-8", "name": "Uruzgan", "focus_area": "1", "lat": "32.83333", "type": "ADM1", "awardID": "00040456", "lon": "66", "precision": "4", "focus_area_descr": "Inclusive & Sustainable Growth"}]}, {"title": "law & order trust fund for afghanistan phase v", "id": "00049760", "subnational": [{"outputID": "00060964", "output_locID": "00060964-1", "name": "Afghanistan", "focus_area": "6", "lat": "33", "type": "PCL", "awardID": "00049760", "lon": "66", "precision": "9", "focus_area_descr": "Crisis Prevention & Recovery"}]}, {"title": "management plan", "id": "00042142", "subnational": []}, {"title": "national re-integration project for afghan displaced", "id": "00058073", "subnational": [{"outputID": "00071990", "output_locID": "00071990-1", "name": "Afghanistan", "focus_area": "1", "lat": "33", "type": "PCL", "awardID": "00058073", "lon": "66", "precision": "9", "focus_area_descr": "Inclusive & Sustainable Growth"}]}, {"title": "partnership for peace", "id": "00011031", "subnational": [{"outputID": "00011031", "output_locID": "00011031-1", "name": "Afghanistan", "focus_area": "6", "lat": "33", "type": "PCL", "awardID": "00011031", "lon": "66", "precision": "9", "focus_area_descr": "Crisis Prevention & Recovery"}]}, {"title": "reintegration support project for ex-combatants (rspe)", "id": "00044445", "subnational": []}, {"title": "strength. state building through strateg. govt. comm.", "id": "00048861", "subnational": [{"outputID": "00059207", "output_locID": "00059207-1", "name": "Kabul", "focus_area": "2", "lat": "34.5", "type": "ADM1", "awardID": "00048861", "lon": "69.41667", "precision": "4", "focus_area_descr": "Democratic Governance"}]}, {"title": "strngthnd approach for intgratn. of sustnble envrnm mgmt", "id": "00050535", "subnational": [{"outputID": "00062490", "output_locID": "00062490-1", "name": "Badakhshan", "focus_area": "5", "lat": "36.75", "type": "ADM1", "awardID": "00050535", "lon": "72", "precision": "4", "focus_area_descr": "Climate Change & Disaster Resilience"}, {"outputID": "00062490", "output_locID": "00062490-2", "name": "Badghis", "focus_area": "5", "lat": "35", "type": "ADM1", "awardID": "00050535", "lon": "63.75", "precision": "4", "focus_area_descr": "Climate Change & Disaster Resilience"}, {"outputID": "00062490", "output_locID": "00062490-3", "name": "Bamiyan", "focus_area": "5", "lat": "34.75", "type": "ADM1", "awardID": "00050535", "lon": "67.25", "precision": "4", "focus_area_descr": "Climate Change & Disaster Resilience"}, {"outputID": "00062490", "output_locID": "00062490-4", "name": "Faryab", "focus_area": "5", "lat": "36.25", "type": "ADM1", "awardID": "00050535", "lon": "64.83333", "precision": "4", "focus_area_descr": "Climate Change & Disaster Resilience"}, {"outputID": "00062490", "output_locID": "00062490-5", "name": "Herat", "focus_area": "5", "lat": "34.5", "type": "ADM1", "awardID": "00050535", "lon": "62", "precision": "4", "focus_area_descr": "Climate Change & Disaster Resilience"}, {"outputID": "00062490", "output_locID": "00062490-6", "name": "Kunduz", "focus_area": "5", "lat": "36.75", "type": "ADM1", "awardID": "00050535", "lon": "68.75", "precision": "4", "focus_area_descr": "Climate Change & Disaster Resilience"}, {"outputID": "00062490", "output_locID": "00062490-7", "name": "Takhar", "focus_area": "5", "lat": "36.66667", "type": "ADM1", "awardID": "00050535", "lon": "69.75", "precision": "4", "focus_area_descr": "Climate Change & Disaster Resilience"}]}, {"title": "support to the center of government", "id": "00040864", "subnational": [{"outputID": "00046407", "output_locID": "00046407-1", "name": "Kabul", "focus_area": "2", "lat": "34.52813", "type": "PPLC", "awardID": "00040864", "lon": "69.17233", "precision": "3", "focus_area_descr": "Democratic Governance"}]}, {"title": "sustainable reintegration for afghan displaced (surad)", "id": "00062549", "subnational": [{"outputID": "00080090", "output_locID": "00080090-1", "name": "Afghanistan", "focus_area": "6", "lat": "33", "type": "PCL", "awardID": "00062549", "lon": "66", "precision": "9", "focus_area_descr": "Crisis Prevention & Recovery"}]}, {"title": "an initiative for greater un coherence in afghanistan", "id": "00067687", "subnational": []}, {"title": "building information management capacity", "id": "00034997", "subnational": [{"outputID": "00037482", "output_locID": "00037482-1", "name": "Afghanistan Geodesy and Cartography head office", "focus_area": "-", "lat": "34.52018", "type": "PPLC", "awardID": "00034997", "lon": "69.17997", "precision": "1", "focus_area_descr": "-"}]}, {"title": "pa - ammunition survey project", "id": "00039003", "subnational": []}, {"title": "pa - civil society empwrmt proj. (cisep)", "id": "00044366", "subnational": []}, {"title": "peace through justice programme", "id": "00057520", "subnational": []}, {"title": "afghanistan information management system sustainability", "id": "00058422", "subnational": []}, {"title": "aliceghan project", "id": "00044032", "subnational": []}, {"title": "assistance projects for declared drought emergency", "id": "00037275", "subnational": []}, {"title": "comprehensive disabled afghans' programme", "id": "00011038", "subnational": []}, {"title": "hiv/ aids response in afg", "id": "00041633", "subnational": []}, {"title": "mine clearance on kandahar - grishk road", "id": "00033859", "subnational": []}, {"title": "regional initiative for sustainable economy (rise)", "id": "00041324", "subnational": []}, {"title": "strategic support for afghan parliament", "id": "00060685", "subnational": []}, {"title": "support to diplomatic institution", "id": "00037199", "subnational": []}, {"title": "support to law & order -  ii", "id": "00035848", "subnational": []}, {"title": "support to law and order in afghanistan phase - iv", "id": "00044331", "subnational": []}, {"title": "support to the establishment of afg legislature", "id": "00038986", "subnational": []}, {"title": "support to unama for humanitarian coordination", "id": "00046030", "subnational": []}, {"title": "undp greening afghanistan initiative (gain)", "id": "00041642", "subnational": []}], "op_unit": "AFG"}