{"iso_num": null, "projects": [{"title": "national area-based development programme phase iii", "id": "00057359", "subnational": [{"outputID": "00100717", "output_locID": "00100717-1", "name": "Parwan", "focus_area": "6", "lat": "35.000000", "type": "ADM1", "awardID": "00057359", "lon": "68.916670", "precision": "1", "focus_area_descr": "Early Recovery"}, {"outputID": "00081444", "output_locID": "00081444-1", "name": "Kabul", "focus_area": "6", "lat": "34.528130", "type": "PPLC", "awardID": "00057359", "lon": "69.172330", "precision": "1", "focus_area_descr": "Early Recovery"}, {"outputID": "00081452", "output_locID": "00081452-1", "name": "Kabul", "focus_area": "6", "lat": "34.528130", "type": "PPLC", "awardID": "00057359", "lon": "69.172330", "precision": "1", "focus_area_descr": "Early Recovery"}, {"outputID": "00070832", "output_locID": "00070832-1", "name": "Kabul", "focus_area": "6", "lat": "34.528130", "type": "PPLC", "awardID": "00057359", "lon": "69.172330", "precision": "1", "focus_area_descr": "Early Recovery"}]}, {"title": "afghanistan peace & reintegration programme", "id": "00060777", "subnational": [{"outputID": "00079480", "output_locID": "00079480-1", "name": "Kabul", "focus_area": "5", "lat": "34.528130", "type": "PPLC", "awardID": "00060777", "lon": "69.172330", "precision": "1", "focus_area_descr": "Risk Reduction"}, {"outputID": "00079527", "output_locID": "00079527-1", "name": "Kabul", "focus_area": "5", "lat": "34.528130", "type": "PPLC", "awardID": "00060777", "lon": "69.172330", "precision": "1", "focus_area_descr": "Risk Reduction"}, {"outputID": "00079526", "output_locID": "00079526-1", "name": "Kabul", "focus_area": "5", "lat": "34.528130", "type": "PPLC", "awardID": "00060777", "lon": "69.172330", "precision": "1", "focus_area_descr": "Risk Reduction"}, {"outputID": "00079529", "output_locID": "00079529-1", "name": "Nangarhar", "focus_area": "5", "lat": "34.333330", "type": "ADM1", "awardID": "00060777", "lon": "70.416670", "precision": "1", "focus_area_descr": "Risk Reduction"}, {"outputID": "00079529", "output_locID": "00079529-2", "name": "Kunduz", "focus_area": "5", "lat": "36.750000", "type": "ADM1", "awardID": "00060777", "lon": "68.750000", "precision": "1", "focus_area_descr": "Risk Reduction"}, {"outputID": "00079529", "output_locID": "00079529-3", "name": "Kandahar", "focus_area": "5", "lat": "31.000000", "type": "ADM1", "awardID": "00060777", "lon": "65.750000", "precision": "1", "focus_area_descr": "Risk Reduction"}, {"outputID": "00079529", "output_locID": "00079529-4", "name": "Kabul", "focus_area": "5", "lat": "34.500000", "type": "ADM1", "awardID": "00060777", "lon": "69.416670", "precision": "1", "focus_area_descr": "Risk Reduction"}, {"outputID": "00079529", "output_locID": "00079529-5", "name": "Kabul", "focus_area": "5", "lat": "34.528130", "type": "PPLC", "awardID": "00060777", "lon": "69.172330", "precision": "1", "focus_area_descr": "Risk Reduction"}, {"outputID": "00079529", "output_locID": "00079529-6", "name": "Herat", "focus_area": "5", "lat": "34.500000", "type": "ADM1", "awardID": "00060777", "lon": "62.000000", "precision": "1", "focus_area_descr": "Risk Reduction"}, {"outputID": "00079529", "output_locID": "00079529-7", "name": "Balkh", "focus_area": "5", "lat": "36.750000", "type": "ADM1", "awardID": "00060777", "lon": "67.000000", "precision": "1", "focus_area_descr": "Risk Reduction"}]}, {"title": "strengthening the resilience of rural livelihood options", "id": "00076056", "subnational": [{"outputID": "00087639", "output_locID": "00087639-1", "name": "Ghorian", "focus_area": "1", "lat": "34.179690", "type": "ADM2", "awardID": "00076056", "lon": "61.158100", "precision": "1", "focus_area_descr": "Inclusive Growth"}, {"outputID": "00087639", "output_locID": "00087639-2", "name": "Guz\u00afarah", "focus_area": "1", "lat": "34.038330", "type": "ADM2", "awardID": "00076056", "lon": "62.044270", "precision": "1", "focus_area_descr": "Inclusive Growth"}, {"outputID": "00087639", "output_locID": "00087639-3", "name": "Deh Rawud", "focus_area": "1", "lat": "32.584700", "type": "ADM2", "awardID": "00076056", "lon": "65.465690", "precision": "1", "focus_area_descr": "Inclusive Growth"}, {"outputID": "00087639", "output_locID": "00087639-4", "name": "Tarin Kot", "focus_area": "1", "lat": "32.679050", "type": "ADM2", "awardID": "00076056", "lon": "65.912090", "precision": "1", "focus_area_descr": "Inclusive Growth"}, {"outputID": "00087639", "output_locID": "00087639-5", "name": "Bazarak", "focus_area": "1", "lat": "35.369490", "type": "ADM2", "awardID": "00076056", "lon": "69.506050", "precision": "1", "focus_area_descr": "Inclusive Growth"}, {"outputID": "00087639", "output_locID": "00087639-6", "name": "Parian", "focus_area": "1", "lat": "35.649630", "type": "ADM2", "awardID": "00076056", "lon": "70.045020", "precision": "1", "focus_area_descr": "Inclusive Growth"}, {"outputID": "00087639", "output_locID": "00087639-7", "name": "Mazar-e Sharif", "focus_area": "1", "lat": "36.709930", "type": "ADM2", "awardID": "00076056", "lon": "67.115700", "precision": "1", "focus_area_descr": "Inclusive Growth"}]}, {"title": "un afghanistan risk management unit", "id": "00076393", "subnational": [{"outputID": "00087805", "output_locID": "00087805-1", "name": "Kabul", "focus_area": "16", "lat": "34.528130", "type": "PPLC", "awardID": "00076393", "lon": "69.172330", "precision": "1", "focus_area_descr": "Organizational Results Area 9"}]}, {"title": "establishing integrated models for protected areas", "id": "00076820", "subnational": [{"outputID": "00088001", "output_locID": "00088001-1", "name": "Bamyan", "focus_area": "2", "lat": "34.750000", "type": "ADM1", "awardID": "00076820", "lon": "67.250000", "precision": "1", "focus_area_descr": "Democratic Governance"}, {"outputID": "00088001", "output_locID": "00088001-2", "name": "Badakhshan", "focus_area": "2", "lat": "36.750000", "type": "ADM1", "awardID": "00076820", "lon": "72.000000", "precision": "1", "focus_area_descr": "Democratic Governance"}]}, {"title": "institutional and capacity support to the parliament of afghanistan (icspa)", "id": "00080438", "subnational": [{"outputID": "00090121", "output_locID": "00090121-1", "name": "Kabul", "focus_area": "2", "lat": "34.528130", "type": "PPLC", "awardID": "00080438", "lon": "69.172330", "precision": "1", "focus_area_descr": "Democratic Governance"}, {"outputID": "00101524", "output_locID": "00101524-1", "name": "Kabul", "focus_area": "2", "lat": "34.528130", "type": "PPLC", "awardID": "00080438", "lon": "69.172330", "precision": "1", "focus_area_descr": "Democratic Governance"}, {"outputID": "00101526", "output_locID": "00101526-1", "name": "Kabul", "focus_area": "2", "lat": "34.528130", "type": "PPLC", "awardID": "00080438", "lon": "69.172330", "precision": "1", "focus_area_descr": "Democratic Governance"}, {"outputID": "00101528", "output_locID": "00101528-1", "name": "Kabul", "focus_area": "2", "lat": "34.528130", "type": "PPLC", "awardID": "00080438", "lon": "69.172330", "precision": "1", "focus_area_descr": "Democratic Governance"}, {"outputID": "00090114", "output_locID": "00090114-1", "name": "Kabul", "focus_area": "2", "lat": "34.528130", "type": "PPLC", "awardID": "00080438", "lon": "69.172330", "precision": "1", "focus_area_descr": "Democratic Governance"}, {"outputID": "00096914", "output_locID": "00096914-1", "name": "Kabul", "focus_area": "2", "lat": "34.528130", "type": "PPLC", "awardID": "00080438", "lon": "69.172330", "precision": "1", "focus_area_descr": "Democratic Governance"}, {"outputID": "00090120", "output_locID": "00090120-1", "name": "Kabul", "focus_area": "2", "lat": "34.528130", "type": "PPLC", "awardID": "00080438", "lon": "69.172330", "precision": "1", "focus_area_descr": "Democratic Governance"}, {"outputID": "00090122", "output_locID": "00090122-1", "name": "Kabul", "focus_area": "2", "lat": "34.528130", "type": "PPLC", "awardID": "00080438", "lon": "69.172330", "precision": "1", "focus_area_descr": "Democratic Governance"}]}, {"title": "strengthening the health system to reduce mortality and", "id": "00087876", "subnational": [{"outputID": "00094758", "output_locID": "00094758-1", "name": "Takhar", "focus_area": "3", "lat": "36.666670", "type": "ADM1", "awardID": "00087876", "lon": "69.750000", "precision": "1", "focus_area_descr": "Basic Services"}, {"outputID": "00094758", "output_locID": "00094758-2", "name": "Sar-e Pul", "focus_area": "3", "lat": "35.833330", "type": "ADM1", "awardID": "00087876", "lon": "66.166670", "precision": "1", "focus_area_descr": "Basic Services"}, {"outputID": "00094758", "output_locID": "00094758-3", "name": "Paktia", "focus_area": "3", "lat": "33.666670", "type": "ADM1", "awardID": "00087876", "lon": "69.333330", "precision": "1", "focus_area_descr": "Basic Services"}, {"outputID": "00094758", "output_locID": "00094758-4", "name": "Farah", "focus_area": "3", "lat": "32.500000", "type": "ADM1", "awardID": "00087876", "lon": "62.500000", "precision": "1", "focus_area_descr": "Basic Services"}, {"outputID": "00094758", "output_locID": "00094758-5", "name": "Baghlan", "focus_area": "3", "lat": "35.750000", "type": "ADM1", "awardID": "00087876", "lon": "69.000000", "precision": "1", "focus_area_descr": "Basic Services"}, {"outputID": "00094758", "output_locID": "00094758-6", "name": "Nuristan", "focus_area": "3", "lat": "35.300000", "type": "ADM1", "awardID": "00087876", "lon": "70.833330", "precision": "1", "focus_area_descr": "Basic Services"}]}, {"title": "supporting treatment and control of tuberculosis in afghanistan", "id": "00087877", "subnational": [{"outputID": "00094759", "output_locID": "00094759-1", "name": "Wardak", "focus_area": "3", "lat": "34.250000", "type": "ADM1", "awardID": "00087877", "lon": "68.000000", "precision": "1", "focus_area_descr": "Basic Services"}, {"outputID": "00094759", "output_locID": "00094759-2", "name": "Sar-e Pul", "focus_area": "3", "lat": "35.833330", "type": "ADM1", "awardID": "00087877", "lon": "66.166670", "precision": "1", "focus_area_descr": "Basic Services"}, {"outputID": "00094759", "output_locID": "00094759-3", "name": "Parwan", "focus_area": "3", "lat": "35.000000", "type": "ADM1", "awardID": "00087877", "lon": "68.916670", "precision": "1", "focus_area_descr": "Basic Services"}, {"outputID": "00094759", "output_locID": "00094759-4", "name": "Paktia", "focus_area": "3", "lat": "33.666670", "type": "ADM1", "awardID": "00087877", "lon": "69.333330", "precision": "1", "focus_area_descr": "Basic Services"}, {"outputID": "00094759", "output_locID": "00094759-5", "name": "Nangarhar", "focus_area": "3", "lat": "34.333330", "type": "ADM1", "awardID": "00087877", "lon": "70.416670", "precision": "1", "focus_area_descr": "Basic Services"}, {"outputID": "00094759", "output_locID": "00094759-6", "name": "Mehtar Lam", "focus_area": "3", "lat": "34.671390", "type": "PPLA", "awardID": "00087877", "lon": "70.209440", "precision": "1", "focus_area_descr": "Basic Services"}, {"outputID": "00094759", "output_locID": "00094759-7", "name": "Logar", "focus_area": "3", "lat": "34.000000", "type": "ADM1", "awardID": "00087877", "lon": "69.250000", "precision": "1", "focus_area_descr": "Basic Services"}, {"outputID": "00094759", "output_locID": "00094759-8", "name": "Kunduz", "focus_area": "3", "lat": "36.750000", "type": "ADM1", "awardID": "00087877", "lon": "68.750000", "precision": "1", "focus_area_descr": "Basic Services"}, {"outputID": "00094759", "output_locID": "00094759-9", "name": "Kapisa", "focus_area": "3", "lat": "35.000000", "type": "ADM1", "awardID": "00087877", "lon": "69.583330", "precision": "1", "focus_area_descr": "Basic Services"}, {"outputID": "00094759", "output_locID": "00094759-10", "name": "Kandahar", "focus_area": "3", "lat": "31.000000", "type": "ADM1", "awardID": "00087877", "lon": "65.750000", "precision": "1", "focus_area_descr": "Basic Services"}, {"outputID": "00094759", "output_locID": "00094759-11", "name": "Kabul", "focus_area": "3", "lat": "34.528130", "type": "PPLC", "awardID": "00087877", "lon": "69.172330", "precision": "1", "focus_area_descr": "Basic Services"}, {"outputID": "00094759", "output_locID": "00094759-12", "name": "Herat", "focus_area": "3", "lat": "34.500000", "type": "ADM1", "awardID": "00087877", "lon": "62.000000", "precision": "1", "focus_area_descr": "Basic Services"}, {"outputID": "00094759", "output_locID": "00094759-13", "name": "Helmand", "focus_area": "3", "lat": "31.000000", "type": "ADM1", "awardID": "00087877", "lon": "64.000000", "precision": "1", "focus_area_descr": "Basic Services"}, {"outputID": "00094759", "output_locID": "00094759-14", "name": "Ghowr", "focus_area": "3", "lat": "34.000000", "type": "ADM1", "awardID": "00087877", "lon": "65.000000", "precision": "1", "focus_area_descr": "Basic Services"}, {"outputID": "00094759", "output_locID": "00094759-15", "name": "Ghazni", "focus_area": "3", "lat": "33.333330", "type": "ADM1", "awardID": "00087877", "lon": "67.750000", "precision": "1", "focus_area_descr": "Basic Services"}, {"outputID": "00094759", "output_locID": "00094759-16", "name": "Bamyan", "focus_area": "3", "lat": "34.750000", "type": "ADM1", "awardID": "00087877", "lon": "67.250000", "precision": "1", "focus_area_descr": "Basic Services"}, {"outputID": "00094759", "output_locID": "00094759-17", "name": "Balkh", "focus_area": "3", "lat": "36.750000", "type": "ADM1", "awardID": "00087877", "lon": "67.000000", "precision": "1", "focus_area_descr": "Basic Services"}, {"outputID": "00094759", "output_locID": "00094759-18", "name": "Panjshir", "focus_area": "3", "lat": "35.402480", "type": "ADM1", "awardID": "00087877", "lon": "69.982910", "precision": "1", "focus_area_descr": "Basic Services"}]}, {"title": "afghanistan sustainable energy for rural development", "id": "00088841", "subnational": [{"outputID": "00097828", "output_locID": "00097828-1", "name": "Kabul", "focus_area": "1", "lat": "34.528130", "type": "PPLC", "awardID": "00088841", "lon": "69.172330", "precision": "1", "focus_area_descr": "Inclusive Growth"}, {"outputID": "00097829", "output_locID": "00097829-1", "name": "Kabul", "focus_area": "1", "lat": "34.528130", "type": "PPLC", "awardID": "00088841", "lon": "69.172330", "precision": "1", "focus_area_descr": "Inclusive Growth"}, {"outputID": "00097848", "output_locID": "00097848-1", "name": "Kabul", "focus_area": "1", "lat": "34.528130", "type": "PPLC", "awardID": "00088841", "lon": "69.172330", "precision": "1", "focus_area_descr": "Inclusive Growth"}, {"outputID": "00097849", "output_locID": "00097849-1", "name": "Kabul", "focus_area": "1", "lat": "34.528130", "type": "PPLC", "awardID": "00088841", "lon": "69.172330", "precision": "1", "focus_area_descr": "Inclusive Growth"}, {"outputID": "00095322", "output_locID": "00095322-1", "name": "Kabul", "focus_area": "1", "lat": "34.528130", "type": "PPLC", "awardID": "00088841", "lon": "69.172330", "precision": "1", "focus_area_descr": "Inclusive Growth"}]}, {"title": "support to elections in afghanistan", "id": "00089136", "subnational": [{"outputID": "00095494", "output_locID": "00095494-1", "name": "Kabul", "focus_area": "2", "lat": "34.528130", "type": "PPLC", "awardID": "00089136", "lon": "69.172330", "precision": "1", "focus_area_descr": "Democratic Governance"}]}, {"title": "law and order trust fund for afghanistan (lotfa) - support to payroll management", "id": "00089137", "subnational": [{"outputID": "00095495", "output_locID": "00095495-1", "name": "Kabul", "focus_area": "3", "lat": "34.528130", "type": "PPLC", "awardID": "00089137", "lon": "69.172330", "precision": "1", "focus_area_descr": "Basic Services"}, {"outputID": "00095840", "output_locID": "00095840-1", "name": "Kabul", "focus_area": "3", "lat": "34.528130", "type": "PPLC", "awardID": "00089137", "lon": "69.172330", "precision": "1", "focus_area_descr": "Basic Services"}, {"outputID": "00095844", "output_locID": "00095844-1", "name": "Kabul", "focus_area": "3", "lat": "34.528130", "type": "PPLC", "awardID": "00089137", "lon": "69.172330", "precision": "1", "focus_area_descr": "Basic Services"}, {"outputID": "00095846", "output_locID": "00095846-1", "name": "Kabul", "focus_area": "3", "lat": "34.528130", "type": "PPLC", "awardID": "00089137", "lon": "69.172330", "precision": "1", "focus_area_descr": "Basic Services"}, {"outputID": "00095848", "output_locID": "00095848-1", "name": "Kabul", "focus_area": "3", "lat": "34.528130", "type": "PPLC", "awardID": "00089137", "lon": "69.172330", "precision": "1", "focus_area_descr": "Basic Services"}, {"outputID": "00095849", "output_locID": "00095849-1", "name": "Kabul", "focus_area": "3", "lat": "34.528130", "type": "PPLC", "awardID": "00089137", "lon": "69.172330", "precision": "1", "focus_area_descr": "Basic Services"}]}, {"title": "local governance project-afghanistan", "id": "00090448", "subnational": [{"outputID": "00096765", "output_locID": "00096765-1", "name": "Sar-e Pul", "focus_area": "3", "lat": "36.215440", "type": "PPLA", "awardID": "00090448", "lon": "65.932490", "precision": "1", "focus_area_descr": "Basic Services"}, {"outputID": "00096765", "output_locID": "00096765-2", "name": "Rukhah", "focus_area": "3", "lat": "35.264820", "type": "PPL", "awardID": "00090448", "lon": "69.468660", "precision": "1", "focus_area_descr": "Basic Services"}, {"outputID": "00096765", "output_locID": "00096765-3", "name": "Bamyan", "focus_area": "3", "lat": "34.750000", "type": "ADM1", "awardID": "00090448", "lon": "67.250000", "precision": "1", "focus_area_descr": "Basic Services"}, {"outputID": "00096766", "output_locID": "00096766-1", "name": "Shahrah", "focus_area": "3", "lat": "33.689710", "type": "PPL", "awardID": "00090448", "lon": "66.551160", "precision": "1", "focus_area_descr": "Basic Services"}, {"outputID": "00096767", "output_locID": "00096767-1", "name": "Mazar", "focus_area": "3", "lat": "35.818640", "type": "PPL", "awardID": "00090448", "lon": "66.803460", "precision": "1", "focus_area_descr": "Basic Services"}, {"outputID": "00096768", "output_locID": "00096768-1", "name": "Kabul", "focus_area": "3", "lat": "34.528130", "type": "PPLC", "awardID": "00090448", "lon": "69.172330", "precision": "1", "focus_area_descr": "Basic Services"}, {"outputID": "00096768", "output_locID": "00096768-2", "name": "Herat", "focus_area": "3", "lat": "34.348170", "type": "PPLA", "awardID": "00090448", "lon": "62.199670", "precision": "1", "focus_area_descr": "Basic Services"}]}, {"title": "medical emergency trauma", "id": "00090551", "subnational": [{"outputID": "00096257", "output_locID": "00096257-1", "name": "Kabul", "focus_area": "8", "lat": "34.528130", "type": "PPLC", "awardID": "00090551", "lon": "69.172330", "precision": "1", "focus_area_descr": "Organizational Results Area 1"}]}, {"title": "enhancing gender equality & mainstreaming in afghanistan", "id": "00091070", "subnational": [{"outputID": "00096510", "output_locID": "00096510-1", "name": "Kabul", "focus_area": "4", "lat": "34.528130", "type": "PPLC", "awardID": "00091070", "lon": "69.172330", "precision": "1", "focus_area_descr": "Gender Equality"}, {"outputID": "00096511", "output_locID": "00096511-1", "name": "Herat", "focus_area": "4", "lat": "34.500000", "type": "ADM1", "awardID": "00091070", "lon": "62.000000", "precision": "1", "focus_area_descr": "Gender Equality"}, {"outputID": "00096511", "output_locID": "00096511-2", "name": "Balkh", "focus_area": "4", "lat": "36.750000", "type": "ADM1", "awardID": "00091070", "lon": "67.000000", "precision": "1", "focus_area_descr": "Gender Equality"}, {"outputID": "00096511", "output_locID": "00096511-3", "name": "Kabul", "focus_area": "4", "lat": "34.496140", "type": "ADM2", "awardID": "00091070", "lon": "69.105490", "precision": "1", "focus_area_descr": "Gender Equality"}, {"outputID": "00096512", "output_locID": "00096512-1", "name": "Kabul", "focus_area": "4", "lat": "34.496140", "type": "ADM2", "awardID": "00091070", "lon": "69.105490", "precision": "1", "focus_area_descr": "Gender Equality"}, {"outputID": "00099693", "output_locID": "00099693-1", "name": "Kabul", "focus_area": "4", "lat": "34.528130", "type": "PPLC", "awardID": "00091070", "lon": "69.172330", "precision": "1", "focus_area_descr": "Gender Equality"}, {"outputID": "00099693", "output_locID": "00099693-2", "name": "Kabul", "focus_area": "4", "lat": "34.496140", "type": "ADM2", "awardID": "00091070", "lon": "69.105490", "precision": "1", "focus_area_descr": "Gender Equality"}, {"outputID": "00100229", "output_locID": "00100229-1", "name": "Kabul", "focus_area": "4", "lat": "34.528130", "type": "PPLC", "awardID": "00091070", "lon": "69.172330", "precision": "1", "focus_area_descr": "Gender Equality"}]}, {"title": "scaling-up malaria prevention", "id": "00091621", "subnational": [{"outputID": "00096733", "output_locID": "00096733-1", "name": "Kabul", "focus_area": "3", "lat": "34.528130", "type": "PPLC", "awardID": "00091621", "lon": "69.172330", "precision": "1", "focus_area_descr": "Basic Services"}]}, {"title": "adapting afghan communities to climate-induced disaster risks", "id": "00092963", "subnational": [{"outputID": "00097440", "output_locID": "00097440-1", "name": "Bamyan", "focus_area": "1", "lat": "34.750000", "type": "ADM1", "awardID": "00092963", "lon": "67.250000", "precision": "1", "focus_area_descr": "Inclusive Growth"}, {"outputID": "00097440", "output_locID": "00097440-2", "name": "Badakhshan", "focus_area": "1", "lat": "36.750000", "type": "ADM1", "awardID": "00092963", "lon": "72.000000", "precision": "1", "focus_area_descr": "Inclusive Growth"}]}, {"title": "national human development report", "id": "00093793", "subnational": [{"outputID": "00098038", "output_locID": "00098038-1", "name": "Kabul", "focus_area": "1", "lat": "34.528130", "type": "PPLC", "awardID": "00093793", "lon": "69.172330", "precision": "1", "focus_area_descr": "Inclusive Growth"}]}, {"title": "afghanistan access to justice (aa2j)", "id": "00094291", "subnational": [{"outputID": "00098431", "output_locID": "00098431-1", "name": "Kabul", "focus_area": "3", "lat": "34.528130", "type": "PPLC", "awardID": "00094291", "lon": "69.172330", "precision": "1", "focus_area_descr": "Basic Services"}, {"outputID": "00099700", "output_locID": "00099700-1", "name": "Kabul", "focus_area": "3", "lat": "34.528130", "type": "PPLC", "awardID": "00094291", "lon": "69.172330", "precision": "1", "focus_area_descr": "Basic Services"}, {"outputID": "00099701", "output_locID": "00099701-1", "name": "Kabul", "focus_area": "3", "lat": "34.528130", "type": "PPLC", "awardID": "00094291", "lon": "69.172330", "precision": "1", "focus_area_descr": "Basic Services"}, {"outputID": "00099703", "output_locID": "00099703-1", "name": "Kabul", "focus_area": "3", "lat": "34.528130", "type": "PPLC", "awardID": "00094291", "lon": "69.172330", "precision": "1", "focus_area_descr": "Basic Services"}]}, {"title": "support afghanistan livelihoods and mobility (salam) project", "id": "00094515", "subnational": [{"outputID": "00098662", "output_locID": "00098662-1", "name": "Kabul", "focus_area": "1", "lat": "34.528130", "type": "PPLC", "awardID": "00094515", "lon": "69.172330", "precision": "1", "focus_area_descr": "Inclusive Growth"}, {"outputID": "00098663", "output_locID": "00098663-1", "name": "Kabul", "focus_area": "1", "lat": "34.528130", "type": "PPLC", "awardID": "00094515", "lon": "69.172330", "precision": "1", "focus_area_descr": "Inclusive Growth"}]}, {"title": "support to coordination, planning and monitoring of sustainable development goals (sdgs) in afghanistan", "id": "00094634", "subnational": [{"outputID": "00098730", "output_locID": "00098730-1", "name": "Kabul", "focus_area": "2", "lat": "34.528130", "type": "PPLC", "awardID": "00094634", "lon": "69.172330", "precision": "1", "focus_area_descr": "Democratic Governance"}, {"outputID": "00100704", "output_locID": "00100704-1", "name": "Kabul", "focus_area": "2", "lat": "34.528130", "type": "PPLC", "awardID": "00094634", "lon": "69.172330", "precision": "1", "focus_area_descr": "Democratic Governance"}, {"outputID": "00100786", "output_locID": "00100786-1", "name": "Kabul", "focus_area": "2", "lat": "34.528130", "type": "PPLC", "awardID": "00094634", "lon": "69.172330", "precision": "1", "focus_area_descr": "Democratic Governance"}]}, {"title": "support to afghanistan national strategy & plan (ands ii)", "id": "00095579", "subnational": [{"outputID": "00099595", "output_locID": "00099595-1", "name": "Kabul", "focus_area": "2", "lat": "34.528130", "type": "PPLC", "awardID": "00095579", "lon": "69.172330", "precision": "1", "focus_area_descr": "Democratic Governance"}, {"outputID": "00101448", "output_locID": "00101448-1", "name": "Kabul", "focus_area": "2", "lat": "34.528130", "type": "PPLC", "awardID": "00095579", "lon": "69.172330", "precision": "1", "focus_area_descr": "Democratic Governance"}, {"outputID": "00099594", "output_locID": "00099594-1", "name": "Kabul", "focus_area": "2", "lat": "34.528130", "type": "PPLC", "awardID": "00095579", "lon": "69.172330", "precision": "1", "focus_area_descr": "Democratic Governance"}, {"outputID": "00099593", "output_locID": "00099593-1", "name": "Kabul", "focus_area": "2", "lat": "34.528130", "type": "PPLC", "awardID": "00095579", "lon": "69.172330", "precision": "1", "focus_area_descr": "Democratic Governance"}]}, {"title": "conservation of snow-leopards and their critical ecosystem in afghanistan", "id": "00096750", "subnational": [{"outputID": "00100674", "output_locID": "00100674-1", "name": "Badakhshan", "focus_area": "2", "lat": "36.750000", "type": "ADM1", "awardID": "00096750", "lon": "72.000000", "precision": "1", "focus_area_descr": "Democratic Governance"}]}, {"title": "scaling up hiv interventions among key affected population (kap)", "id": "00096896", "subnational": [{"outputID": "00100800", "output_locID": "00100800-1", "name": "Nangarhar", "focus_area": "3", "lat": "34.333330", "type": "ADM1", "awardID": "00096896", "lon": "70.416670", "precision": "1", "focus_area_descr": "Basic Services"}, {"outputID": "00100800", "output_locID": "00100800-2", "name": "Kunduz", "focus_area": "3", "lat": "36.750000", "type": "ADM1", "awardID": "00096896", "lon": "68.750000", "precision": "1", "focus_area_descr": "Basic Services"}, {"outputID": "00100800", "output_locID": "00100800-3", "name": "Khost", "focus_area": "3", "lat": "33.339510", "type": "PPLA", "awardID": "00096896", "lon": "69.920410", "precision": "1", "focus_area_descr": "Basic Services"}, {"outputID": "00100800", "output_locID": "00100800-4", "name": "Kabul", "focus_area": "3", "lat": "34.528130", "type": "PPLC", "awardID": "00096896", "lon": "69.172330", "precision": "1", "focus_area_descr": "Basic Services"}, {"outputID": "00100800", "output_locID": "00100800-5", "name": "Herat", "focus_area": "3", "lat": "34.500000", "type": "ADM1", "awardID": "00096896", "lon": "62.000000", "precision": "1", "focus_area_descr": "Basic Services"}, {"outputID": "00100800", "output_locID": "00100800-6", "name": "Ghazni", "focus_area": "3", "lat": "33.333330", "type": "ADM1", "awardID": "00096896", "lon": "67.750000", "precision": "1", "focus_area_descr": "Basic Services"}, {"outputID": "00100800", "output_locID": "00100800-7", "name": "Balkh", "focus_area": "3", "lat": "36.750000", "type": "ADM1", "awardID": "00096896", "lon": "67.000000", "precision": "1", "focus_area_descr": "Basic Services"}]}, {"title": "livelihood improvement in tajik-afghan cross-border area", "id": "00097935", "subnational": [{"outputID": "00101473", "output_locID": "00101473-1", "name": "Takhar", "focus_area": "1", "lat": "36.666670", "type": "ADM1", "awardID": "00097935", "lon": "69.750000", "precision": "1", "focus_area_descr": "Inclusive Growth"}, {"outputID": "00108179", "output_locID": "00108179-1", "name": "Badakhshan", "focus_area": "1", "lat": "36.750000", "type": "ADM1", "awardID": "00097935", "lon": "72.000000", "precision": "1", "focus_area_descr": "Inclusive Growth"}]}, {"title": "community-based agriculture and rural development - west (cbard-w)", "id": "00097936", "subnational": [{"outputID": "00101474", "output_locID": "00101474-1", "name": "Farah", "focus_area": "1", "lat": "32.217680", "type": "ADM2", "awardID": "00097936", "lon": "62.259920", "precision": "1", "focus_area_descr": "Inclusive Growth"}, {"outputID": "00102012", "output_locID": "00102012-1", "name": "Kabul", "focus_area": "1", "lat": "34.528130", "type": "PPLC", "awardID": "00097936", "lon": "69.172330", "precision": "1", "focus_area_descr": "Inclusive Growth"}]}, {"title": "scaling up hiv interventions among key affected population (kap)", "id": "00098022", "subnational": []}, {"title": "scaling-up malaria prevention & case management", "id": "00098023", "subnational": []}, {"title": "scaling up approaches to respond to tb challenges and strengthening health systems initiatives in afghanistan.", "id": "00098024", "subnational": []}, {"title": "climate-induced disaster risk reduction project (cdrrp)", "id": "00098027", "subnational": [{"outputID": "00101512", "output_locID": "00101512-1", "name": "Nangarhar", "focus_area": "1", "lat": "34.333330", "type": "ADM1", "awardID": "00098027", "lon": "70.416670", "precision": "1", "focus_area_descr": "Inclusive Growth"}, {"outputID": "00101512", "output_locID": "00101512-2", "name": "Jowzjan", "focus_area": "1", "lat": "36.833330", "type": "ADM1", "awardID": "00098027", "lon": "65.833330", "precision": "1", "focus_area_descr": "Inclusive Growth"}]}, {"title": "community-based agriculture and rural development - east (cbard-e)", "id": "00098771", "subnational": [{"outputID": "00101990", "output_locID": "00101990-1", "name": "Kabul", "focus_area": "1", "lat": "34.528130", "type": "PPLC", "awardID": "00098771", "lon": "69.172330", "precision": "1", "focus_area_descr": "Inclusive Growth"}]}, {"title": "management support to livelihoods and resilience unit", "id": "00099334", "subnational": [{"outputID": "00102629", "output_locID": "00102629-1", "name": "Kabul", "focus_area": "14", "lat": "34.528130", "type": "PPLC", "awardID": "00099334", "lon": "69.172330", "precision": "1", "focus_area_descr": "Organizational Results Area 7"}]}, {"title": "ministry of interior affairs and police development project (mpd)", "id": "00101479", "subnational": [{"outputID": "00103908", "output_locID": "00103908-1", "name": "Kabul", "focus_area": "2", "lat": "34.528130", "type": "PPLC", "awardID": "00101479", "lon": "69.172330", "precision": "1", "focus_area_descr": "Democratic Governance"}, {"outputID": "00103909", "output_locID": "00103909-1", "name": "Kabul", "focus_area": "2", "lat": "34.500000", "type": "ADM1", "awardID": "00101479", "lon": "69.416670", "precision": "1", "focus_area_descr": "Democratic Governance"}, {"outputID": "00103910", "output_locID": "00103910-1", "name": "Kabul", "focus_area": "2", "lat": "34.528130", "type": "PPLC", "awardID": "00101479", "lon": "69.172330", "precision": "1", "focus_area_descr": "Democratic Governance"}, {"outputID": "00103911", "output_locID": "00103911-1", "name": "Kabul", "focus_area": "2", "lat": "34.500000", "type": "ADM1", "awardID": "00101479", "lon": "69.416670", "precision": "1", "focus_area_descr": "Democratic Governance"}, {"outputID": "00103912", "output_locID": "00103912-1", "name": "Kabul", "focus_area": "2", "lat": "34.528130", "type": "PPLC", "awardID": "00101479", "lon": "69.172330", "precision": "1", "focus_area_descr": "Democratic Governance"}, {"outputID": "00103913", "output_locID": "00103913-1", "name": "Kabul", "focus_area": "2", "lat": "34.500000", "type": "ADM1", "awardID": "00101479", "lon": "69.416670", "precision": "1", "focus_area_descr": "Democratic Governance"}, {"outputID": "00103914", "output_locID": "00103914-1", "name": "Kabul", "focus_area": "2", "lat": "34.528130", "type": "PPLC", "awardID": "00101479", "lon": "69.172330", "precision": "1", "focus_area_descr": "Democratic Governance"}]}, {"title": "un electoral support project (unesp)", "id": "00105005", "subnational": [{"outputID": "00106325", "output_locID": "00106325-1", "name": "Kabul", "focus_area": "8", "lat": "34.528130", "type": "PPLC", "awardID": "00105005", "lon": "69.172330", "precision": "1", "focus_area_descr": "Organizational Results Area 1"}, {"outputID": "00106326", "output_locID": "00106326-1", "name": "Kabul", "focus_area": "8", "lat": "34.528130", "type": "PPLC", "awardID": "00105005", "lon": "69.172330", "precision": "1", "focus_area_descr": "Organizational Results Area 1"}, {"outputID": "00106327", "output_locID": "00106327-1", "name": "Kabul", "focus_area": "8", "lat": "34.528130", "type": "PPLC", "awardID": "00105005", "lon": "69.172330", "precision": "1", "focus_area_descr": "Organizational Results Area 1"}]}, {"title": "support high peace council pra strategy", "id": "00105476", "subnational": [{"outputID": "00106743", "output_locID": "00106743-1", "name": "Kabul", "focus_area": "2", "lat": "34.528130", "type": "PPLC", "awardID": "00105476", "lon": "69.172330", "precision": "1", "focus_area_descr": "Democratic Governance"}]}, {"title": "anti-corruption project", "id": "00108232", "subnational": [{"outputID": "00108161", "output_locID": "00108161-1", "name": "Kabul", "focus_area": "8", "lat": "34.528130", "type": "PPLC", "awardID": "00108232", "lon": "69.172330", "precision": "1", "focus_area_descr": "Organizational Results Area 1"}, {"outputID": "00108162", "output_locID": "00108162-1", "name": "Kabul", "focus_area": "8", "lat": "34.528130", "type": "PPLC", "awardID": "00108232", "lon": "69.172330", "precision": "1", "focus_area_descr": "Organizational Results Area 1"}, {"outputID": "00108163", "output_locID": "00108163-1", "name": "Kabul", "focus_area": "8", "lat": "34.528130", "type": "PPLC", "awardID": "00108232", "lon": "69.172330", "precision": "1", "focus_area_descr": "Organizational Results Area 1"}]}, {"title": "pip - strengthen livelihood opportunities in aliceghan", "id": "00110097", "subnational": []}, {"title": "management plan", "id": "00042142", "subnational": [{"outputID": "00085010", "output_locID": "00085010-1", "name": "Kabul", "focus_area": "14", "lat": "34.528130", "type": "PPLC", "awardID": "00042142", "lon": "69.172330", "precision": "1", "focus_area_descr": "Organizational Results Area 7"}]}, {"title": "afghanistan sub-national governance programme ii", "id": "00058922", "subnational": [{"outputID": "00073419", "output_locID": "00073419-1", "name": "Kabul", "focus_area": "3", "lat": "34.528130", "type": "PPLC", "awardID": "00058922", "lon": "69.172330", "precision": "1", "focus_area_descr": "Basic Services"}, {"outputID": "00078991", "output_locID": "00078991-1", "name": "Kabul", "focus_area": "3", "lat": "34.528130", "type": "PPLC", "awardID": "00058922", "lon": "69.172330", "precision": "1", "focus_area_descr": "Basic Services"}, {"outputID": "00078993", "output_locID": "00078993-1", "name": "Kabul", "focus_area": "3", "lat": "34.528130", "type": "PPLC", "awardID": "00058922", "lon": "69.172330", "precision": "1", "focus_area_descr": "Basic Services"}, {"outputID": "00079239", "output_locID": "00079239-1", "name": "Mehtar Lam", "focus_area": "3", "lat": "34.671390", "type": "PPLA", "awardID": "00058922", "lon": "70.209440", "precision": "1", "focus_area_descr": "Basic Services"}, {"outputID": "00079239", "output_locID": "00079239-2", "name": "Panjshir", "focus_area": "3", "lat": "35.402480", "type": "ADM1", "awardID": "00058922", "lon": "69.982910", "precision": "1", "focus_area_descr": "Basic Services"}, {"outputID": "00079239", "output_locID": "00079239-3", "name": "Faizabad", "focus_area": "3", "lat": "37.213470", "type": "ADM2", "awardID": "00058922", "lon": "70.612220", "precision": "1", "focus_area_descr": "Basic Services"}, {"outputID": "00079239", "output_locID": "00079239-4", "name": "Maimana", "focus_area": "3", "lat": "35.940760", "type": "ADM2", "awardID": "00058922", "lon": "64.796860", "precision": "1", "focus_area_descr": "Basic Services"}, {"outputID": "00079239", "output_locID": "00079239-5", "name": "Ghazni", "focus_area": "3", "lat": "33.534110", "type": "ADM2", "awardID": "00058922", "lon": "68.440370", "precision": "1", "focus_area_descr": "Basic Services"}, {"outputID": "00079239", "output_locID": "00079239-6", "name": "Mahmud-e Raqi", "focus_area": "3", "lat": "35.013680", "type": "ADM2", "awardID": "00058922", "lon": "69.399840", "precision": "1", "focus_area_descr": "Basic Services"}, {"outputID": "00079239", "output_locID": "00079239-7", "name": "Jalalabad", "focus_area": "3", "lat": "34.417120", "type": "ADM2", "awardID": "00058922", "lon": "70.449590", "precision": "1", "focus_area_descr": "Basic Services"}, {"outputID": "00079239", "output_locID": "00079239-8", "name": "Taloqan", "focus_area": "3", "lat": "36.739730", "type": "ADM2", "awardID": "00058922", "lon": "69.603770", "precision": "1", "focus_area_descr": "Basic Services"}, {"outputID": "00079239", "output_locID": "00079239-9", "name": "Khulm", "focus_area": "3", "lat": "36.813330", "type": "ADM2", "awardID": "00058922", "lon": "67.745180", "precision": "1", "focus_area_descr": "Basic Services"}, {"outputID": "00079239", "output_locID": "00079239-10", "name": "Sheberghan", "focus_area": "3", "lat": "36.566240", "type": "ADM2", "awardID": "00058922", "lon": "65.748850", "precision": "1", "focus_area_descr": "Basic Services"}, {"outputID": "00079239", "output_locID": "00079239-11", "name": "Aybak", "focus_area": "3", "lat": "36.216450", "type": "ADM2", "awardID": "00058922", "lon": "67.977910", "precision": "1", "focus_area_descr": "Basic Services"}, {"outputID": "00079239", "output_locID": "00079239-12", "name": "Sar-e Pul", "focus_area": "3", "lat": "36.286470", "type": "ADM2", "awardID": "00058922", "lon": "66.066880", "precision": "1", "focus_area_descr": "Basic Services"}, {"outputID": "00079239", "output_locID": "00079239-13", "name": "Charikar", "focus_area": "3", "lat": "34.984480", "type": "ADM2", "awardID": "00058922", "lon": "69.134120", "precision": "1", "focus_area_descr": "Basic Services"}, {"outputID": "00079239", "output_locID": "00079239-14", "name": "Nili", "focus_area": "3", "lat": "33.765180", "type": "ADM2", "awardID": "00058922", "lon": "66.079540", "precision": "1", "focus_area_descr": "Basic Services"}, {"outputID": "00079239", "output_locID": "00079239-15", "name": "Qala-i-Naw", "focus_area": "3", "lat": "34.881990", "type": "ADM2", "awardID": "00058922", "lon": "63.056030", "precision": "1", "focus_area_descr": "Basic Services"}, {"outputID": "00079239", "output_locID": "00079239-16", "name": "Kunduz", "focus_area": "3", "lat": "36.792560", "type": "ADM2", "awardID": "00058922", "lon": "68.843850", "precision": "1", "focus_area_descr": "Basic Services"}, {"outputID": "00079239", "output_locID": "00079239-17", "name": "Farah", "focus_area": "3", "lat": "32.217680", "type": "ADM2", "awardID": "00058922", "lon": "62.259920", "precision": "1", "focus_area_descr": "Basic Services"}, {"outputID": "00079239", "output_locID": "00079239-18", "name": "Bamyan", "focus_area": "3", "lat": "34.795470", "type": "ADM2", "awardID": "00058922", "lon": "67.672980", "precision": "1", "focus_area_descr": "Basic Services"}, {"outputID": "00079239", "output_locID": "00079239-19", "name": "Mazar-e Sharif", "focus_area": "3", "lat": "36.709930", "type": "ADM2", "awardID": "00058922", "lon": "67.115700", "precision": "1", "focus_area_descr": "Basic Services"}, {"outputID": "00079239", "output_locID": "00079239-20", "name": "Herat District", "focus_area": "3", "lat": "34.341940", "type": "ADM2", "awardID": "00058922", "lon": "62.203060", "precision": "1", "focus_area_descr": "Basic Services"}, {"outputID": "00079239", "output_locID": "00079239-21", "name": "Kandahar District", "focus_area": "3", "lat": "31.637660", "type": "ADM2", "awardID": "00058922", "lon": "65.796000", "precision": "1", "focus_area_descr": "Basic Services"}]}, {"title": "enhancing legal and electoral capacity for tomorrow 2", "id": "00063078", "subnational": [{"outputID": "00080394", "output_locID": "00080394-1", "name": "Kabul", "focus_area": "2", "lat": "34.528130", "type": "PPLC", "awardID": "00063078", "lon": "69.172330", "precision": "1", "focus_area_descr": "Democratic Governance"}, {"outputID": "00080395", "output_locID": "00080395-1", "name": "Kabul", "focus_area": "2", "lat": "34.528130", "type": "PPLC", "awardID": "00063078", "lon": "69.172330", "precision": "1", "focus_area_descr": "Democratic Governance"}, {"outputID": "00080396", "output_locID": "00080396-1", "name": "Kabul", "focus_area": "2", "lat": "34.496140", "type": "ADM2", "awardID": "00063078", "lon": "69.105490", "precision": "1", "focus_area_descr": "Democratic Governance"}, {"outputID": "00083558", "output_locID": "00083558-1", "name": "Kabul", "focus_area": "2", "lat": "34.496140", "type": "ADM2", "awardID": "00063078", "lon": "69.105490", "precision": "1", "focus_area_descr": "Democratic Governance"}, {"outputID": "00087512", "output_locID": "00087512-1", "name": "Kabul", "focus_area": "2", "lat": "34.528130", "type": "PPLC", "awardID": "00063078", "lon": "69.172330", "precision": "1", "focus_area_descr": "Democratic Governance"}, {"outputID": "00087514", "output_locID": "00087514-1", "name": "Kabul", "focus_area": "2", "lat": "34.496140", "type": "ADM2", "awardID": "00063078", "lon": "69.105490", "precision": "1", "focus_area_descr": "Democratic Governance"}, {"outputID": "00087513", "output_locID": "00087513-1", "name": "Kabul", "focus_area": "2", "lat": "34.528130", "type": "PPLC", "awardID": "00063078", "lon": "69.172330", "precision": "1", "focus_area_descr": "Democratic Governance"}, {"outputID": "00095493", "output_locID": "00095493-1", "name": "Kabul", "focus_area": "2", "lat": "34.528130", "type": "PPLC", "awardID": "00063078", "lon": "69.172330", "precision": "1", "focus_area_descr": "Democratic Governance"}]}, {"title": "justice and human rights in afghanistan phase ii", "id": "00068012", "subnational": [{"outputID": "00104108", "output_locID": "00104108-1", "name": "Kabul", "focus_area": "3", "lat": "34.528130", "type": "PPLC", "awardID": "00068012", "lon": "69.172330", "precision": "1", "focus_area_descr": "Basic Services"}, {"outputID": "00085458", "output_locID": "00085458-1", "name": "Nangarhar", "focus_area": "3", "lat": "34.333330", "type": "ADM1", "awardID": "00068012", "lon": "70.416670", "precision": "1", "focus_area_descr": "Basic Services"}, {"outputID": "00085459", "output_locID": "00085459-1", "name": "Balkh", "focus_area": "3", "lat": "36.750000", "type": "ADM1", "awardID": "00068012", "lon": "67.000000", "precision": "1", "focus_area_descr": "Basic Services"}, {"outputID": "00085460", "output_locID": "00085460-1", "name": "Herat", "focus_area": "2", "lat": "34.500000", "type": "ADM1", "awardID": "00068012", "lon": "62.000000", "precision": "1", "focus_area_descr": "Democratic Governance"}, {"outputID": "00085461", "output_locID": "00085461-1", "name": "Kabul", "focus_area": "2", "lat": "34.500000", "type": "ADM1", "awardID": "00068012", "lon": "69.416670", "precision": "1", "focus_area_descr": "Democratic Governance"}]}, {"title": "gender equality project (gep - ii)", "id": "00071928", "subnational": [{"outputID": "00085146", "output_locID": "00085146-1", "name": "Nangarhar", "focus_area": "4", "lat": "34.333330", "type": "ADM1", "awardID": "00071928", "lon": "70.416670", "precision": "1", "focus_area_descr": "Gender Equality"}, {"outputID": "00085146", "output_locID": "00085146-2", "name": "Kabul", "focus_area": "4", "lat": "34.528130", "type": "PPLC", "awardID": "00071928", "lon": "69.172330", "precision": "1", "focus_area_descr": "Gender Equality"}, {"outputID": "00085146", "output_locID": "00085146-3", "name": "Herat", "focus_area": "4", "lat": "34.500000", "type": "ADM1", "awardID": "00071928", "lon": "62.000000", "precision": "1", "focus_area_descr": "Gender Equality"}, {"outputID": "00085146", "output_locID": "00085146-4", "name": "Helmand", "focus_area": "4", "lat": "31.000000", "type": "ADM1", "awardID": "00071928", "lon": "64.000000", "precision": "1", "focus_area_descr": "Gender Equality"}, {"outputID": "00085146", "output_locID": "00085146-5", "name": "Bamyan", "focus_area": "4", "lat": "34.750000", "type": "ADM1", "awardID": "00071928", "lon": "67.250000", "precision": "1", "focus_area_descr": "Gender Equality"}, {"outputID": "00085146", "output_locID": "00085146-6", "name": "Balkh", "focus_area": "4", "lat": "36.750000", "type": "ADM1", "awardID": "00071928", "lon": "67.000000", "precision": "1", "focus_area_descr": "Gender Equality"}, {"outputID": "00085146", "output_locID": "00085146-7", "name": "Daykundi", "focus_area": "4", "lat": "33.750000", "type": "ADM1", "awardID": "00071928", "lon": "66.250000", "precision": "1", "focus_area_descr": "Gender Equality"}, {"outputID": "00085152", "output_locID": "00085152-1", "name": "Nangarhar", "focus_area": "4", "lat": "34.333330", "type": "ADM1", "awardID": "00071928", "lon": "70.416670", "precision": "1", "focus_area_descr": "Gender Equality"}, {"outputID": "00085152", "output_locID": "00085152-2", "name": "Kabul", "focus_area": "4", "lat": "34.528130", "type": "PPLC", "awardID": "00071928", "lon": "69.172330", "precision": "1", "focus_area_descr": "Gender Equality"}, {"outputID": "00085152", "output_locID": "00085152-3", "name": "Herat", "focus_area": "4", "lat": "34.500000", "type": "ADM1", "awardID": "00071928", "lon": "62.000000", "precision": "1", "focus_area_descr": "Gender Equality"}, {"outputID": "00085152", "output_locID": "00085152-4", "name": "Helmand", "focus_area": "4", "lat": "31.000000", "type": "ADM1", "awardID": "00071928", "lon": "64.000000", "precision": "1", "focus_area_descr": "Gender Equality"}, {"outputID": "00085152", "output_locID": "00085152-5", "name": "Bamyan", "focus_area": "4", "lat": "34.750000", "type": "ADM1", "awardID": "00071928", "lon": "67.250000", "precision": "1", "focus_area_descr": "Gender Equality"}, {"outputID": "00085152", "output_locID": "00085152-6", "name": "Balkh", "focus_area": "4", "lat": "36.750000", "type": "ADM1", "awardID": "00071928", "lon": "67.000000", "precision": "1", "focus_area_descr": "Gender Equality"}, {"outputID": "00085152", "output_locID": "00085152-7", "name": "Daykundi", "focus_area": "4", "lat": "33.750000", "type": "ADM1", "awardID": "00071928", "lon": "66.250000", "precision": "1", "focus_area_descr": "Gender Equality"}, {"outputID": "00085178", "output_locID": "00085178-1", "name": "Kabul", "focus_area": "4", "lat": "34.496140", "type": "ADM2", "awardID": "00071928", "lon": "69.105490", "precision": "1", "focus_area_descr": "Gender Equality"}, {"outputID": "00085179", "output_locID": "00085179-1", "name": "Kabul", "focus_area": "4", "lat": "34.496140", "type": "ADM2", "awardID": "00071928", "lon": "69.105490", "precision": "1", "focus_area_descr": "Gender Equality"}]}, {"title": "afghanistan integrity initiative", "id": "00077819", "subnational": [{"outputID": "00088431", "output_locID": "00088431-1", "name": "Kabul", "focus_area": "2", "lat": "34.496140", "type": "ADM2", "awardID": "00077819", "lon": "69.105490", "precision": "1", "focus_area_descr": "Democratic Governance"}, {"outputID": "00088432", "output_locID": "00088432-1", "name": "Kabul", "focus_area": "2", "lat": "34.528130", "type": "PPLC", "awardID": "00077819", "lon": "69.172330", "precision": "1", "focus_area_descr": "Democratic Governance"}]}, {"title": "law and order trust fund for afghanistan \u2013 phase vii", "id": "00085894", "subnational": [{"outputID": "00093384", "output_locID": "00093384-1", "name": "Kabul", "focus_area": "3", "lat": "34.500000", "type": "ADM1", "awardID": "00085894", "lon": "69.416670", "precision": "1", "focus_area_descr": "Basic Services"}, {"outputID": "00093384", "output_locID": "00093384-2", "name": "Kabul", "focus_area": "3", "lat": "34.528130", "type": "PPLC", "awardID": "00085894", "lon": "69.172330", "precision": "1", "focus_area_descr": "Basic Services"}, {"outputID": "00093556", "output_locID": "00093556-1", "name": "Kabul", "focus_area": "3", "lat": "34.528130", "type": "PPLC", "awardID": "00085894", "lon": "69.172330", "precision": "1", "focus_area_descr": "Basic Services"}, {"outputID": "00094750", "output_locID": "00094750-1", "name": "Kabul", "focus_area": "3", "lat": "34.528130", "type": "PPLC", "awardID": "00085894", "lon": "69.172330", "precision": "1", "focus_area_descr": "Basic Services"}]}, {"title": "law and order trust fund for afghanistan (lotfa) - ministry of internal affairs (moia) development", "id": "00089620", "subnational": [{"outputID": "00095850", "output_locID": "00095850-1", "name": "Kabul", "focus_area": "3", "lat": "34.528130", "type": "PPLC", "awardID": "00089620", "lon": "69.172330", "precision": "1", "focus_area_descr": "Basic Services"}, {"outputID": "00095857", "output_locID": "00095857-1", "name": "Kabul", "focus_area": "3", "lat": "34.528130", "type": "PPLC", "awardID": "00089620", "lon": "69.172330", "precision": "1", "focus_area_descr": "Basic Services"}, {"outputID": "00095858", "output_locID": "00095858-1", "name": "Kabul", "focus_area": "3", "lat": "34.500000", "type": "ADM1", "awardID": "00089620", "lon": "69.416670", "precision": "1", "focus_area_descr": "Basic Services"}, {"outputID": "00095859", "output_locID": "00095859-1", "name": "Kabul", "focus_area": "3", "lat": "34.528130", "type": "PPLC", "awardID": "00089620", "lon": "69.172330", "precision": "1", "focus_area_descr": "Basic Services"}, {"outputID": "00095736", "output_locID": "00095736-1", "name": "Kabul", "focus_area": "3", "lat": "34.528130", "type": "PPLC", "awardID": "00089620", "lon": "69.172330", "precision": "1", "focus_area_descr": "Basic Services"}, {"outputID": "00095853", "output_locID": "00095853-1", "name": "Kabul", "focus_area": "3", "lat": "34.528130", "type": "PPLC", "awardID": "00089620", "lon": "69.172330", "precision": "1", "focus_area_descr": "Basic Services"}, {"outputID": "00095854", "output_locID": "00095854-1", "name": "Kabul", "focus_area": "3", "lat": "34.528130", "type": "PPLC", "awardID": "00089620", "lon": "69.172330", "precision": "1", "focus_area_descr": "Basic Services"}, {"outputID": "00095856", "output_locID": "00095856-1", "name": "Kabul", "focus_area": "3", "lat": "34.528130", "type": "PPLC", "awardID": "00089620", "lon": "69.172330", "precision": "1", "focus_area_descr": "Basic Services"}]}, {"title": "support to the high peace council", "id": "00095669", "subnational": [{"outputID": "00099696", "output_locID": "00099696-1", "name": "Kabul", "focus_area": "5", "lat": "34.500000", "type": "ADM1", "awardID": "00095669", "lon": "69.416670", "precision": "1", "focus_area_descr": "Risk Reduction"}, {"outputID": "00099697", "output_locID": "00099697-1", "name": "Kabul", "focus_area": "5", "lat": "34.496140", "type": "ADM2", "awardID": "00095669", "lon": "69.105490", "precision": "1", "focus_area_descr": "Risk Reduction"}, {"outputID": "00099699", "output_locID": "00099699-1", "name": "Kabul", "focus_area": "5", "lat": "34.496140", "type": "ADM2", "awardID": "00095669", "lon": "69.105490", "precision": "1", "focus_area_descr": "Risk Reduction"}]}, {"title": "partnerships for private sector development", "id": "00011046", "subnational": []}, {"title": "pa - ammunition survey project", "id": "00039003", "subnational": []}, {"title": "making budgets and aid work (mbaw)", "id": "00047111", "subnational": [{"outputID": "00056407", "output_locID": "00056407-1", "name": "Kabul", "focus_area": "3", "lat": "34.528130", "type": "PPLC", "awardID": "00047111", "lon": "69.172330", "precision": "1", "focus_area_descr": "Basic Services"}]}, {"title": "law & order trust fund for afghanistan phase v", "id": "00049760", "subnational": [{"outputID": "00060964", "output_locID": "00060964-1", "name": "Kabul", "focus_area": "2", "lat": "34.528130", "type": "PPLC", "awardID": "00049760", "lon": "69.172330", "precision": "1", "focus_area_descr": "Democratic Governance"}]}, {"title": "law and order trust fund for afghanistan \u2013 phase vi", "id": "00061104", "subnational": [{"outputID": "00077273", "output_locID": "00077273-1", "name": "Kabul", "focus_area": "3", "lat": "34.528130", "type": "PPLC", "awardID": "00061104", "lon": "69.172330", "precision": "1", "focus_area_descr": "Basic Services"}, {"outputID": "00077274", "output_locID": "00077274-1", "name": "Kabul", "focus_area": "3", "lat": "34.528130", "type": "PPLC", "awardID": "00061104", "lon": "69.172330", "precision": "1", "focus_area_descr": "Basic Services"}, {"outputID": "00077275", "output_locID": "00077275-1", "name": "Kabul", "focus_area": "3", "lat": "34.528130", "type": "PPLC", "awardID": "00061104", "lon": "69.172330", "precision": "1", "focus_area_descr": "Basic Services"}, {"outputID": "00078879", "output_locID": "00078879-1", "name": "Kabul", "focus_area": "3", "lat": "34.528130", "type": "PPLC", "awardID": "00061104", "lon": "69.172330", "precision": "1", "focus_area_descr": "Basic Services"}, {"outputID": "00081409", "output_locID": "00081409-1", "name": "Kabul", "focus_area": "3", "lat": "34.528130", "type": "PPLC", "awardID": "00061104", "lon": "69.172330", "precision": "1", "focus_area_descr": "Basic Services"}, {"outputID": "00081410", "output_locID": "00081410-1", "name": "Kabul", "focus_area": "3", "lat": "34.528130", "type": "PPLC", "awardID": "00061104", "lon": "69.172330", "precision": "1", "focus_area_descr": "Basic Services"}]}, {"title": "strengthening national policy planning and management ca", "id": "00081824", "subnational": [{"outputID": "00090975", "output_locID": "00090975-1", "name": "Kabul", "focus_area": "3", "lat": "34.528130", "type": "PPLC", "awardID": "00081824", "lon": "69.172330", "precision": "1", "focus_area_descr": "Basic Services"}, {"outputID": "00090976", "output_locID": "00090976-1", "name": "Kabul", "focus_area": "3", "lat": "34.528130", "type": "PPLC", "awardID": "00081824", "lon": "69.172330", "precision": "1", "focus_area_descr": "Basic Services"}, {"outputID": "00090977", "output_locID": "00090977-1", "name": "Kabul", "focus_area": "3", "lat": "34.528130", "type": "PPLC", "awardID": "00081824", "lon": "69.172330", "precision": "1", "focus_area_descr": "Basic Services"}]}, {"title": "capacity building through ict training", "id": "00011019", "subnational": []}, {"title": "access to justice at district level (ajdl)", "id": "00041283", "subnational": []}, {"title": "enhancing legal and electoral capacity for tomorrow", "id": "00043217", "subnational": []}, {"title": "capacity for afghan pub. serv.9", "id": "00044410", "subnational": []}, {"title": "policy analysis and development - pad", "id": "00051206", "subnational": []}, {"title": "justice and human rights in afghanistan", "id": "00057613", "subnational": []}, {"title": "national institution building project", "id": "00058898", "subnational": []}, {"title": "strategic support to afghanistan parliament", "id": "00067595", "subnational": []}, {"title": "ppg-resilience of rural livelihood", "id": "00072162", "subnational": []}, {"title": "transition to transformation through the new deal", "id": "00077227", "subnational": []}, {"title": "capacity development & public administration", "id": "00078423", "subnational": []}, {"title": "response to 2014 disaster", "id": "00080949", "subnational": []}, {"title": "providing a rapid response facility for upstream policy", "id": "00087945", "subnational": []}, {"title": "local economic develoment for afg - initiation phase", "id": "00090382", "subnational": []}, {"title": "nabdp capacity development project", "id": "00011020", "subnational": []}, {"title": "judicial reform commission", "id": "00011029", "subnational": []}, {"title": "undp support to mowa", "id": "00011033", "subnational": []}, {"title": "mine action capacity building in afhganistan", "id": "00033700", "subnational": []}, {"title": "afghan election - 2004 project", "id": "00034249", "subnational": []}, {"title": "afghan independent human right commission", "id": "00036021", "subnational": []}, {"title": "disbandment of illegal armed groups(diag)", "id": "00039048", "subnational": []}, {"title": "support to the center of government", "id": "00040864", "subnational": []}, {"title": "undp greening afghanistan initiative (gain)", "id": "00041642", "subnational": []}, {"title": "capacity building for human development", "id": "00043022", "subnational": []}, {"title": "afghanistan sub-national governance programme (asgp)", "id": "00043947", "subnational": []}, {"title": "comprehensive disaster risk reduction project", "id": "00044487", "subnational": []}, {"title": "institutional capacity building for gender equality", "id": "00045877", "subnational": []}, {"title": "upgrading nine vocational training centres", "id": "00047962", "subnational": []}, {"title": "supporting an effective afghan legislature", "id": "00049078", "subnational": []}, {"title": "strngthnd approach for intgratn. of sustnble envrnm mgmt", "id": "00050535", "subnational": []}, {"title": "enhancing legal and electoral capacity for tomorrow", "id": "00057970", "subnational": []}, {"title": "project management support-nsgp", "id": "00058936", "subnational": []}, {"title": "security gap project", "id": "00059538", "subnational": []}, {"title": "intergrated models for pa & their co-management in afg", "id": "00067278", "subnational": []}, {"title": "operationalizing the undp afghanistan policy facilitatio", "id": "00068011", "subnational": []}, {"title": "counter narcotics trust fund", "id": "00040456", "subnational": []}, {"title": "national re-integration project for afghan displaced", "id": "00058073", "subnational": []}, {"title": "sustainable reintegration for afghan displaced (surad)", "id": "00062549", "subnational": []}, {"title": "afghanistan integrity initiative", "id": "00065840", "subnational": []}, {"title": "accountability & transparency project", "id": "00045444", "subnational": []}, {"title": "peace through justice programme", "id": "00057520", "subnational": []}, {"title": "an initiative for greater un coherence in afghanistan", "id": "00067687", "subnational": []}, {"title": "afghan natnl. dev. strategy", "id": "00044192", "subnational": []}, {"title": "afghanistan information management system sustainability", "id": "00058422", "subnational": []}, {"title": "aliceghan project", "id": "00044032", "subnational": []}, {"title": "assistance projects for declared drought emergency", "id": "00037275", "subnational": []}, {"title": "building information management capacity", "id": "00034997", "subnational": []}, {"title": "comprehensive disabled afghans' programme", "id": "00011038", "subnational": []}, {"title": "hiv/ aids response in afg", "id": "00041633", "subnational": []}, {"title": "mine clearance on kandahar - grishk road", "id": "00033859", "subnational": []}, {"title": "regional initiative for sustainable economy (rise)", "id": "00041324", "subnational": []}, {"title": "strategic support for afghan parliament", "id": "00060685", "subnational": []}, {"title": "strength. state building through strateg. govt. comm.", "id": "00048861", "subnational": []}, {"title": "support to diplomatic institution", "id": "00037199", "subnational": []}, {"title": "support to law & order -  ii", "id": "00035848", "subnational": []}, {"title": "support to law and order in afghanistan phase - iv", "id": "00044331", "subnational": []}, {"title": "support to the establishment of afg legislature", "id": "00038986", "subnational": []}, {"title": "support to unama for humanitarian coordination", "id": "00046030", "subnational": []}], "op_unit": "AFG"}