{"iso_num":"004","op_unit":"AFG","projects":[{"id":"00041283","subnational":[{"awardID":"00041283","lat":"34.52813","lon":"69.17233","name":"Kabul","precision":"3","type":"PPLC"}],"title":"Access to Justice at District Level (AJDL)"},{"id":"00045444","subnational":[{"awardID":"00045444","lat":"33","lon":"66","name":"Afghanistan","precision":"9","type":"PCL"}],"title":"Accountability & Transparency Project"},{"id":"00044192","subnational":[],"title":"Afghan Natnl. Dev. Strategy"},{"id":"00065840","subnational":[],"title":"Afghanistan Integrity Initiative"},{"id":"00060777","subnational":[{"awardID":"00060777","lat":"34.52813","lon":"69.17233","name":"Kabul","precision":"3","type":"PPLC"},{"awardID":"00060777","lat":"34.52813","lon":"69.17233","name":"Kabul","precision":"3","type":"PPLC"},{"awardID":"00060777","lat":"34.52813","lon":"69.17233","name":"Kabul","precision":"3","type":"PPLC"},{"awardID":"00060777","lat":"31","lon":"65.75","name":"Kandahar","precision":"4","type":"ADM1"},{"awardID":"00060777","lat":"36.75","lon":"68.75","name":"Kunduz","precision":"4","type":"ADM1"},{"awardID":"00060777","lat":"34.33333","lon":"70.41667","name":"Nangarhar","precision":"4","type":"ADM1"},{"awardID":"00060777","lat":"31","lon":"64","name":"Helmand","precision":"4","type":"ADM1"},{"awardID":"00060777","lat":"33","lon":"66","name":"Afghanistan","precision":"9","type":"PCL"},{"awardID":"00060777","lat":"33","lon":"66","name":"Afghanistan","precision":"9","type":"PCL"}],"title":"Afghanistan Peace & Reintegration Programme"},{"id":"00043947","subnational":[{"awardID":"00043947","lat":"33","lon":"66","name":"Afghanistan","precision":"9","type":"PCL"}],"title":"Afghanistan Sub-National Governance Programme (ASGP)"},{"id":"00058922","subnational":[{"awardID":"00058922","lat":"34.5","lon":"62","name":"Herat","precision":"4","type":"ADM1"},{"awardID":"00058922","lat":"33","lon":"66","name":"Afghanistan","precision":"9","type":"PCL"},{"awardID":"00058922","lat":"33","lon":"66","name":"Afghanistan","precision":"9","type":"PCL"},{"awardID":"00058922","lat":"33","lon":"66","name":"Afghanistan","precision":"9","type":"PCL"}],"title":"Afghanistan Sub-National Governance Programme II"},{"id":"00043022","subnational":[],"title":"Capacity Building for Human Development"},{"id":"00044487","subnational":[],"title":"Comprehensive Disaster Risk Reduction Project"},{"id":"00040456","subnational":[{"awardID":"00040456","lat":"34.5","lon":"69.41667","name":"Kabul","precision":"4","type":"ADM1"},{"awardID":"00040456","lat":"36.75","lon":"72","name":"Badakshan","precision":"4","type":"ADM1"},{"awardID":"00040456","lat":"34.33333","lon":"70.41667","name":"Nangarhar","precision":"4","type":"ADM1"},{"awardID":"00040456","lat":"32.83333","lon":"66","name":"Uruzgan","precision":"4","type":"ADM1"},{"awardID":"00040456","lat":"32.5","lon":"62.5","name":"Farah","precision":"4","type":"ADM1"},{"awardID":"00040456","lat":"34","lon":"65","name":"Ghor","precision":"4","type":"ADM1"},{"awardID":"00040456","lat":"31","lon":"64","name":"Helmand","precision":"4","type":"ADM1"},{"awardID":"00040456","lat":"31","lon":"65.75","name":"Kandahar","precision":"4","type":"ADM1"}],"title":"Counter Narcotics Trust Fund"},{"id":"00039048","subnational":[{"awardID":"00039048","lat":"33","lon":"66","name":"Afghanistan","precision":"9","type":"PCL"}],"title":"Disbandment of Illegal Armed Groups(DIAG)"},{"id":"00057970","subnational":[{"awardID":"00057970","lat":"33","lon":"66","name":"Afghanistan","precision":"9","type":"PCL"}],"title":"Enhancing Legal and Electoral Capacity for Tomorrow"},{"id":"00043217","subnational":[{"awardID":"00043217","lat":"33","lon":"66","name":"Afghanistan","precision":"9","type":"PCL"}],"title":"Enhancing Legal and Electoral Capacity for Tomorrow"},{"id":"00063078","subnational":[],"title":"Enhancing Legal and Electoral Capacity for Tomorrow 2"},{"id":"00071928","subnational":[],"title":"Gender Equality Project (GEP - II)"},{"id":"00045877","subnational":[{"awardID":"00045877","lat":"34.5193064","lon":"69.1333457","name":"Kabul University","precision":"1","type":"PPL"},{"awardID":"00045877","lat":"34.360496","lon":"62.2051279","name":"Herat University","precision":"1","type":"PPL"},{"awardID":"00045877","lat":"34.5193064","lon":"69.1333457","name":"Mazar e Sharaf University","precision":"1","type":"PPL"},{"awardID":"00045877","lat":"36.75","lon":"67","name":"Balkh","precision":"4","type":"ADM1"},{"awardID":"00045877","lat":"34.5","lon":"62","name":"Herat","precision":"4","type":"ADM1"},{"awardID":"00045877","lat":"36.75","lon":"67","name":"Balkh","precision":"4","type":"ADM1"},{"awardID":"00045877","lat":"34.5","lon":"62","name":"Herat","precision":"4","type":"ADM1"},{"awardID":"00045877","lat":"34.5","lon":"69.41667","name":"Kabul","precision":"4","type":"ADM1"},{"awardID":"00045877","lat":"34.33333","lon":"70.41667","name":"Nangarhar","precision":"4","type":"ADM1"},{"awardID":"00045877","lat":"34.75","lon":"67.25","name":"Bamyan","precision":"4","type":"ADM1"}],"title":"Institutional Capacity Building for Gender Equality"},{"id":"00067278","subnational":[],"title":"Intergrated Models for PA & Their Co-Management in Afg"},{"id":"00057613","subnational":[{"awardID":"00057613","lat":"36.83333","lon":"65.83333","name":"Jawzjan","precision":"4","type":"ADM1"},{"awardID":"00057613","lat":"36.25","lon":"64.83333","name":"Faryab","precision":"4","type":"ADM1"},{"awardID":"00057613","lat":"36.75","lon":"72","name":"Badakhshan","precision":"4","type":"ADM1"}],"title":"Justice and Human Rights in Afghanistan"},{"id":"00068012","subnational":[{"awardID":"00068012","lat":"36.75","lon":"67","name":"Balkh","precision":"4","type":"ADM1"},{"awardID":"00068012","lat":"34.5","lon":"69.41667","name":"Kabul","precision":"4","type":"ADM1"},{"awardID":"00068012","lat":"34.5","lon":"69.41667","name":"Kabul","precision":"4","type":"ADM1"},{"awardID":"00068012","lat":"35.75","lon":"69","name":"Baghlan","precision":"4","type":"ADM1"},{"awardID":"00068012","lat":"36.25","lon":"64.83333","name":"Faryab","precision":"4","type":"ADM1"},{"awardID":"00068012","lat":"36.83333","lon":"65.83333","name":"Jawzjan","precision":"4","type":"ADM1"},{"awardID":"00068012","lat":"36.75","lon":"72","name":"Badakhshan","precision":"4","type":"ADM1"},{"awardID":"00068012","lat":"35.83333","lon":"66.16667","name":"Sar e Pul","precision":"4","type":"ADM1"},{"awardID":"00068012","lat":"35","lon":"63.75","name":"Badghis","precision":"4","type":"ADM1"},{"awardID":"00068012","lat":"34","lon":"65","name":"Ghor","precision":"4","type":"ADM1"},{"awardID":"00068012","lat":"34.75","lon":"67.25","name":"Bamyan","precision":"4","type":"ADM1"},{"awardID":"00068012","lat":"33.75","lon":"66.25","name":"Daykundi","precision":"4","type":"ADM1"},{"awardID":"00068012","lat":"35.40248","lon":"69.98291","name":"Panjshir","precision":"4","type":"ADM1"},{"awardID":"00068012","lat":"34.95","lon":"71.13333","name":"Kunar","precision":"4","type":"ADM1"},{"awardID":"00068012","lat":"34.5","lon":"69.41667","name":"Kabul","precision":"4","type":"ADM1"}],"title":"Justice and Human Rights in Afghanistan Phase II"},{"id":"00061104","subnational":[{"awardID":"00061104","lat":"33","lon":"66","name":"Afghanistan","precision":"9","type":"PCL"},{"awardID":"00061104","lat":"33","lon":"66","name":"Afghanistan","precision":"9","type":"PCL"},{"awardID":"00061104","lat":"33","lon":"66","name":"Afghanistan","precision":"9","type":"PCL"},{"awardID":"00061104","lat":"33","lon":"66","name":"Afghanistan","precision":"9","type":"PCL"}],"title":"Law and Order Trust Fund for Afghanistan  Phase VI"},{"id":"00047111","subnational":[{"awardID":"00047111","lat":"34.5","lon":"69.41667","name":"Kabul","precision":"4","type":"ADM1"}],"title":"Making Budgets and Aid Work (MBAW)"},{"id":"00042142","subnational":[],"title":"Management Plan"},{"id":"00057359","subnational":[{"awardID":"00057359","lat":"33","lon":"66","name":"Afghanistan","precision":"9","type":"PCL"}],"title":"National Area-Based Development Programme Phase III"},{"id":"00058898","subnational":[{"awardID":"00058898","lat":"34.52813","lon":"69.17233","name":"Kabul","precision":"4","type":"PPLC"},{"awardID":"00058898","lat":"34.34817","lon":"62.19967","name":"Herat","precision":"4","type":"PPLA"},{"awardID":"00058898","lat":"32.5","lon":"62.5","name":"Farah","precision":"4","type":"ADM1"},{"awardID":"00058898","lat":"34","lon":"65","name":"Ghor","precision":"4","type":"ADM1"},{"awardID":"00058898","lat":"35","lon":"63.75","name":"Badghis","precision":"4","type":"ADM1"},{"awardID":"00058898","lat":"36.25","lon":"64.83333","name":"Faryab","precision":"4","type":"ADM1"},{"awardID":"00058898","lat":"36.83333","lon":"65.83333","name":"Jawzjan","precision":"4","type":"ADM1"},{"awardID":"00058898","lat":"36.21544","lon":"65.93249","name":"Sar e Pul","precision":"4","type":"PPLA"},{"awardID":"00058898","lat":"33.75","lon":"66.25","name":"Wilayat e Daykundi","precision":"4","type":"ADM1"},{"awardID":"00058898","lat":"34.75","lon":"67.25","name":"Bamyan","precision":"4","type":"ADM1"},{"awardID":"00058898","lat":"36.75635","lon":"66.8972","name":"Balkh","precision":"4","type":"PPLA2"},{"awardID":"00058898","lat":"36","lon":"67.66667","name":"Samangan","precision":"4","type":"ADM1"},{"awardID":"00058898","lat":"34.33333","lon":"70.41667","name":"Nangarhar","precision":"4","type":"ADM1"},{"awardID":"00058898","lat":"34.95","lon":"71.13333","name":"Kunar","precision":"4","type":"ADM1"},{"awardID":"00058898","lat":"34.34817","lon":"62.19967","name":"Herat","precision":"4","type":"PPLA"}],"title":"National Institution Building Project"},{"id":"00051206","subnational":[],"title":"Policy Analysis and Development - PAD"},{"id":"00058936","subnational":[{"awardID":"00058936","lat":"34.52813","lon":"69.17233","name":"Kabul","precision":"3","type":"PCL"}],"title":"Project Management Support-NSGP"},{"id":"00072162","subnational":[],"title":"Resilience of Rural Livelihood"},{"id":"00059538","subnational":[{"awardID":"00059538","lat":"33","lon":"66","name":"Afghanistan","precision":"9","type":"PCL"}],"title":"Security Gap Project"},{"id":"00067595","subnational":[],"title":"Strategic Support to Afghanistan Parliament"},{"id":"00048861","subnational":[],"title":"Strength. State Building through Strateg. Govt. Comm."},{"id":"00050535","subnational":[{"awardID":"00050535","lat":"36.75","lon":"72","name":"Badakhshan","precision":"4","type":"ADM1"},{"awardID":"00050535","lat":"35","lon":"63.75","name":"Badghis","precision":"4","type":"ADM1"},{"awardID":"00050535","lat":"34.75","lon":"67.25","name":"Bamiyan","precision":"4","type":"ADM1"},{"awardID":"00050535","lat":"34.5","lon":"62","name":"Herat","precision":"4","type":"ADM1"},{"awardID":"00050535","lat":"36.25","lon":"64.83333","name":"Faryab","precision":"4","type":"ADM1"},{"awardID":"00050535","lat":"36.66667","lon":"69.75","name":"Takhar","precision":"4","type":"ADM1"},{"awardID":"00050535","lat":"36.75","lon":"68.75","name":"Kunduz","precision":"4","type":"ADM1"}],"title":"Strngthnd Approach for Intgratn. of Sustnble Envrnm Mgmt"},{"id":"00040864","subnational":[{"awardID":"00040864","lat":"34.52813","lon":"69.17233","name":"Kabul","precision":"3","type":"PPLC"}],"title":"Support to the Center of Government"},{"id":"00062549","subnational":[],"title":"Sustainable Reintegration for Afghan Displaced (SURAD)"}]}