{"iso_num": null, "projects": [{"title": "governance and local development programme (gldp)", "id": "00036249", "subnational": [{"outputID": "00074447", "output_locID": "00074447-1", "name": "Republic of Angola", "focus_area": "", "lat": "-12.500000", "type": "PCLI", "awardID": "00036249", "lon": "18.500000", "precision": "1", "focus_area_descr": "-"}, {"outputID": "00039307", "output_locID": "00039307-1", "name": "Malanje", "focus_area": "", "lat": "-9.540150", "type": "PPLA", "awardID": "00036249", "lon": "16.340960", "precision": "1", "focus_area_descr": "-"}, {"outputID": "00039307", "output_locID": "00039307-2", "name": "U\u00edge", "focus_area": "", "lat": "-7.608740", "type": "PPLA", "awardID": "00036249", "lon": "15.061310", "precision": "1", "focus_area_descr": "-"}, {"outputID": "00039307", "output_locID": "00039307-3", "name": "Cuanza Norte Province", "focus_area": "", "lat": "-8.911360", "type": "ADM1", "awardID": "00036249", "lon": "14.888700", "precision": "1", "focus_area_descr": "-"}, {"outputID": "00039307", "output_locID": "00039307-4", "name": "Bengo Province", "focus_area": "", "lat": "-8.975040", "type": "ADM1", "awardID": "00036249", "lon": "13.827430", "precision": "1", "focus_area_descr": "-"}, {"outputID": "00039307", "output_locID": "00039307-5", "name": "Prov\u00edncia do Bi\u00e9", "focus_area": "", "lat": "-12.349890", "type": "ADM1", "awardID": "00036249", "lon": "17.303100", "precision": "1", "focus_area_descr": "-"}]}, {"title": "angola enterprise programme", "id": "00037249", "subnational": [{"outputID": "00040754", "output_locID": "00040754-1", "name": "Cabinda", "focus_area": "", "lat": "-4.934230", "type": "ADM1", "awardID": "00037249", "lon": "12.405320", "precision": "1", "focus_area_descr": "-"}, {"outputID": "00040754", "output_locID": "00040754-2", "name": "Luanda Province", "focus_area": "", "lat": "-8.916660", "type": "ADM1", "awardID": "00037249", "lon": "13.339240", "precision": "1", "focus_area_descr": "-"}, {"outputID": "00040754", "output_locID": "00040754-3", "name": "Benguela", "focus_area": "", "lat": "-12.854000", "type": "ADM1", "awardID": "00037249", "lon": "13.928250", "precision": "1", "focus_area_descr": "-"}, {"outputID": "00040754", "output_locID": "00040754-4", "name": "Huila Province", "focus_area": "", "lat": "-14.695310", "type": "ADM1", "awardID": "00037249", "lon": "15.000140", "precision": "1", "focus_area_descr": "-"}]}, {"title": "pims 3379 op15 msp: sustainable land management", "id": "00044526", "subnational": [{"outputID": "00052416", "output_locID": "00052416-1", "name": "Republic of Angola", "focus_area": "", "lat": "-12.500000", "type": "PCLI", "awardID": "00044526", "lon": "18.500000", "precision": "1", "focus_area_descr": "-"}, {"outputID": "00052416", "output_locID": "00052416-2", "name": "Huambo", "focus_area": "", "lat": "-12.500000", "type": "ADM1", "awardID": "00044526", "lon": "15.666670", "precision": "1", "focus_area_descr": "-"}]}, {"title": "reducing the burden of hiv/aids in angola", "id": "00041138", "subnational": [{"outputID": "00046824", "output_locID": "00046824-1", "name": "Republic of Angola", "focus_area": "3", "lat": "-12.500000", "type": "PCLI", "awardID": "00041138", "lon": "18.500000", "precision": "1", "focus_area_descr": "Responsive Institutions"}]}, {"title": "growing sustainable business angola", "id": "00050950", "subnational": [{"outputID": "00063205", "output_locID": "00063205-1", "name": "Kuando Kubango", "focus_area": "", "lat": "-15.947610", "type": "ADM1", "awardID": "00050950", "lon": "19.383200", "precision": "1", "focus_area_descr": "-"}, {"outputID": "00063205", "output_locID": "00063205-2", "name": "Malanje Province", "focus_area": "", "lat": "-9.675480", "type": "ADM1", "awardID": "00050950", "lon": "16.825530", "precision": "1", "focus_area_descr": "-"}, {"outputID": "00063205", "output_locID": "00063205-3", "name": "Luanda Province", "focus_area": "", "lat": "-8.916660", "type": "ADM1", "awardID": "00050950", "lon": "13.339240", "precision": "1", "focus_area_descr": "-"}, {"outputID": "00063205", "output_locID": "00063205-4", "name": "Prov\u00edncia do Bi\u00e9", "focus_area": "", "lat": "-12.349890", "type": "ADM1", "awardID": "00050950", "lon": "17.303100", "precision": "1", "focus_area_descr": "-"}, {"outputID": "00063205", "output_locID": "00063205-5", "name": "Huambo", "focus_area": "", "lat": "-12.500000", "type": "ADM1", "awardID": "00050950", "lon": "15.666670", "precision": "1", "focus_area_descr": "-"}]}, {"title": "support to environment thematic area", "id": "00062235", "subnational": [{"outputID": "00079634", "output_locID": "00079634-1", "name": "Republic of Angola", "focus_area": "", "lat": "-12.500000", "type": "PCLI", "awardID": "00062235", "lon": "18.500000", "precision": "1", "focus_area_descr": "-"}]}, {"title": "leadership development institute", "id": "00059751", "subnational": [{"outputID": "00074891", "output_locID": "00074891-1", "name": "Addis Ababa", "focus_area": "3", "lat": "9.024970", "type": "PPLC", "awardID": "00059751", "lon": "38.746890", "precision": "1", "focus_area_descr": "Responsive Institutions"}, {"outputID": "00074891", "output_locID": "00074891-2", "name": "Addis Ababa", "focus_area": "3", "lat": "9.024970", "type": "PPLC", "awardID": "00059751", "lon": "38.746890", "precision": "1", "focus_area_descr": "Responsive Institutions"}]}, {"title": "ppg_5719 sustainable charcoal", "id": "00080589", "subnational": []}, {"title": "palop-tl sai-isc support for external control", "id": "00078797", "subnational": []}, {"title": "support for the e. human rights framework in angola", "id": "00067184", "subnational": [{"outputID": "00083114", "output_locID": "00083114-1", "name": "Republic of Angola", "focus_area": "2", "lat": "-12.500000", "type": "PCLI", "awardID": "00067184", "lon": "18.500000", "precision": "1", "focus_area_descr": "Democratic Governance"}]}, {"title": "ppg pims 5166 angola ldcf", "id": "00073048", "subnational": [{"outputID": "00086012", "output_locID": "00086012-1", "name": "Republic of Angola", "focus_area": "1", "lat": "-12.500000", "type": "PCLI", "awardID": "00073048", "lon": "18.500000", "precision": "1", "focus_area_descr": "Inclusive & Sustainable Growth"}]}, {"title": "participation and local governance", "id": "00076997", "subnational": []}, {"title": "support to poverty eradication & inclusive gowth", "id": "00076670", "subnational": []}, {"title": "environment strategic programme", "id": "00077907", "subnational": []}, {"title": "strengthening  of gender empowerment in angola", "id": "00062504", "subnational": [{"outputID": "00080023", "output_locID": "00080023-1", "name": "Republic of Angola", "focus_area": "4", "lat": "-12.500000", "type": "PCLI", "awardID": "00062504", "lon": "18.500000", "precision": "1", "focus_area_descr": "Gender Equality"}]}, {"title": "entrepreneurship curriculum programme", "id": "00050951", "subnational": [{"outputID": "00063206", "output_locID": "00063206-1", "name": "Republic of Angola", "focus_area": "", "lat": "-12.500000", "type": "PCLI", "awardID": "00050951", "lon": "18.500000", "precision": "1", "focus_area_descr": "-"}]}, {"title": "enhancing nat. cap.for mainstre mdgs in dev. frameworks", "id": "00072604", "subnational": [{"outputID": "00085663", "output_locID": "00085663-1", "name": "Republic of Angola", "focus_area": "7", "lat": "-12.500000", "type": "PCLI", "awardID": "00072604", "lon": "18.500000", "precision": "1", "focus_area_descr": "Development Impact & Effectiveness"}]}, {"title": "preparatory assistance to drr thematic component", "id": "00063144", "subnational": [{"outputID": "00080448", "output_locID": "00080448-1", "name": "Republic of Angola", "focus_area": "5", "lat": "-12.500000", "type": "PCLI", "awardID": "00063144", "lon": "18.500000", "precision": "1", "focus_area_descr": "Climate Change & Disaster Resilience"}]}, {"title": "empowering women project - minfamu", "id": "00080950", "subnational": []}, {"title": "urban & peri-urban water & sanitation joint programme", "id": "00057521", "subnational": [{"outputID": "00071113", "output_locID": "00071113-1", "name": "Luanda", "focus_area": "", "lat": "-8.836820", "type": "PPLC", "awardID": "00057521", "lon": "13.234320", "precision": "1", "focus_area_descr": "-"}]}, {"title": "support to electoral cycles", "id": "00060268", "subnational": [{"outputID": "00075846", "output_locID": "00075846-1", "name": "Republic of Angola", "focus_area": "2", "lat": "-12.500000", "type": "PCLI", "awardID": "00060268", "lon": "18.500000", "precision": "1", "focus_area_descr": "Democratic Governance"}, {"outputID": "00075847", "output_locID": "00075847-1", "name": "Republic of Cabo Verde", "focus_area": "2", "lat": "16.000000", "type": "PCLI", "awardID": "00060268", "lon": "-24.000000", "precision": "1", "focus_area_descr": "Democratic Governance"}, {"outputID": "00075807", "output_locID": "00075807-1", "name": "Republic of Guinea-Bissau", "focus_area": "2", "lat": "12.000000", "type": "PCLI", "awardID": "00060268", "lon": "-15.000000", "precision": "1", "focus_area_descr": "Democratic Governance"}, {"outputID": "00075845", "output_locID": "00075845-1", "name": "Republic of Guinea-Bissau", "focus_area": "2", "lat": "12.000000", "type": "PCLI", "awardID": "00060268", "lon": "-15.000000", "precision": "1", "focus_area_descr": "Democratic Governance"}, {"outputID": "00075848", "output_locID": "00075848-1", "name": "Republic of Mozambique", "focus_area": "2", "lat": "-18.250000", "type": "PCLI", "awardID": "00060268", "lon": "35.000000", "precision": "1", "focus_area_descr": "Democratic Governance"}, {"outputID": "00075849", "output_locID": "00075849-1", "name": "Sao Tome and Principe", "focus_area": "2", "lat": "1.000000", "type": "PCLI", "awardID": "00060268", "lon": "7.000000", "precision": "1", "focus_area_descr": "Democratic Governance"}, {"outputID": "00075849", "output_locID": "00075849-2", "name": "Sao Tome and Principe", "focus_area": "2", "lat": "1.000000", "type": "PCLI", "awardID": "00060268", "lon": "7.000000", "precision": "1", "focus_area_descr": "Democratic Governance"}]}, {"title": "food security in angola", "id": "00062500", "subnational": [{"outputID": "00080015", "output_locID": "00080015-1", "name": "Angola", "focus_area": "1", "lat": "-12.5", "type": "PCL", "awardID": "00062500", "lon": "18.5", "precision": "9", "focus_area_descr": "Inclusive & Sustainable Growth"}]}, {"title": "management plan", "id": "00042722", "subnational": [{"outputID": "00085068", "output_locID": "00085068-1", "name": "Angola", "focus_area": "-", "lat": "-12.5", "type": "PCL", "awardID": "00042722", "lon": "18.5", "precision": "9", "focus_area_descr": "-"}]}, {"title": "mdg reporting, m&e and planning", "id": "00059621", "subnational": [{"outputID": "00074634", "output_locID": "00074634-1", "name": "Angola", "focus_area": "1", "lat": "-12.5", "type": "PCL", "awardID": "00059621", "lon": "18.5", "precision": "9", "focus_area_descr": "Inclusive & Sustainable Growth"}]}, {"title": "ppg 4464 angola pa expansion", "id": "00067980", "subnational": [{"outputID": "00083434", "output_locID": "00083434-1", "name": "Angola", "focus_area": "5", "lat": "-12.5", "type": "PCL", "awardID": "00067980", "lon": "18.5", "precision": "9", "focus_area_descr": "Climate Change & Disaster Resilience"}]}, {"title": "support to national tuberculosis control program", "id": "00040779", "subnational": [{"outputID": "00046292", "output_locID": "00046292-1", "name": "Angola", "focus_area": "-", "lat": "-12.5", "type": "PCL", "awardID": "00040779", "lon": "18.5", "precision": "9", "focus_area_descr": "-"}]}, {"title": "ang/pha/55/prp/08-prep. phaseout managem. plan(hpmp)", "id": "00057124", "subnational": [{"outputID": "00070453", "output_locID": "00070453-1", "name": "Angola", "focus_area": "-", "lat": "-12.5", "type": "PCL", "awardID": "00057124", "lon": "18.5", "precision": "9", "focus_area_descr": "-"}]}, {"title": "angola enterprise fund", "id": "00011116", "subnational": []}, {"title": "capacity development of national institute for deming", "id": "00045302", "subnational": [{"outputID": "00053484", "output_locID": "00053484-1", "name": "Angola", "focus_area": "-", "lat": "-12.5", "type": "PCL", "awardID": "00045302", "lon": "18.5", "precision": "9", "focus_area_descr": "-"}]}, {"title": "stockpile destruction project", "id": "00039658", "subnational": []}, {"title": "support for mdg/nepad", "id": "00011122", "subnational": []}, {"title": "support to cnidah 2007-2008", "id": "00047708", "subnational": [{"outputID": "00057533", "output_locID": "00057533-1", "name": "Angola", "focus_area": "-", "lat": "-12.5", "type": "PCL", "awardID": "00047708", "lon": "18.5", "precision": "9", "focus_area_descr": "-"}]}, {"title": "ambriz project", "id": "00011123", "subnational": []}, {"title": "civic education", "id": "00044904", "subnational": []}, {"title": "pims 65 iw fsp: okavango river basin", "id": "00040920", "subnational": []}, {"title": "reform & modernization of justice", "id": "00044798", "subnational": []}, {"title": "support to the national strategic plan of hiv/aids", "id": "00044353", "subnational": []}], "op_unit": "AGO"}