{"iso_num": null, "projects": [{"title": "management plan for country office general operations", "id": "00042722", "subnational": [{"outputID": "00049533", "output_locID": "00049533-1", "name": "Luanda", "focus_area": "9", "lat": "-8.836820", "type": "PPLC", "awardID": "00042722", "lon": "13.234320", "precision": "1", "focus_area_descr": "Organizational Results Area 2"}, {"outputID": "00085068", "output_locID": "00085068-1", "name": "Angola", "focus_area": "9", "lat": "-12.500000", "type": "PCLI", "awardID": "00042722", "lon": "18.500000", "precision": "1", "focus_area_descr": "Organizational Results Area 2"}]}, {"title": "promoting the empowerment of angolan women through civil society organizations", "id": "00062504", "subnational": [{"outputID": "00080023", "output_locID": "00080023-1", "name": "Luanda", "focus_area": "2", "lat": "-8.836820", "type": "PPLC", "awardID": "00062504", "lon": "13.234320", "precision": "1", "focus_area_descr": "Democratic Governance"}, {"outputID": "00080023", "output_locID": "00080023-2", "name": "Namibe", "focus_area": "2", "lat": "-15.332070", "type": "ADM1", "awardID": "00062504", "lon": "12.660020", "precision": "1", "focus_area_descr": "Democratic Governance"}, {"outputID": "00080023", "output_locID": "00080023-3", "name": "Hu\u00edla", "focus_area": "2", "lat": "-14.695310", "type": "ADM1", "awardID": "00062504", "lon": "15.000140", "precision": "1", "focus_area_descr": "Democratic Governance"}, {"outputID": "00080023", "output_locID": "00080023-4", "name": "Cunene", "focus_area": "2", "lat": "-16.510090", "type": "ADM1", "awardID": "00062504", "lon": "15.435260", "precision": "1", "focus_area_descr": "Democratic Governance"}]}, {"title": "conservation of biodiversity at iona national park", "id": "00064743", "subnational": [{"outputID": "00081396", "output_locID": "00081396-1", "name": "Luanda", "focus_area": "1", "lat": "-8.836820", "type": "PPLC", "awardID": "00064743", "lon": "13.234320", "precision": "1", "focus_area_descr": "Inclusive & Sustainable Growth"}, {"outputID": "00081396", "output_locID": "00081396-2", "name": "Iona", "focus_area": "1", "lat": "-16.900000", "type": "PPL", "awardID": "00064743", "lon": "12.583330", "precision": "1", "focus_area_descr": "Inclusive & Sustainable Growth"}]}, {"title": "sustainable economic development and inclusive growth", "id": "00076670", "subnational": [{"outputID": "00087942", "output_locID": "00087942-1", "name": "Malanje", "focus_area": "1", "lat": "-9.540150", "type": "PPLA", "awardID": "00076670", "lon": "16.340960", "precision": "1", "focus_area_descr": "Inclusive & Sustainable Growth"}, {"outputID": "00087942", "output_locID": "00087942-2", "name": "Luanda", "focus_area": "1", "lat": "-8.836820", "type": "PPLC", "awardID": "00076670", "lon": "13.234320", "precision": "1", "focus_area_descr": "Inclusive & Sustainable Growth"}]}, {"title": "participation and local governance", "id": "00076997", "subnational": [{"outputID": "00088071", "output_locID": "00088071-1", "name": "Luanda", "focus_area": "2", "lat": "-8.836820", "type": "PPLC", "awardID": "00076997", "lon": "13.234320", "precision": "1", "focus_area_descr": "Democratic Governance"}, {"outputID": "00088071", "output_locID": "00088071-2", "name": "Luanda", "focus_area": "2", "lat": "-8.836820", "type": "PPLC", "awardID": "00076997", "lon": "13.234320", "precision": "1", "focus_area_descr": "Democratic Governance"}]}, {"title": "expansion and strengthening angola protect areas syste", "id": "00078044", "subnational": [{"outputID": "00088535", "output_locID": "00088535-1", "name": "Quissama", "focus_area": "5", "lat": "-9.817650", "type": "ADM2", "awardID": "00078044", "lon": "13.824810", "precision": "1", "focus_area_descr": "Climate Change & Disaster Resilience"}, {"outputID": "00088535", "output_locID": "00088535-2", "name": "Luanda", "focus_area": "5", "lat": "-8.836820", "type": "PPLC", "awardID": "00078044", "lon": "13.234320", "precision": "1", "focus_area_descr": "Climate Change & Disaster Resilience"}, {"outputID": "00088535", "output_locID": "00088535-3", "name": "Cangandala", "focus_area": "5", "lat": "-9.783330", "type": "PPL", "awardID": "00078044", "lon": "16.433330", "precision": "1", "focus_area_descr": "Climate Change & Disaster Resilience"}, {"outputID": "00088535", "output_locID": "00088535-4", "name": "Luando", "focus_area": "5", "lat": "-11.616670", "type": "PPLQ", "awardID": "00078044", "lon": "18.466670", "precision": "1", "focus_area_descr": "Climate Change & Disaster Resilience"}, {"outputID": "00088535", "output_locID": "00088535-5", "name": "Hu\u00edla", "focus_area": "5", "lat": "-14.695310", "type": "ADM1", "awardID": "00078044", "lon": "15.000140", "precision": "1", "focus_area_descr": "Climate Change & Disaster Resilience"}]}, {"title": "promoting climate-resilient development and enhanced adaptive capacity to withstand disaster risks in angolan\u2019s cuvelai river basin", "id": "00081003", "subnational": [{"outputID": "00090473", "output_locID": "00090473-1", "name": "Cunene", "focus_area": "5", "lat": "-16.510090", "type": "ADM1", "awardID": "00081003", "lon": "15.435260", "precision": "1", "focus_area_descr": "Climate Change & Disaster Resilience"}]}, {"title": "disaster risk reduction and resilience building", "id": "00084416", "subnational": [{"outputID": "00092430", "output_locID": "00092430-1", "name": "Luanda", "focus_area": "5", "lat": "-8.836820", "type": "PPLC", "awardID": "00084416", "lon": "13.234320", "precision": "1", "focus_area_descr": "Climate Change & Disaster Resilience"}]}, {"title": "promotion of sustainable  charcoal in angola", "id": "00084488", "subnational": [{"outputID": "00092469", "output_locID": "00092469-1", "name": "Luanda", "focus_area": "5", "lat": "-8.916670", "type": "ADM1", "awardID": "00084488", "lon": "13.339240", "precision": "1", "focus_area_descr": "Climate Change & Disaster Resilience"}, {"outputID": "00092469", "output_locID": "00092469-2", "name": "Luanda", "focus_area": "5", "lat": "-8.836820", "type": "PPLC", "awardID": "00084488", "lon": "13.234320", "precision": "1", "focus_area_descr": "Climate Change & Disaster Resilience"}, {"outputID": "00092469", "output_locID": "00092469-3", "name": "Huambo", "focus_area": "5", "lat": "-12.500000", "type": "ADM1", "awardID": "00084488", "lon": "15.666670", "precision": "1", "focus_area_descr": "Climate Change & Disaster Resilience"}, {"outputID": "00092469", "output_locID": "00092469-4", "name": "Kwanza Sul", "focus_area": "5", "lat": "-10.826960", "type": "ADM1", "awardID": "00084488", "lon": "15.031970", "precision": "1", "focus_area_descr": "Climate Change & Disaster Resilience"}]}, {"title": "address urgent coastal adapt needs and capacit gaps angola", "id": "00084491", "subnational": [{"outputID": "00092471", "output_locID": "00092471-1", "name": "Cabinda", "focus_area": "5", "lat": "-4.934230", "type": "ADM1", "awardID": "00084491", "lon": "12.405320", "precision": "1", "focus_area_descr": "Climate Change & Disaster Resilience"}, {"outputID": "00092471", "output_locID": "00092471-2", "name": "Bengo", "focus_area": "5", "lat": "-8.975040", "type": "ADM1", "awardID": "00084491", "lon": "13.827430", "precision": "1", "focus_area_descr": "Climate Change & Disaster Resilience"}, {"outputID": "00092471", "output_locID": "00092471-3", "name": "Namibe", "focus_area": "5", "lat": "-15.332070", "type": "ADM1", "awardID": "00084491", "lon": "12.660020", "precision": "1", "focus_area_descr": "Climate Change & Disaster Resilience"}, {"outputID": "00092471", "output_locID": "00092471-4", "name": "Kwanza Sul", "focus_area": "5", "lat": "-10.826960", "type": "ADM1", "awardID": "00084491", "lon": "15.031970", "precision": "1", "focus_area_descr": "Climate Change & Disaster Resilience"}]}, {"title": "strengthening the national response to hiv in angola", "id": "00097226", "subnational": [{"outputID": "00101046", "output_locID": "00101046-1", "name": "Lunda Sul", "focus_area": "1", "lat": "-10.259180", "type": "ADM1", "awardID": "00097226", "lon": "20.624890", "precision": "1", "focus_area_descr": "Inclusive & Sustainable Growth"}, {"outputID": "00101046", "output_locID": "00101046-2", "name": "Luanda Norte", "focus_area": "1", "lat": "-8.635430", "type": "ADM1", "awardID": "00097226", "lon": "19.648520", "precision": "1", "focus_area_descr": "Inclusive & Sustainable Growth"}, {"outputID": "00101046", "output_locID": "00101046-3", "name": "Cuando Cobango", "focus_area": "1", "lat": "-15.947610", "type": "ADM1", "awardID": "00097226", "lon": "19.383200", "precision": "1", "focus_area_descr": "Inclusive & Sustainable Growth"}, {"outputID": "00101046", "output_locID": "00101046-4", "name": "Luanda Municipality", "focus_area": "1", "lat": "-8.847080", "type": "ADM2", "awardID": "00097226", "lon": "13.271480", "precision": "1", "focus_area_descr": "Inclusive & Sustainable Growth"}, {"outputID": "00101046", "output_locID": "00101046-5", "name": "Cabinda", "focus_area": "1", "lat": "-4.934230", "type": "ADM1", "awardID": "00097226", "lon": "12.405320", "precision": "1", "focus_area_descr": "Inclusive & Sustainable Growth"}, {"outputID": "00101046", "output_locID": "00101046-6", "name": "Bengo", "focus_area": "1", "lat": "-8.975040", "type": "ADM1", "awardID": "00097226", "lon": "13.827430", "precision": "1", "focus_area_descr": "Inclusive & Sustainable Growth"}, {"outputID": "00101046", "output_locID": "00101046-7", "name": "Kuito", "focus_area": "1", "lat": "-12.383330", "type": "PPLA", "awardID": "00097226", "lon": "16.933330", "precision": "1", "focus_area_descr": "Inclusive & Sustainable Growth"}, {"outputID": "00101046", "output_locID": "00101046-8", "name": "Hu\u00edla", "focus_area": "1", "lat": "-14.695310", "type": "ADM1", "awardID": "00097226", "lon": "15.000140", "precision": "1", "focus_area_descr": "Inclusive & Sustainable Growth"}, {"outputID": "00101046", "output_locID": "00101046-9", "name": "Huambo", "focus_area": "1", "lat": "-12.793470", "type": "ADM2", "awardID": "00097226", "lon": "15.791150", "precision": "1", "focus_area_descr": "Inclusive & Sustainable Growth"}, {"outputID": "00101046", "output_locID": "00101046-10", "name": "Cunene", "focus_area": "1", "lat": "-16.510090", "type": "ADM1", "awardID": "00097226", "lon": "15.435260", "precision": "1", "focus_area_descr": "Inclusive & Sustainable Growth"}, {"outputID": "00101046", "output_locID": "00101046-11", "name": "Benguela", "focus_area": "1", "lat": "-12.853990", "type": "ADM1", "awardID": "00097226", "lon": "13.928250", "precision": "1", "focus_area_descr": "Inclusive & Sustainable Growth"}]}, {"title": "support for angola's election in 2017", "id": "00103650", "subnational": [{"outputID": "00105574", "output_locID": "00105574-1", "name": "Luanda", "focus_area": "3", "lat": "-8.836820", "type": "PPLC", "awardID": "00103650", "lon": "13.234320", "precision": "1", "focus_area_descr": "Responsive Institutions"}]}, {"title": "plan development for the creation of marine protected areas in angola", "id": "00105412", "subnational": [{"outputID": "00106694", "output_locID": "00106694-1", "name": "Luanda", "focus_area": "5", "lat": "-8.836820", "type": "PPLC", "awardID": "00105412", "lon": "13.234320", "precision": "1", "focus_area_descr": "Climate Change & Disaster Resilience"}]}, {"title": "implementation support for international finance institutions and the government", "id": "00106463", "subnational": [{"outputID": "00107203", "output_locID": "00107203-1", "name": "Luanda", "focus_area": "1", "lat": "-8.836820", "type": "PPLC", "awardID": "00106463", "lon": "13.234320", "precision": "1", "focus_area_descr": "Inclusive & Sustainable Growth"}]}, {"title": "promoting sustainable energy south-eastern angola", "id": "00107121", "subnational": []}, {"title": "combating illegal wildlife trade and human wildlife", "id": "00107331", "subnational": []}, {"title": "realization of a just and inclusive society", "id": "00109372", "subnational": []}, {"title": "support to national tuberculosis control program", "id": "00040779", "subnational": [{"outputID": "00046292", "output_locID": "00046292-1", "name": "Luanda", "focus_area": "3", "lat": "-8.836820", "type": "PPLC", "awardID": "00040779", "lon": "13.234320", "precision": "1", "focus_area_descr": "Responsive Institutions"}]}, {"title": "reducing the burden of hiv/aids in angola", "id": "00041138", "subnational": [{"outputID": "00046824", "output_locID": "00046824-1", "name": "Luanda Municipality", "focus_area": "3", "lat": "-8.847080", "type": "ADM2", "awardID": "00041138", "lon": "13.271480", "precision": "1", "focus_area_descr": "Responsive Institutions"}, {"outputID": "00046824", "output_locID": "00046824-2", "name": "Hu\u00edla", "focus_area": "3", "lat": "-14.695310", "type": "ADM1", "awardID": "00041138", "lon": "15.000140", "precision": "1", "focus_area_descr": "Responsive Institutions"}, {"outputID": "00046824", "output_locID": "00046824-3", "name": "Huambo", "focus_area": "3", "lat": "-12.793470", "type": "ADM2", "awardID": "00041138", "lon": "15.791150", "precision": "1", "focus_area_descr": "Responsive Institutions"}, {"outputID": "00046824", "output_locID": "00046824-4", "name": "Benguela", "focus_area": "3", "lat": "-12.853990", "type": "ADM1", "awardID": "00041138", "lon": "13.928250", "precision": "1", "focus_area_descr": "Responsive Institutions"}]}, {"title": "support for strengthening the human rights framework in angola", "id": "00067184", "subnational": [{"outputID": "00083114", "output_locID": "00083114-1", "name": "Luanda Municipality", "focus_area": "2", "lat": "-8.847080", "type": "ADM2", "awardID": "00067184", "lon": "13.271480", "precision": "1", "focus_area_descr": "Democratic Governance"}]}, {"title": "phase out of the hydrochlorofluorocarbon element in line to the montreal protocol", "id": "00067547", "subnational": [{"outputID": "00083260", "output_locID": "00083260-1", "name": "Luanda", "focus_area": "1", "lat": "-8.836820", "type": "PPLC", "awardID": "00067547", "lon": "13.234320", "precision": "1", "focus_area_descr": "Inclusive & Sustainable Growth"}]}, {"title": "strengthening of capacities of the ministry of family and women affairs, civil society organizations and women community based organizations in angola", "id": "00080950", "subnational": [{"outputID": "00090445", "output_locID": "00090445-1", "name": "Moxico", "focus_area": "4", "lat": "-12.848690", "type": "ADM1", "awardID": "00080950", "lon": "20.932660", "precision": "1", "focus_area_descr": "Gender Equality"}, {"outputID": "00090445", "output_locID": "00090445-2", "name": "Luanda", "focus_area": "4", "lat": "-8.836820", "type": "PPLC", "awardID": "00080950", "lon": "13.234320", "precision": "1", "focus_area_descr": "Gender Equality"}, {"outputID": "00090445", "output_locID": "00090445-3", "name": "Huambo", "focus_area": "4", "lat": "-12.793470", "type": "ADM2", "awardID": "00080950", "lon": "15.791150", "precision": "1", "focus_area_descr": "Gender Equality"}]}, {"title": "support to climate change sector in angola", "id": "00087617", "subnational": [{"outputID": "00094560", "output_locID": "00094560-1", "name": "Luanda", "focus_area": "5", "lat": "-8.836820", "type": "PPLC", "awardID": "00087617", "lon": "13.234320", "precision": "1", "focus_area_descr": "Climate Change & Disaster Resilience"}]}, {"title": "addressing urgent coastal adaptation needs and capacity gaps in angola", "id": "00090310", "subnational": [{"outputID": "00096137", "output_locID": "00096137-1", "name": "Luanda Municipality", "focus_area": "3", "lat": "-8.847080", "type": "ADM2", "awardID": "00090310", "lon": "13.271480", "precision": "1", "focus_area_descr": "Responsive Institutions"}, {"outputID": "00096137", "output_locID": "00096137-2", "name": "Hu\u00edla", "focus_area": "3", "lat": "-14.695310", "type": "ADM1", "awardID": "00090310", "lon": "15.000140", "precision": "1", "focus_area_descr": "Responsive Institutions"}, {"outputID": "00096137", "output_locID": "00096137-3", "name": "Huambo", "focus_area": "3", "lat": "-12.793470", "type": "ADM2", "awardID": "00090310", "lon": "15.791150", "precision": "1", "focus_area_descr": "Responsive Institutions"}, {"outputID": "00096137", "output_locID": "00096137-4", "name": "Benguela", "focus_area": "3", "lat": "-12.853990", "type": "ADM1", "awardID": "00090310", "lon": "13.928250", "precision": "1", "focus_area_descr": "Responsive Institutions"}]}, {"title": "strengthen the national health procurement system of angola", "id": "00106462", "subnational": [{"outputID": "00107202", "output_locID": "00107202-1", "name": "Luanda", "focus_area": "3", "lat": "-8.836820", "type": "PPLC", "awardID": "00106462", "lon": "13.234320", "precision": "1", "focus_area_descr": "Responsive Institutions"}]}, {"title": "mine action coord. at provincial level", "id": "00011114", "subnational": []}, {"title": "angola enterprise fund", "id": "00011116", "subnational": []}, {"title": "governance and local development programme (gldp)", "id": "00036249", "subnational": [{"outputID": "00074447", "output_locID": "00074447-1", "name": "Angola", "focus_area": "0", "lat": "-12.500000", "type": "PCLI", "awardID": "00036249", "lon": "18.500000", "precision": "1", "focus_area_descr": "SP_NONE_APPLIES"}, {"outputID": "00039307", "output_locID": "00039307-1", "name": "U\u00edge", "focus_area": "0", "lat": "-7.608740", "type": "PPLA", "awardID": "00036249", "lon": "15.061310", "precision": "1", "focus_area_descr": "SP_NONE_APPLIES"}, {"outputID": "00039307", "output_locID": "00039307-2", "name": "Malanje", "focus_area": "0", "lat": "-9.540150", "type": "PPLA", "awardID": "00036249", "lon": "16.340960", "precision": "1", "focus_area_descr": "SP_NONE_APPLIES"}, {"outputID": "00039307", "output_locID": "00039307-3", "name": "Cuanza Norte Province", "focus_area": "0", "lat": "-8.911360", "type": "ADM1", "awardID": "00036249", "lon": "14.888700", "precision": "1", "focus_area_descr": "SP_NONE_APPLIES"}, {"outputID": "00039307", "output_locID": "00039307-4", "name": "Bengo Province", "focus_area": "0", "lat": "-8.975040", "type": "ADM1", "awardID": "00036249", "lon": "13.827430", "precision": "1", "focus_area_descr": "SP_NONE_APPLIES"}, {"outputID": "00039307", "output_locID": "00039307-5", "name": "Prov\u00edncia do Bi\u00e9", "focus_area": "0", "lat": "-12.349890", "type": "ADM1", "awardID": "00036249", "lon": "17.303100", "precision": "1", "focus_area_descr": "SP_NONE_APPLIES"}]}, {"title": "angola enterprise programme", "id": "00037249", "subnational": [{"outputID": "00040754", "output_locID": "00040754-1", "name": "Luanda", "focus_area": "0", "lat": "-8.916670", "type": "ADM1", "awardID": "00037249", "lon": "13.339240", "precision": "1", "focus_area_descr": "SP_NONE_APPLIES"}, {"outputID": "00040754", "output_locID": "00040754-2", "name": "Cabinda", "focus_area": "0", "lat": "-4.934230", "type": "ADM1", "awardID": "00037249", "lon": "12.405320", "precision": "1", "focus_area_descr": "SP_NONE_APPLIES"}, {"outputID": "00040754", "output_locID": "00040754-3", "name": "Hu\u00edla", "focus_area": "0", "lat": "-14.695310", "type": "ADM1", "awardID": "00037249", "lon": "15.000140", "precision": "1", "focus_area_descr": "SP_NONE_APPLIES"}, {"outputID": "00040754", "output_locID": "00040754-4", "name": "Benguela", "focus_area": "0", "lat": "-12.853990", "type": "ADM1", "awardID": "00037249", "lon": "13.928250", "precision": "1", "focus_area_descr": "SP_NONE_APPLIES"}]}, {"title": "rapid response fund", "id": "00043029", "subnational": []}, {"title": "capacity development of national institute for deming", "id": "00045302", "subnational": [{"outputID": "00053484", "output_locID": "00053484-1", "name": "Angola", "focus_area": "0", "lat": "-12.500000", "type": "PCLI", "awardID": "00045302", "lon": "18.500000", "precision": "1", "focus_area_descr": "SP_NONE_APPLIES"}]}, {"title": "urban & peri-urban water & sanitation joint programme", "id": "00057521", "subnational": [{"outputID": "00071113", "output_locID": "00071113-1", "name": "Luanda", "focus_area": "0", "lat": "-8.836820", "type": "PPLC", "awardID": "00057521", "lon": "13.234320", "precision": "1", "focus_area_descr": "SP_NONE_APPLIES"}]}, {"title": "preparatory assistance to disaster risk reduction", "id": "00063144", "subnational": [{"outputID": "00080448", "output_locID": "00080448-1", "name": "Angola", "focus_area": "5", "lat": "-12.500000", "type": "PCLI", "awardID": "00063144", "lon": "18.500000", "precision": "1", "focus_area_descr": "Climate Change & Disaster Resilience"}, {"outputID": "00080448", "output_locID": "00080448-2", "name": "Angola", "focus_area": "5", "lat": "-12.500000", "type": "PCLI", "awardID": "00063144", "lon": "18.500000", "precision": "1", "focus_area_descr": "Climate Change & Disaster Resilience"}]}, {"title": "development effectiveness", "id": "00064830", "subnational": []}, {"title": "ppg_5719 sustainable charcoal value chain", "id": "00080589", "subnational": [{"outputID": "00090237", "output_locID": "00090237-1", "name": "Luanda Municipality", "focus_area": "5", "lat": "-8.847080", "type": "ADM2", "awardID": "00080589", "lon": "13.271480", "precision": "1", "focus_area_descr": "Climate Change & Disaster Resilience"}]}, {"title": "support to sustainable  energy for all initiative", "id": "00088171", "subnational": [{"outputID": "00094937", "output_locID": "00094937-1", "name": "Luanda", "focus_area": "5", "lat": "-8.836820", "type": "PPLC", "awardID": "00088171", "lon": "13.234320", "precision": "1", "focus_area_descr": "Climate Change & Disaster Resilience"}, {"outputID": "00094937", "output_locID": "00094937-2", "name": "Angola", "focus_area": "5", "lat": "-12.500000", "type": "PCLI", "awardID": "00088171", "lon": "18.500000", "precision": "1", "focus_area_descr": "Climate Change & Disaster Resilience"}]}, {"title": "growing sustainable business angola", "id": "00050950", "subnational": [{"outputID": "00063205", "output_locID": "00063205-1", "name": "Kuando Kubango", "focus_area": "-", "lat": "-15.947610", "type": "ADM1", "awardID": "00050950", "lon": "19.383200", "precision": "1", "focus_area_descr": "-"}, {"outputID": "00063205", "output_locID": "00063205-2", "name": "Malanje Province", "focus_area": "-", "lat": "-9.675480", "type": "ADM1", "awardID": "00050950", "lon": "16.825530", "precision": "1", "focus_area_descr": "-"}, {"outputID": "00063205", "output_locID": "00063205-3", "name": "Luanda Province", "focus_area": "-", "lat": "-8.916660", "type": "ADM1", "awardID": "00050950", "lon": "13.339240", "precision": "1", "focus_area_descr": "-"}, {"outputID": "00063205", "output_locID": "00063205-4", "name": "Luanda", "focus_area": "-", "lat": "-8.836820", "type": "PPLC", "awardID": "00050950", "lon": "13.234320", "precision": "1", "focus_area_descr": "-"}, {"outputID": "00063205", "output_locID": "00063205-5", "name": "Huambo", "focus_area": "-", "lat": "-12.500000", "type": "ADM1", "awardID": "00050950", "lon": "15.666670", "precision": "1", "focus_area_descr": "-"}, {"outputID": "00063205", "output_locID": "00063205-6", "name": "Prov\u00edncia do Bi\u00e9", "focus_area": "-", "lat": "-12.349890", "type": "ADM1", "awardID": "00050950", "lon": "17.303100", "precision": "1", "focus_area_descr": "-"}]}, {"title": "ppg 5166 enhance adaptive capacity in cuvelai basin", "id": "00073048", "subnational": [{"outputID": "00086012", "output_locID": "00086012-1", "name": "Luanda", "focus_area": "1", "lat": "-8.836820", "type": "PPLC", "awardID": "00073048", "lon": "13.234320", "precision": "1", "focus_area_descr": "Inclusive & Sustainable Growth"}, {"outputID": "00086012", "output_locID": "00086012-2", "name": "Angola", "focus_area": "1", "lat": "-12.500000", "type": "PCLI", "awardID": "00073048", "lon": "18.500000", "precision": "1", "focus_area_descr": "Inclusive & Sustainable Growth"}]}, {"title": "environment strategic programme", "id": "00077907", "subnational": [{"outputID": "00088462", "output_locID": "00088462-1", "name": "Luanda", "focus_area": "1", "lat": "-8.836820", "type": "PPLC", "awardID": "00077907", "lon": "13.234320", "precision": "1", "focus_area_descr": "Inclusive & Sustainable Growth"}]}, {"title": "pims 3379 op15 msp: sustainable land management", "id": "00044526", "subnational": [{"outputID": "00052416", "output_locID": "00052416-1", "name": "Huambo", "focus_area": "0", "lat": "-12.500000", "type": "ADM1", "awardID": "00044526", "lon": "15.666670", "precision": "1", "focus_area_descr": "SP_NONE_APPLIES"}, {"outputID": "00052416", "output_locID": "00052416-2", "name": "Angola", "focus_area": "0", "lat": "-12.500000", "type": "PCLI", "awardID": "00044526", "lon": "18.500000", "precision": "1", "focus_area_descr": "SP_NONE_APPLIES"}]}, {"title": "entrepreneurship curriculum programme", "id": "00050951", "subnational": [{"outputID": "00063206", "output_locID": "00063206-1", "name": "Angola", "focus_area": "0", "lat": "-12.500000", "type": "PCLI", "awardID": "00050951", "lon": "18.500000", "precision": "1", "focus_area_descr": "SP_NONE_APPLIES"}]}, {"title": "support to environment thematic area", "id": "00062235", "subnational": [{"outputID": "00079634", "output_locID": "00079634-1", "name": "Angola", "focus_area": "0", "lat": "-12.500000", "type": "PCLI", "awardID": "00062235", "lon": "18.500000", "precision": "1", "focus_area_descr": "SP_NONE_APPLIES"}]}, {"title": "enhancing nat. cap.for mainstre mdgs in dev. frameworks", "id": "00072604", "subnational": [{"outputID": "00085663", "output_locID": "00085663-1", "name": "Angola", "focus_area": "7", "lat": "-12.500000", "type": "PCLI", "awardID": "00072604", "lon": "18.500000", "precision": "1", "focus_area_descr": "Development Impact & Effectiveness"}]}, {"title": "mdg reporting, m&e and planning", "id": "00059621", "subnational": [{"outputID": "00074634", "output_locID": "00074634-1", "name": "Angola", "focus_area": "0", "lat": "-12.500000", "type": "PCLI", "awardID": "00059621", "lon": "18.500000", "precision": "1", "focus_area_descr": "SP_NONE_APPLIES"}]}, {"title": "food security in angola", "id": "00062500", "subnational": [{"outputID": "00080015", "output_locID": "00080015-1", "name": "Angola", "focus_area": "0", "lat": "-12.500000", "type": "PCLI", "awardID": "00062500", "lon": "18.500000", "precision": "1", "focus_area_descr": "SP_NONE_APPLIES"}]}, {"title": "ppg 4464 protected areas expansion", "id": "00067980", "subnational": [{"outputID": "00083434", "output_locID": "00083434-1", "name": "Angola", "focus_area": "1", "lat": "-12.500000", "type": "PCLI", "awardID": "00067980", "lon": "18.500000", "precision": "1", "focus_area_descr": "Inclusive & Sustainable Growth"}]}, {"title": "stockpile destruction project", "id": "00039658", "subnational": []}, {"title": "support to cnidah 2007-2008", "id": "00047708", "subnational": [{"outputID": "00057533", "output_locID": "00057533-1", "name": "Angola", "focus_area": "0", "lat": "-12.500000", "type": "PCLI", "awardID": "00047708", "lon": "18.500000", "precision": "1", "focus_area_descr": "SP_NONE_APPLIES"}]}, {"title": "ang/pha/55/prp/08-prep. phaseout managem. plan(hpmp)", "id": "00057124", "subnational": [{"outputID": "00070453", "output_locID": "00070453-1", "name": "Angola", "focus_area": "0", "lat": "-12.500000", "type": "PCLI", "awardID": "00057124", "lon": "18.500000", "precision": "1", "focus_area_descr": "SP_NONE_APPLIES"}]}, {"title": "ambriz project", "id": "00011123", "subnational": []}, {"title": "civic education", "id": "00044904", "subnational": []}, {"title": "pims 65 iw fsp: okavango river basin", "id": "00040920", "subnational": []}, {"title": "reform & modernization of justice", "id": "00044798", "subnational": []}, {"title": "support to the national strategic plan of hiv/aids", "id": "00044353", "subnational": []}], "op_unit": "AGO"}