{"iso_num":"024","op_unit":"AGO","projects":[{"id":"00037249","subnational":[{"awardID":"00037249","lat":"-8.83682","lon":"13.23432","name":"Luanda","precision":"4","type":"ADM1"},{"awardID":"00037249","lat":"-12.57626","lon":"13.40547","name":"Benguela","precision":"4","type":"ADM1"},{"awardID":"00037249","lat":"-5.55","lon":"12.2","name":"Cabinda","precision":"4","type":"ADM1"},{"awardID":"00037249","lat":"-14.69531","lon":"15.00014","name":"Huila","precision":"4","type":"ADM1"}],"title":"Angola Enterprise Programme"},{"id":"00072604","subnational":[],"title":"Enhancing Nat. Cap.for Mainstre MDGs in Dev. Frameworks"},{"id":"00050951","subnational":[{"awardID":"00050951","lat":"-12.5","lon":"18.5","name":"Angola","precision":"9","type":"PCL"}],"title":"Entrepreneurship Curriculum Programme"},{"id":"00062500","subnational":[{"awardID":"00062500","lat":"-12.5","lon":"18.5","name":"Angola","precision":"9","type":"PCL"}],"title":"Food Security in Angola"},{"id":"00036249","subnational":[{"awardID":"00036249","lat":"-12.38333","lon":"16.93333","name":"Bie","precision":"4","type":"ADM1"},{"awardID":"00036249","lat":"-7.60874","lon":"15.06131","name":"Uige","precision":"4","type":"ADM1"},{"awardID":"00036249","lat":"-9.54015","lon":"16.34096","name":"Malange","precision":"4","type":"ADM1"},{"awardID":"00036249","lat":"-8.97504","lon":"13.82743","name":"Bengo","precision":"4","type":"ADM1"},{"awardID":"00036249","lat":"-8.91136","lon":"14.8887","name":"Kwanza Norte","precision":"4","type":"ADM1"},{"awardID":"00036249","lat":"-12.5","lon":"18.5","name":"Angola","precision":"9","type":"PCL"}],"title":"Governance and Local Development Programme (GLDP)"},{"id":"00050950","subnational":[{"awardID":"00050950","lat":"-8.83682","lon":"13.23432","name":"Luanda","precision":"4","type":"ADM1"},{"awardID":"00050950","lat":"-12.77611","lon":"15.73917","name":"Huambo","precision":"4","type":"ADM1"},{"awardID":"00050950","lat":"-12.2059","lon":"17.1811","name":"Bie","precision":"4","type":"ADM1"},{"awardID":"00050950","lat":"-9.54015","lon":"16.34096","name":"Malanje","precision":"4","type":"ADM1"},{"awardID":"00050950","lat":"-15.94761","lon":"19.3832","name":"Cuando Cubango","precision":"4","type":"ADM1"}],"title":"Growing Sustainable Business Angola"},{"id":"00067547","subnational":[],"title":"Hydrochlorofluorocarbon (HCFC)Management Plan for Angola"},{"id":"00042722","subnational":[],"title":"Management Plan"},{"id":"00059621","subnational":[{"awardID":"00059621","lat":"-12.5","lon":"18.5","name":"Angola","precision":"9","type":"PCL"}],"title":"MDG Reporting, M&E and Planning"},{"id":"00044526","subnational":[{"awardID":"00044526","lat":"-12.77611","lon":"15.73917","name":"Huambo","precision":"4","type":"ADM1"}],"title":"PIMS 3379 OP15 MSP: Sustainable Land Management"},{"id":"00064743","subnational":[],"title":"PIMS 4581 Angola NAT BD PROJ IONA CONSERVATION"},{"id":"00067980","subnational":[],"title":"PPG 4464 Angola PA Expansion"},{"id":"00073048","subnational":[],"title":"PPG PIMS 5166 Angola LDCF"},{"id":"00063144","subnational":[],"title":"PREPARATORY ASSISTANCE TO DRR THEMATIC COMPONENT"},{"id":"00041138","subnational":[{"awardID":"00041138","lat":"-12.5","lon":"18.5","name":"Angola","precision":"9","type":"PCL"}],"title":"Reducing the Burden of HIV/AIDS in Angola"},{"id":"00062504","subnational":[{"awardID":"00062504","lat":"-12.5","lon":"18.5","name":"Angola","precision":"9","type":"PCL"}],"title":"Strengthening  of Gender Empowerment in Angola"},{"id":"00067184","subnational":[],"title":"Support for the E. Human Rights Framework in Angola"},{"id":"00062235","subnational":[{"awardID":"00062235","lat":"-12.5","lon":"18.5","name":"Angola","precision":"9","type":"PCL"}],"title":"Support to Environment Thematic Area"},{"id":"00040779","subnational":[{"awardID":"00040779","lat":"-12.5","lon":"18.5","name":"Angola","precision":"9","type":"PCL"}],"title":"Support to National Tuberculosis Control Program"},{"id":"00057521","subnational":[{"awardID":"00057521","lat":"-8.83682","lon":"13.23432","name":"Luanda","precision":"3","type":"PPLC"}],"title":"Urban & Peri-Urban Water & Sanitation Joint Programme"}]}