{"iso_num":"024","op_unit":"AGO","projects":[{"id":"00011116","subnational":[],"title":"ANGOLA ENTERPRISE FUND"},{"id":"00011122","subnational":[],"title":"SUPPORT FOR MDG/NEPAD"},{"id":"00011123","subnational":[],"title":"AMBRIZ PROJECT"},{"id":"00036249","subnational":[{"lat":7.3631,"lon":15.34,"precision":"4","scope":"3","type":"1"},{"lat":8.544,"lon":14.5319,"precision":"4","scope":"3","type":"1"},{"lat":8.583,"lon":13.4938,"precision":"4","scope":"3","type":"1"},{"lat":9.3224,"lon":16.2027,"precision":"4","scope":"3","type":"1"},{"lat":12.23,"lon":16.56,"precision":"4","scope":"3","type":"1"}],"title":"Governance and Local Development Programme (GLDP)"},{"id":"00037249","subnational":[{"lat":5.33,"lon":12.12,"precision":"4","scope":"3","type":"2"},{"lat":8.5012,"lon":13.143,"precision":"4","scope":"3","type":"2"},{"lat":12.3434,"lon":13.2419,"precision":"4","scope":"3","type":"2"},{"lat":14.4143,"lon":15.0,"precision":"4","scope":"3","type":"2"}],"title":"Angola Enterprise Programme"},{"id":"00039658","subnational":[],"title":"Stockpile Destruction Project"},{"id":"00040779","subnational":[],"title":"Support to National Tuberculosis Control Program"},{"id":"00040920","subnational":[],"title":"PIMS 65 IW FSP: Okavango River Basin"},{"id":"00041138","subnational":[{"lat":12.3,"lon":18.3,"precision":"9","scope":"4","type":"1"}],"title":"Reducing the Burden of HIV/AIDS in Angola"},{"id":"00044353","subnational":[],"title":"Support to the National Strategic Plan of HIV/AIDS"},{"id":"00044526","subnational":[{"lat":12.3,"lon":15.4,"precision":"4","scope":"2","type":"1"}],"title":"PIMS 3379 OP15 MSP: Sustainable Land Management"},{"id":"00044798","subnational":[],"title":"Reform & Modernization of Justice"},{"id":"00044904","subnational":[],"title":"Civic Education"},{"id":"00045302","subnational":[],"title":"Capacity Development of National Institute for Deming"},{"id":"00047708","subnational":[{"lat":12.3,"lon":18.3,"precision":"9","scope":"4","type":"2"}],"title":"Support to CNIDAH 2007-2008"},{"id":"00050950","subnational":[{"lat":8.55,"lon":13.2021,"precision":"4","scope":"3","type":"2"},{"lat":9.4031,"lon":16.4931,"precision":"4","scope":"3","type":"2"},{"lat":12.2059,"lon":17.1811,"precision":"4","scope":"3","type":"2"},{"lat":12.3,"lon":15.4,"precision":"4","scope":"3","type":"2"},{"lat":15.5651,"lon":19.2259,"precision":"4","scope":"3","type":"2"}],"title":"Growing Sustainable Business Angola"},{"id":"00050951","subnational":[{"lat":12.3,"lon":18.3,"precision":"9","scope":"4","type":"1"}],"title":"Entrepreneurship Curriculum Programme"},{"id":"00057124","subnational":[],"title":"ANG/PHA/55/PRP/08-Prep. Phaseout Managem. Plan(HPMP)"},{"id":"00057521","subnational":[{"lat":8.5012,"lon":13.143,"precision":"3","scope":"1","type":"2"}],"title":"Urban & Peri-Urban Water & Sanitation Joint Programme"},{"id":"00059621","subnational":[],"title":"MDG Reporting, M&E and Planning"},{"id":"00062235","subnational":[],"title":"Support to Environment Thematic Area"},{"id":"00062500","subnational":[],"title":"Food Security in Angola"},{"id":"00062504","subnational":[],"title":"Strengthening  of Gender Empowerment in Angola"},{"id":"00063144","subnational":[],"title":"PREPARATORY ASSISTANCE TO DRR THEMATIC COMPONENT"},{"id":"00067184","subnational":[],"title":"Support for the E. Human Rights Framework in Angola"},{"id":"00067547","subnational":[],"title":"Hydrochlorofluorocarbon (HCFC)Management Plan for Angola"},{"id":"00067980","subnational":[],"title":"PPG 4464 Angola PA Expansion"}]}