{"iso_num":"031","op_unit":"AZE","projects":[{"id":"00074610","subnational":[],"title":"Azerbaijan's First Biennial Update Report to the UNFCCC"},{"id":"00037062","subnational":[{"awardID":"00037062","lat":"40.377642","lon":"49.832482","name":"Baku Diplomatic mission abroad","precision":"1","type":"PPL"}],"title":"Capacity Building for the Ministry of Foreign Affairs"},{"id":"00064506","subnational":[{"awardID":"00064506","lat":"40.3688","lon":"49.8211","name":"Baku","precision":"3","type":"PPLC"}],"title":"Civil Service Reform III"},{"id":"00072191","subnational":[{"awardID":"00072191","lat":"40.3688","lon":"49.8211","name":"Baku","precision":"3","type":"PPLC"}],"title":"Clima East pilot projects on ecosystem-based approaches"},{"id":"00072188","subnational":[{"awardID":"00072188","lat":"40.3688","lon":"49.8211","name":"Baku","precision":"3","type":"PPLC"}],"title":"Enhancing the professional and operational capacities of"},{"id":"00060695","subnational":[{"awardID":"00060695","lat":"40.3688","lon":"49.8211","name":"Baku","precision":"3","type":"PPLC"}],"title":"Human Development Course"},{"id":"00058496","subnational":[{"awardID":"00058496","lat":"41.095912","lon":"45.36581","name":"Gazakh","precision":"1","type":"PPL"}],"title":"Integrated Border Management in the South Caucasus"},{"id":"00066010","subnational":[{"awardID":"00066010","lat":"40.3688","lon":"49.8211","name":"Baku","precision":"3","type":"PPLC"}],"title":"Internet Governance Forum, Baku 2012"},{"id":"00066182","subnational":[{"awardID":"00066182","lat":"40.3688","lon":"49.8211","name":"Baku","precision":"3","type":"PPLC"}],"title":"Marine Ecosystems"},{"id":"00074347","subnational":[{"awardID":"00074347","lat":"40.3688","lon":"49.8211","name":"Baku","precision":"3","type":"PPLC"}],"title":"Modernization of Customs Service in Azerbaijan"},{"id":"00075577","subnational":[],"title":"Modernization of Sustainability and Efficiency of ICT in"},{"id":"00063580","subnational":[{"awardID":"00063580","lat":"40.3688","lon":"49.8211","name":"Baku","precision":"3","type":"PPLC"}],"title":"National Biodiversity Planning to Support the implementa"},{"id":"00073802","subnational":[{"awardID":"00073802","lat":"40.3688","lon":"49.8211","name":"Baku","precision":"3","type":"PPLC"}],"title":"Nationally Appropriate Mitigation Actions (NAMAs)"},{"id":"00011285","subnational":[{"awardID":"00011285","lat":"40.3688","lon":"49.8211","name":"Baku","precision":"3","type":"PPLC"}],"title":"Pension Reform"},{"id":"00028014","subnational":[{"awardID":"00028014","lat":"40.3688","lon":"49.8211","name":"Baku","precision":"3","type":"PPLC"}],"title":"Phaseout of ozone depleting substance"},{"id":"00028015","subnational":[{"awardID":"00028015","lat":"40.3688","lon":"49.8211","name":"Baku","precision":"3","type":"PPLC"}],"title":"Phaseout of ozone depleting substance"},{"id":"00028016","subnational":[{"awardID":"00028016","lat":"40.3688","lon":"49.8211","name":"Baku","precision":"3","type":"PPLC"}],"title":"Phaseout of ozone depleting substance"},{"id":"00062260","subnational":[{"awardID":"00062260","lat":"40.3688","lon":"49.8211","name":"Baku","precision":"3","type":"PPLC"}],"title":"PIMS 3929 SCCF FSP"},{"id":"00061428","subnational":[{"awardID":"00061428","lat":"40.3688","lon":"49.8211","name":"Baku","precision":"3","type":"PPLC"}],"title":"Promoting Innovation and Employment in Azerbaijan"},{"id":"00060711","subnational":[{"awardID":"00060711","lat":"40.445902","lon":"49.866154","name":"Baku","precision":"3","type":"PPLC"},{"awardID":"00060711","lat":"41.078963","lon":"49.113667","name":"Siyezen","precision":"4","type":"ADM1"}],"title":"Promoting Sustainable Energy Development"},{"id":"00061827","subnational":[],"title":"Rural women participation in economic and social life"},{"id":"00042114","subnational":[{"awardID":"00042114","lat":"40.3688","lon":"49.8211","name":"Baku","precision":"3","type":"PPLC"},{"awardID":"00042114","lat":"40.793149","lon":"48.151505","name":"Ismayilly","precision":"3","type":"PPLA"}],"title":"Solid Waste Management Improvement"},{"id":"00069778","subnational":[{"awardID":"00069778","lat":"40.3688","lon":"49.8211","name":"Baku","precision":"3","type":"PPLC"}],"title":"Southern Caucasus Integrated Boarder Management"},{"id":"00071087","subnational":[{"awardID":"00071087","lat":"40.3688","lon":"49.8211","name":"Baku","precision":"3","type":"PPLC"}],"title":"State Register of Invalid Documents"},{"id":"00071956","subnational":[{"awardID":"00071956","lat":"40.3688","lon":"49.8211","name":"Baku","precision":"3","type":"PPLC"}],"title":"Strengthening and expansion of mine action capacity"},{"id":"00057347","subnational":[{"awardID":"00057347","lat":"41.11984","lon":"45.453787","name":"Aghstafa","precision":"4","type":"ADM1"},{"awardID":"00057347","lat":"39.603837","lon":"47.143192","name":"Fizuli","precision":"4","type":"ADM1"},{"awardID":"00057347","lat":"41.11984","lon":"45.453787","name":"Khanlar","precision":"4","type":"ADM1"}],"title":"Strengthening of the mine action capacity in Azerbaijan"},{"id":"00065653","subnational":[{"awardID":"00065653","lat":"40.3688","lon":"49.8211","name":"Baku","precision":"3","type":"PPLC"},{"awardID":"00065653","lat":"40.3688","lon":"49.8211","name":"Baku","precision":"3","type":"PPLC"}],"title":"Support to Gender Research in Azerbaijan"},{"id":"00059408","subnational":[{"awardID":"00059408","lat":"40.3688","lon":"49.8211","name":"Baku","precision":"3","type":"PPLC"}],"title":"Support to Tourism Development"},{"id":"00070392","subnational":[{"awardID":"00070392","lat":"40.3688","lon":"49.8211","name":"Baku","precision":"3","type":"PPLC"}],"title":"Support to Tourism Vocational School"},{"id":"00063140","subnational":[{"awardID":"00063140","lat":"40.3688","lon":"49.8211","name":"Baku","precision":"3","type":"PPLC"}],"title":"Sustainable Land and Forest Management in Greater Caucas"},{"id":"00060785","subnational":[{"awardID":"00060785","lat":"40.444857","lon":"49.869003","name":"Baku","precision":"4","type":"ADM1"}],"title":"Third National Communication Report to UNFCCC"},{"id":"00062257","subnational":[{"awardID":"00062257","lat":"40.3688","lon":"49.8211","name":"Baku","precision":"3","type":"PPLC"}],"title":"UN Global Compact and Support to Entrepreneurship"},{"id":"00062802","subnational":[{"awardID":"00062802","lat":"40.3688","lon":"49.8211","name":"Baku","precision":"3","type":"PPLC"}],"title":"Youth Mobilization for Rio+20"},{"id":"00065350","subnational":[{"awardID":"00065350","lat":"40.3688","lon":"49.8211","name":"Baku","precision":"3","type":"PPLC"}],"title":"Youth Participation in Decision Making and Policy Implem"}]}