{"iso_num": null, "projects": [{"title": "engagement facility", "id": "00031911", "subnational": [{"outputID": "00032120", "output_locID": "00032120-1", "name": "Baku", "focus_area": "14", "lat": "40.377670", "type": "PPLC", "awardID": "00031911", "lon": "49.892010", "precision": "1", "focus_area_descr": "Organizational Results Area 7"}, {"outputID": "00103044", "output_locID": "00103044-1", "name": "Baku", "focus_area": "1", "lat": "40.377670", "type": "PPLC", "awardID": "00031911", "lon": "49.892010", "precision": "1", "focus_area_descr": "Inclusive Growth"}, {"outputID": "00104294", "output_locID": "00104294-1", "name": "Baku", "focus_area": "7", "lat": "40.377670", "type": "PPLC", "awardID": "00031911", "lon": "49.892010", "precision": "1", "focus_area_descr": "Thought Leadership"}, {"outputID": "00103238", "output_locID": "00103238-1", "name": "Baku", "focus_area": "7", "lat": "40.377670", "type": "PPLC", "awardID": "00031911", "lon": "49.892010", "precision": "1", "focus_area_descr": "Thought Leadership"}]}, {"title": "rural women participation in economic and social life", "id": "00061827", "subnational": [{"outputID": "00085296", "output_locID": "00085296-1", "name": "Neftchala Rayon", "focus_area": "1", "lat": "39.333330", "type": "ADM1", "awardID": "00061827", "lon": "49.000000", "precision": "1", "focus_area_descr": "Inclusive Growth"}]}, {"title": "sustainable land and forest management in greater caucas", "id": "00063140", "subnational": [{"outputID": "00080444", "output_locID": "00080444-1", "name": "Baku", "focus_area": "1", "lat": "40.377670", "type": "PPLC", "awardID": "00063140", "lon": "49.892010", "precision": "1", "focus_area_descr": "Inclusive Growth"}]}, {"title": "strengthening and expansion of mine action capacity", "id": "00071956", "subnational": [{"outputID": "00085205", "output_locID": "00085205-1", "name": "Baku", "focus_area": "3", "lat": "40.377670", "type": "PPLC", "awardID": "00071956", "lon": "49.892010", "precision": "1", "focus_area_descr": "Basic Services"}]}, {"title": "effectively managed marine ecosystems", "id": "00072166", "subnational": [{"outputID": "00085349", "output_locID": "00085349-1", "name": "Lankaran Rayon", "focus_area": "1", "lat": "38.700710", "type": "ADM1", "awardID": "00072166", "lon": "48.755510", "precision": "1", "focus_area_descr": "Inclusive Growth"}]}, {"title": "clima east pilot projects on ecosystem-based approaches", "id": "00072191", "subnational": [{"outputID": "00085357", "output_locID": "00085357-1", "name": "Baku", "focus_area": "1", "lat": "40.377670", "type": "PPLC", "awardID": "00072191", "lon": "49.892010", "precision": "1", "focus_area_descr": "Inclusive Growth"}]}, {"title": "modernization of sustainability and efficiency of ict", "id": "00075577", "subnational": [{"outputID": "00087409", "output_locID": "00087409-1", "name": "Qabala Rayon", "focus_area": "3", "lat": "40.916670", "type": "ADM1", "awardID": "00075577", "lon": "47.833330", "precision": "1", "focus_area_descr": "Basic Services"}, {"outputID": "00087409", "output_locID": "00087409-2", "name": "Baku", "focus_area": "3", "lat": "40.377670", "type": "PPLC", "awardID": "00075577", "lon": "49.892010", "precision": "1", "focus_area_descr": "Basic Services"}, {"outputID": "00087409", "output_locID": "00087409-3", "name": "Ganja City", "focus_area": "3", "lat": "40.693700", "type": "ADM1", "awardID": "00075577", "lon": "46.340820", "precision": "1", "focus_area_descr": "Basic Services"}]}, {"title": "nationally appropriate mitigation actions", "id": "00081318", "subnational": [{"outputID": "00090628", "output_locID": "00090628-1", "name": "Baku", "focus_area": "1", "lat": "40.377670", "type": "PPLC", "awardID": "00081318", "lon": "49.892010", "precision": "1", "focus_area_descr": "Inclusive Growth"}]}, {"title": "border management", "id": "00082207", "subnational": [{"outputID": "00091224", "output_locID": "00091224-1", "name": "Qazakh Rayon", "focus_area": "3", "lat": "41.260000", "type": "ADM1", "awardID": "00082207", "lon": "45.090000", "precision": "1", "focus_area_descr": "Basic Services"}]}, {"title": "agrobiodiversity management", "id": "00085294", "subnational": [{"outputID": "00092996", "output_locID": "00092996-1", "name": "Goranboy Rayon", "focus_area": "1", "lat": "40.583330", "type": "ADM1", "awardID": "00085294", "lon": "46.666670", "precision": "1", "focus_area_descr": "Inclusive Growth"}, {"outputID": "00092996", "output_locID": "00092996-2", "name": "Goychay Rayon", "focus_area": "1", "lat": "40.583330", "type": "ADM1", "awardID": "00085294", "lon": "47.833330", "precision": "1", "focus_area_descr": "Inclusive Growth"}, {"outputID": "00092996", "output_locID": "00092996-3", "name": "Shaki City", "focus_area": "1", "lat": "41.183330", "type": "ADM1", "awardID": "00085294", "lon": "47.166670", "precision": "1", "focus_area_descr": "Inclusive Growth"}]}, {"title": "red bridge border development", "id": "00085295", "subnational": [{"outputID": "00092997", "output_locID": "00092997-1", "name": "Tovuz Rayon", "focus_area": "3", "lat": "41.000000", "type": "ADM1", "awardID": "00085295", "lon": "45.750000", "precision": "1", "focus_area_descr": "Basic Services"}]}, {"title": "capacity building of azerbaijan tourism univesity", "id": "00088226", "subnational": [{"outputID": "00094981", "output_locID": "00094981-1", "name": "Baku", "focus_area": "1", "lat": "40.377670", "type": "PPLC", "awardID": "00088226", "lon": "49.892010", "precision": "1", "focus_area_descr": "Inclusive Growth"}]}, {"title": "promoting rural women participation in economic and social life", "id": "00089106", "subnational": [{"outputID": "00095488", "output_locID": "00095488-1", "name": "Sabirabad Rayon", "focus_area": "1", "lat": "39.916670", "type": "ADM1", "awardID": "00089106", "lon": "48.666670", "precision": "1", "focus_area_descr": "Inclusive Growth"}, {"outputID": "00095488", "output_locID": "00095488-2", "name": "Bilasuvar Rayon", "focus_area": "1", "lat": "39.500000", "type": "ADM1", "awardID": "00089106", "lon": "48.416670", "precision": "1", "focus_area_descr": "Inclusive Growth"}, {"outputID": "00095488", "output_locID": "00095488-3", "name": "Neftchala Rayon", "focus_area": "1", "lat": "39.333330", "type": "ADM1", "awardID": "00089106", "lon": "49.000000", "precision": "1", "focus_area_descr": "Inclusive Growth"}]}, {"title": "economic empowerment for entrepreneurship and employment", "id": "00092609", "subnational": [{"outputID": "00097220", "output_locID": "00097220-1", "name": "Masalli", "focus_area": "1", "lat": "39.000000", "type": "ADM1", "awardID": "00092609", "lon": "48.666670", "precision": "1", "focus_area_descr": "Inclusive Growth"}]}, {"title": "enabling civil society to play a greater role in advanci", "id": "00093393", "subnational": [{"outputID": "00097656", "output_locID": "00097656-1", "name": "Shaki Rayon", "focus_area": "1", "lat": "41.083330", "type": "ADM1", "awardID": "00093393", "lon": "47.166670", "precision": "1", "focus_area_descr": "Inclusive Growth"}, {"outputID": "00097656", "output_locID": "00097656-2", "name": "Baku", "focus_area": "1", "lat": "40.377670", "type": "PPLC", "awardID": "00093393", "lon": "49.892010", "precision": "1", "focus_area_descr": "Inclusive Growth"}]}, {"title": "minamata convention accession", "id": "00093873", "subnational": [{"outputID": "00098122", "output_locID": "00098122-1", "name": "Baku", "focus_area": "1", "lat": "40.377670", "type": "PPLC", "awardID": "00093873", "lon": "49.892010", "precision": "1", "focus_area_descr": "Inclusive Growth"}]}, {"title": "promoting youth employment through improved job search s", "id": "00094475", "subnational": [{"outputID": "00098590", "output_locID": "00098590-1", "name": "Masalli", "focus_area": "1", "lat": "39.000000", "type": "ADM1", "awardID": "00094475", "lon": "48.666670", "precision": "1", "focus_area_descr": "Inclusive Growth"}]}, {"title": "development of azerbaijan\u2019s fourth national communicatio", "id": "00094476", "subnational": [{"outputID": "00098591", "output_locID": "00098591-1", "name": "Baku", "focus_area": "1", "lat": "40.377670", "type": "PPLC", "awardID": "00094476", "lon": "49.892010", "precision": "1", "focus_area_descr": "Inclusive Growth"}]}, {"title": "modernizing vocational education and training (vet) cent", "id": "00094479", "subnational": [{"outputID": "00098594", "output_locID": "00098594-1", "name": "Ganja City", "focus_area": "1", "lat": "40.693700", "type": "ADM1", "awardID": "00094479", "lon": "46.340820", "precision": "1", "focus_area_descr": "Inclusive Growth"}, {"outputID": "00106417", "output_locID": "00106417-1", "name": "Lankaran Rayon", "focus_area": "1", "lat": "38.700710", "type": "ADM1", "awardID": "00094479", "lon": "48.755510", "precision": "1", "focus_area_descr": "Inclusive Growth"}]}, {"title": "enhancing mine action programmee in azerbaijan", "id": "00098134", "subnational": [{"outputID": "00101570", "output_locID": "00101570-1", "name": "Baku", "focus_area": "3", "lat": "40.377670", "type": "PPLC", "awardID": "00098134", "lon": "49.892010", "precision": "1", "focus_area_descr": "Basic Services"}]}, {"title": "support to development of small family business in balak", "id": "00102217", "subnational": [{"outputID": "00104350", "output_locID": "00104350-1", "name": "Zaqatala Rayon", "focus_area": "1", "lat": "41.583330", "type": "ADM1", "awardID": "00102217", "lon": "46.666670", "precision": "1", "focus_area_descr": "Inclusive Growth"}, {"outputID": "00104350", "output_locID": "00104350-2", "name": "Oghuz Rayon", "focus_area": "1", "lat": "41.083330", "type": "ADM1", "awardID": "00102217", "lon": "47.500000", "precision": "1", "focus_area_descr": "Inclusive Growth"}, {"outputID": "00104350", "output_locID": "00104350-3", "name": "Shaki Rayon", "focus_area": "1", "lat": "41.083330", "type": "ADM1", "awardID": "00102217", "lon": "47.166670", "precision": "1", "focus_area_descr": "Inclusive Growth"}, {"outputID": "00104350", "output_locID": "00104350-4", "name": "Qabala Rayon", "focus_area": "1", "lat": "40.916670", "type": "ADM1", "awardID": "00102217", "lon": "47.833330", "precision": "1", "focus_area_descr": "Inclusive Growth"}, {"outputID": "00104350", "output_locID": "00104350-5", "name": "Qakh Rayon", "focus_area": "1", "lat": "41.333330", "type": "ADM1", "awardID": "00102217", "lon": "46.750000", "precision": "1", "focus_area_descr": "Inclusive Growth"}, {"outputID": "00104350", "output_locID": "00104350-6", "name": "Balakan Rayon", "focus_area": "1", "lat": "41.750000", "type": "ADM1", "awardID": "00102217", "lon": "46.416670", "precision": "1", "focus_area_descr": "Inclusive Growth"}]}, {"title": "promoting the role of civil society in gender-sensitive", "id": "00108443", "subnational": []}, {"title": "readiness and preparatory support", "id": "00109145", "subnational": []}, {"title": "capacity building for the ministry of foreign affairs", "id": "00037062", "subnational": [{"outputID": "00040512", "output_locID": "00040512-1", "name": "Baku", "focus_area": "3", "lat": "40.377670", "type": "PPLC", "awardID": "00037062", "lon": "49.892010", "precision": "1", "focus_area_descr": "Basic Services"}]}, {"title": "management plan", "id": "00042514", "subnational": [{"outputID": "00049068", "output_locID": "00049068-1", "name": "Baku", "focus_area": "10", "lat": "40.377670", "type": "PPLC", "awardID": "00042514", "lon": "49.892010", "precision": "1", "focus_area_descr": "Organizational Results Area 3"}]}, {"title": "integrating climate change risks into water and flood management by vulnerable mountainous communities in the greater caucasus region", "id": "00062260", "subnational": [{"outputID": "00079670", "output_locID": "00079670-1", "name": "Baku", "focus_area": "1", "lat": "40.377670", "type": "PPLC", "awardID": "00062260", "lon": "49.892010", "precision": "1", "focus_area_descr": "Inclusive Growth"}]}, {"title": "support to the civil service training in the republic of", "id": "00080135", "subnational": [{"outputID": "00089936", "output_locID": "00089936-1", "name": "Baku", "focus_area": "7", "lat": "40.377670", "type": "PPLC", "awardID": "00080135", "lon": "49.892010", "precision": "1", "focus_area_descr": "Thought Leadership"}]}, {"title": "improving staff capacity of the azerbaijan service and a", "id": "00092752", "subnational": [{"outputID": "00097320", "output_locID": "00097320-1", "name": "Baku", "focus_area": "3", "lat": "40.377670", "type": "PPLC", "awardID": "00092752", "lon": "49.892010", "precision": "1", "focus_area_descr": "Basic Services"}]}, {"title": "national biodiversity planning to support the implementa", "id": "00063580", "subnational": [{"outputID": "00080589", "output_locID": "00080589-1", "name": "Baku", "focus_area": "1", "lat": "40.377670", "type": "PPLC", "awardID": "00063580", "lon": "49.892010", "precision": "1", "focus_area_descr": "Inclusive Growth"}]}, {"title": "support to tourism vocational school", "id": "00070392", "subnational": [{"outputID": "00084408", "output_locID": "00084408-1", "name": "Baku", "focus_area": "1", "lat": "40.377670", "type": "PPLC", "awardID": "00070392", "lon": "49.892010", "precision": "1", "focus_area_descr": "Inclusive Growth"}]}, {"title": "creating new platforms to support active youth engagemen", "id": "00079801", "subnational": []}, {"title": "gender assessment women and girls", "id": "00097905", "subnational": []}, {"title": "promoting sustainable energy development", "id": "00060711", "subnational": []}, {"title": "third national communication report to unfccc", "id": "00060785", "subnational": []}, {"title": "promoting innovation and employment in azerbaijan", "id": "00061428", "subnational": []}, {"title": "state register of invalid documents", "id": "00071087", "subnational": []}, {"title": "enhancing the professional and operational capacities of", "id": "00072188", "subnational": []}, {"title": "modernization of customs service in azerbaijan", "id": "00074347", "subnational": []}, {"title": "azerbaijan\u2019s first biennial update report to the unfccc", "id": "00074610", "subnational": []}, {"title": "azerbaijan's nationally determined contributions to the", "id": "00081963", "subnational": []}, {"title": "agrobiodiversity management ppg", "id": "00082711", "subnational": []}, {"title": "human development course", "id": "00060695", "subnational": []}, {"title": "civil service reform iii", "id": "00064506", "subnational": []}, {"title": "youth participation in decision making and policy implem", "id": "00065350", "subnational": []}, {"title": "nationally appropriate mitigation actions (namas)", "id": "00073802", "subnational": []}, {"title": "pension reform", "id": "00011285", "subnational": []}, {"title": "phaseout of ozone depleting substance", "id": "00028014", "subnational": []}, {"title": "phaseout of ozone depleting substance", "id": "00028015", "subnational": []}, {"title": "phaseout of ozone depleting substance", "id": "00028016", "subnational": []}, {"title": "pims 832 iw: fsp caspian environment programme (wb)", "id": "00039436", "subnational": []}, {"title": "solid waste management improvement", "id": "00042114", "subnational": []}, {"title": "integrated border management in the south caucasus", "id": "00058496", "subnational": []}, {"title": "support to tourism development", "id": "00059408", "subnational": []}, {"title": "un global compact and support to entrepreneurship", "id": "00062257", "subnational": []}, {"title": "youth mobilization for rio+20", "id": "00062802", "subnational": []}, {"title": "support to gender research in azerbaijan", "id": "00065653", "subnational": []}, {"title": "internet governance forum, baku 2012", "id": "00066010", "subnational": []}, {"title": "marine ecosystems", "id": "00066182", "subnational": []}, {"title": "southern caucasus integrated boarder management", "id": "00069778", "subnational": []}, {"title": "social protection system", "id": "00011280", "subnational": []}, {"title": "national e-governance network initiative", "id": "00036010", "subnational": []}, {"title": "good governance through civil service reform", "id": "00044982", "subnational": []}, {"title": "strengthening of the mine action capacity in azerbaijan", "id": "00057347", "subnational": []}, {"title": "national human development report azerbaijan 2010", "id": "00058141", "subnational": []}, {"title": "establishment of the state register of population", "id": "00059474", "subnational": []}, {"title": "customs modernization", "id": "00060739", "subnational": []}, {"title": "development effectivness", "id": "00064339", "subnational": []}, {"title": "customs modernization project", "id": "00042932", "subnational": []}, {"title": "developing capacity of the ministry of economic developm", "id": "00058086", "subnational": []}, {"title": "pasture and forest management in greater caucasus", "id": "00061095", "subnational": []}, {"title": "pims 3211 cc ea: snc climate change", "id": "00038551", "subnational": []}, {"title": "water and flood management in the greater caucasus", "id": "00060057", "subnational": []}], "op_unit": "AZE"}