{"iso_num": null, "projects": [{"title": "azerbaijan's nationally determined contributions to the", "id": "00081963", "subnational": []}, {"title": "azerbaijan's first biennial update report to the unfccc", "id": "00074610", "subnational": []}, {"title": "border management", "id": "00082207", "subnational": []}, {"title": "capacity building for the ministry of foreign affairs", "id": "00037062", "subnational": [{"outputID": "00040512", "output_locID": "00040512-1", "name": "Baku Diplomatic mission abroad", "focus_area": "2", "lat": "40.377642", "type": "PPL", "awardID": "00037062", "lon": "49.832482", "precision": "1", "focus_area_descr": "Democratic governance"}]}, {"title": "civil service reform iii", "id": "00064506", "subnational": [{"outputID": "00081281", "output_locID": "00081281-1", "name": "Baku", "focus_area": "2", "lat": "40.3688", "type": "PPLC", "awardID": "00064506", "lon": "49.8211", "precision": "3", "focus_area_descr": "Democratic governance"}]}, {"title": "clima east pilot projects on ecosystem-based approaches", "id": "00072191", "subnational": [{"outputID": "00085357", "output_locID": "00085357-1", "name": "Baku", "focus_area": "4", "lat": "40.3688", "type": "PPLC", "awardID": "00072191", "lon": "49.8211", "precision": "3", "focus_area_descr": "Environment & sustainable development"}]}, {"title": "creating new platforms to support active youth engagemen", "id": "00079801", "subnational": []}, {"title": "effectively managed marine ecosystems", "id": "00072166", "subnational": []}, {"title": "enhancing the professional and operational capacities of", "id": "00072188", "subnational": [{"outputID": "00085355", "output_locID": "00085355-1", "name": "Baku", "focus_area": "2", "lat": "40.3688", "type": "PPLC", "awardID": "00072188", "lon": "49.8211", "precision": "3", "focus_area_descr": "Democratic governance"}]}, {"title": "human development course", "id": "00060695", "subnational": [{"outputID": "00081710", "output_locID": "00081710-1", "name": "Baku", "focus_area": "2", "lat": "40.3688", "type": "PPLC", "awardID": "00060695", "lon": "49.8211", "precision": "3", "focus_area_descr": "Democratic governance"}]}, {"title": "integrated border management in the south caucasus", "id": "00058496", "subnational": [{"outputID": "00072682", "output_locID": "00072682-1", "name": "Gazakh", "focus_area": "1", "lat": "41.095912", "type": "PPL", "awardID": "00058496", "lon": "45.36581", "precision": "1", "focus_area_descr": "Poverty reduction & MDG achievement"}]}, {"title": "modernization of customs service in azerbaijan", "id": "00074347", "subnational": [{"outputID": "00086793", "output_locID": "00086793-1", "name": "Baku", "focus_area": "2", "lat": "40.3688", "type": "PPLC", "awardID": "00074347", "lon": "49.8211", "precision": "3", "focus_area_descr": "Democratic governance"}]}, {"title": "modernization of sustainability and efficiency of ict", "id": "00075577", "subnational": []}, {"title": "national biodiversity planning to support the implementa", "id": "00063580", "subnational": [{"outputID": "00080589", "output_locID": "00080589-1", "name": "Baku", "focus_area": "4", "lat": "40.3688", "type": "PPLC", "awardID": "00063580", "lon": "49.8211", "precision": "3", "focus_area_descr": "Environment & sustainable development"}]}, {"title": "nationally appropriate mitigation actions (namas)", "id": "00073802", "subnational": [{"outputID": "00086449", "output_locID": "00086449-1", "name": "Baku", "focus_area": "4", "lat": "40.3688", "type": "PPLC", "awardID": "00073802", "lon": "49.8211", "precision": "3", "focus_area_descr": "Environment & sustainable development"}]}, {"title": "pims 3929 sccf fsp", "id": "00062260", "subnational": [{"outputID": "00079670", "output_locID": "00079670-1", "name": "Baku", "focus_area": "4", "lat": "40.3688", "type": "PPLC", "awardID": "00062260", "lon": "49.8211", "precision": "3", "focus_area_descr": "Environment & sustainable development"}]}, {"title": "promoting innovation and employment in azerbaijan", "id": "00061428", "subnational": [{"outputID": "00084476", "output_locID": "00084476-1", "name": "Baku", "focus_area": "1", "lat": "40.3688", "type": "PPLC", "awardID": "00061428", "lon": "49.8211", "precision": "3", "focus_area_descr": "Poverty reduction & MDG achievement"}, {"outputID": "00077801", "output_locID": "00077801-1", "name": "Azerbaijan", "focus_area": "-", "lat": "40.3", "type": "PCL", "awardID": "00061428", "lon": "47.3", "precision": "9", "focus_area_descr": "-"}]}, {"title": "promoting sustainable energy development", "id": "00060711", "subnational": [{"outputID": "00076570", "output_locID": "00076570-1", "name": "Baku", "focus_area": "4", "lat": "40.445902", "type": "PPLC", "awardID": "00060711", "lon": "49.866154", "precision": "3", "focus_area_descr": "Environment & sustainable development"}, {"outputID": "00076570", "output_locID": "00076570-2", "name": "Siyezen", "focus_area": "4", "lat": "41.078963", "type": "ADM1", "awardID": "00060711", "lon": "49.113667", "precision": "4", "focus_area_descr": "Environment & sustainable development"}]}, {"title": "rural women participation in economic and social life", "id": "00061827", "subnational": [{"outputID": "00078786", "output_locID": "00078786-1", "name": "Azerbaijan Pedagogical University, Baku", "focus_area": "-", "lat": "40.389819", "type": "PPL", "awardID": "00061827", "lon": "49.835486", "precision": "1", "focus_area_descr": "-"}]}, {"title": "state register of invalid documents", "id": "00071087", "subnational": [{"outputID": "00084774", "output_locID": "00084774-1", "name": "Baku", "focus_area": "2", "lat": "40.3688", "type": "PPLC", "awardID": "00071087", "lon": "49.8211", "precision": "3", "focus_area_descr": "Democratic governance"}]}, {"title": "strengthening and expansion of mine action capacity", "id": "00071956", "subnational": [{"outputID": "00085205", "output_locID": "00085205-1", "name": "Baku", "focus_area": "5", "lat": "40.3688", "type": "PPLC", "awardID": "00071956", "lon": "49.8211", "precision": "3", "focus_area_descr": "South-South"}]}, {"title": "strengthening of the mine action capacity in azerbaijan", "id": "00057347", "subnational": [{"outputID": "00070801", "output_locID": "00070801-1", "name": "Aghstafa", "focus_area": "2", "lat": "41.11984", "type": "ADM1", "awardID": "00057347", "lon": "45.453787", "precision": "4", "focus_area_descr": "Democratic governance"}, {"outputID": "00070801", "output_locID": "00070801-2", "name": "Fizuli", "focus_area": "2", "lat": "39.603837", "type": "ADM1", "awardID": "00057347", "lon": "47.143192", "precision": "4", "focus_area_descr": "Democratic governance"}, {"outputID": "00070801", "output_locID": "00070801-3", "name": "Khanlar", "focus_area": "2", "lat": "41.11984", "type": "ADM1", "awardID": "00057347", "lon": "45.453787", "precision": "4", "focus_area_descr": "Democratic governance"}]}, {"title": "support to the civil service commission under the presid", "id": "00080135", "subnational": []}, {"title": "support to tourism vocational school", "id": "00070392", "subnational": [{"outputID": "00084408", "output_locID": "00084408-1", "name": "Baku", "focus_area": "1", "lat": "40.3688", "type": "PPLC", "awardID": "00070392", "lon": "49.8211", "precision": "3", "focus_area_descr": "Poverty reduction & MDG achievement"}]}, {"title": "sustainable land and forest management in greater caucas", "id": "00063140", "subnational": [{"outputID": "00080444", "output_locID": "00080444-1", "name": "Baku", "focus_area": "4", "lat": "40.3688", "type": "PPLC", "awardID": "00063140", "lon": "49.8211", "precision": "3", "focus_area_descr": "Environment & sustainable development"}]}, {"title": "third national communication report to unfccc", "id": "00060785", "subnational": [{"outputID": "00076682", "output_locID": "00076682-1", "name": "Baku", "focus_area": "4", "lat": "40.444857", "type": "ADM1", "awardID": "00060785", "lon": "49.869003", "precision": "4", "focus_area_descr": "Environment & sustainable development"}]}, {"title": "youth participation in decision making and policy implem", "id": "00065350", "subnational": [{"outputID": "00081887", "output_locID": "00081887-1", "name": "Baku", "focus_area": "2", "lat": "40.3688", "type": "PPLC", "awardID": "00065350", "lon": "49.8211", "precision": "3", "focus_area_descr": "Democratic governance"}]}, {"title": "internet governance forum, baku 2012", "id": "00066010", "subnational": [{"outputID": "00082291", "output_locID": "00082291-1", "name": "Baku", "focus_area": "2", "lat": "40.3688", "type": "PPLC", "awardID": "00066010", "lon": "49.8211", "precision": "3", "focus_area_descr": "Democratic governance"}]}, {"title": "marine ecosystems", "id": "00066182", "subnational": [{"outputID": "00082395", "output_locID": "00082395-1", "name": "Baku", "focus_area": "4", "lat": "40.3688", "type": "PPLC", "awardID": "00066182", "lon": "49.8211", "precision": "3", "focus_area_descr": "Environment & sustainable development"}]}, {"title": "pension reform", "id": "00011285", "subnational": [{"outputID": "00011285", "output_locID": "00011285-1", "name": "Baku", "focus_area": "2", "lat": "40.3688", "type": "PPLC", "awardID": "00011285", "lon": "49.8211", "precision": "3", "focus_area_descr": "Democratic governance"}]}, {"title": "phaseout of ozone depleting substance", "id": "00028014", "subnational": [{"outputID": "00028014", "output_locID": "00028014-1", "name": "Baku", "focus_area": "-", "lat": "40.3688", "type": "PPLC", "awardID": "00028014", "lon": "49.8211", "precision": "3", "focus_area_descr": "-"}]}, {"title": "phaseout of ozone depleting substance", "id": "00028015", "subnational": [{"outputID": "00028015", "output_locID": "00028015-1", "name": "Baku", "focus_area": "-", "lat": "40.3688", "type": "PPLC", "awardID": "00028015", "lon": "49.8211", "precision": "3", "focus_area_descr": "-"}]}, {"title": "phaseout of ozone depleting substance", "id": "00028016", "subnational": [{"outputID": "00028016", "output_locID": "00028016-1", "name": "Baku", "focus_area": "-", "lat": "40.3688", "type": "PPLC", "awardID": "00028016", "lon": "49.8211", "precision": "3", "focus_area_descr": "-"}]}, {"title": "solid waste management improvement", "id": "00042114", "subnational": [{"outputID": "00048205", "output_locID": "00048205-1", "name": "Baku", "focus_area": "4", "lat": "40.3688", "type": "PPLC", "awardID": "00042114", "lon": "49.8211", "precision": "3", "focus_area_descr": "Environment & sustainable development"}, {"outputID": "00048205", "output_locID": "00048205-2", "name": "Ismayilly", "focus_area": "4", "lat": "40.793149", "type": "PPLA", "awardID": "00042114", "lon": "48.151505", "precision": "3", "focus_area_descr": "Environment & sustainable development"}]}, {"title": "southern caucasus integrated boarder management", "id": "00069778", "subnational": [{"outputID": "00084145", "output_locID": "00084145-1", "name": "Baku", "focus_area": "1", "lat": "40.3688", "type": "PPLC", "awardID": "00069778", "lon": "49.8211", "precision": "3", "focus_area_descr": "Poverty reduction & MDG achievement"}]}, {"title": "support to gender research in azerbaijan", "id": "00065653", "subnational": [{"outputID": "00082055", "output_locID": "00082055-1", "name": "Baku", "focus_area": "1", "lat": "40.3688", "type": "PPLC", "awardID": "00065653", "lon": "49.8211", "precision": "3", "focus_area_descr": "Poverty reduction & MDG achievement"}, {"outputID": "00083996", "output_locID": "00083996-1", "name": "Baku", "focus_area": "1", "lat": "40.3688", "type": "PPLC", "awardID": "00065653", "lon": "49.8211", "precision": "3", "focus_area_descr": "Poverty reduction & MDG achievement"}]}, {"title": "support to tourism development", "id": "00059408", "subnational": [{"outputID": "00074282", "output_locID": "00074282-1", "name": "Baku", "focus_area": "1", "lat": "40.3688", "type": "PPLC", "awardID": "00059408", "lon": "49.8211", "precision": "3", "focus_area_descr": "Poverty reduction & MDG achievement"}]}, {"title": "un global compact and support to entrepreneurship", "id": "00062257", "subnational": [{"outputID": "00083823", "output_locID": "00083823-1", "name": "Baku", "focus_area": "1", "lat": "40.3688", "type": "PPLC", "awardID": "00062257", "lon": "49.8211", "precision": "3", "focus_area_descr": "Poverty reduction & MDG achievement"}, {"outputID": "00079667", "output_locID": "00079667-1", "name": "Baku", "focus_area": "-", "lat": "40.384213", "type": "PPLC", "awardID": "00062257", "lon": "49.845314", "precision": "3", "focus_area_descr": "-"}]}, {"title": "youth mobilization for rio+20", "id": "00062802", "subnational": [{"outputID": "00080208", "output_locID": "00080208-1", "name": "Baku", "focus_area": "4", "lat": "40.3688", "type": "PPLC", "awardID": "00062802", "lon": "49.8211", "precision": "3", "focus_area_descr": "Environment & sustainable development"}]}, {"title": "customs modernization", "id": "00060739", "subnational": []}, {"title": "development effectivness", "id": "00064339", "subnational": []}, {"title": "establishment of the state register of population", "id": "00059474", "subnational": []}, {"title": "good governance through civil service reform", "id": "00044982", "subnational": []}, {"title": "national e-governance network initiative", "id": "00036010", "subnational": []}, {"title": "national human development report azerbaijan 2010", "id": "00058141", "subnational": []}, {"title": "social protection system", "id": "00011280", "subnational": [{"outputID": "00011280", "output_locID": "00011280-1", "name": "Baku", "focus_area": "-", "lat": "40.3629", "type": "PPLC", "awardID": "00011280", "lon": "49.8297", "precision": "3", "focus_area_descr": "-"}]}, {"title": "customs modernization project", "id": "00042932", "subnational": []}, {"title": "developing capacity of the ministry of economic developm", "id": "00058086", "subnational": []}, {"title": "pasture and forest management in greater caucasus", "id": "00061095", "subnational": []}, {"title": "pims 3211 cc ea: snc climate change", "id": "00038551", "subnational": []}, {"title": "water and flood management in the greater caucasus", "id": "00060057", "subnational": []}], "op_unit": "AZE"}