{"iso_num":"031","op_unit":"AZE","projects":[{"id":"00074610","subnational":[],"title":"Azerbaijan's First Biennial Update Report to the UNFCCC"},{"id":"00037062","subnational":[{"awardID":"00037062","focus_area":"2","focus_area_descr":"Democratic governance","lat":"40.377642","lon":"49.832482","name":"Baku Diplomatic mission abroad","outputID":"00040512","output_locID":"00040512-1","precision":"1","type":"PPL"}],"title":"Capacity Building for the Ministry of Foreign Affairs"},{"id":"00064506","subnational":[{"awardID":"00064506","focus_area":"2","focus_area_descr":"Democratic governance","lat":"40.3688","lon":"49.8211","name":"Baku","outputID":"00081281","output_locID":"00081281-1","precision":"3","type":"PPLC"}],"title":"Civil Service Reform III"},{"id":"00072191","subnational":[{"awardID":"00072191","focus_area":"4","focus_area_descr":"Environment & sustainable development","lat":"40.3688","lon":"49.8211","name":"Baku","outputID":"00085357","output_locID":"00085357-1","precision":"3","type":"PPLC"}],"title":"Clima East pilot projects on ecosystem-based approaches"},{"id":"00072188","subnational":[{"awardID":"00072188","focus_area":"2","focus_area_descr":"Democratic governance","lat":"40.3688","lon":"49.8211","name":"Baku","outputID":"00085355","output_locID":"00085355-1","precision":"3","type":"PPLC"}],"title":"Enhancing the professional and operational capacities of"},{"id":"00060695","subnational":[{"awardID":"00060695","focus_area":"2","focus_area_descr":"Democratic governance","lat":"40.3688","lon":"49.8211","name":"Baku","outputID":"00081710","output_locID":"00081710-1","precision":"3","type":"PPLC"}],"title":"Human Development Course"},{"id":"00058496","subnational":[{"awardID":"00058496","focus_area":"1","focus_area_descr":"Poverty reduction & MDG achievement","lat":"41.095912","lon":"45.36581","name":"Gazakh","outputID":"00072682","output_locID":"00072682-1","precision":"1","type":"PPL"}],"title":"Integrated Border Management in the South Caucasus"},{"id":"00066010","subnational":[{"awardID":"00066010","focus_area":"2","focus_area_descr":"Democratic governance","lat":"40.3688","lon":"49.8211","name":"Baku","outputID":"00082291","output_locID":"00082291-1","precision":"3","type":"PPLC"}],"title":"Internet Governance Forum, Baku 2012"},{"id":"00066182","subnational":[{"awardID":"00066182","focus_area":"4","focus_area_descr":"Environment & sustainable development","lat":"40.3688","lon":"49.8211","name":"Baku","outputID":"00082395","output_locID":"00082395-1","precision":"3","type":"PPLC"}],"title":"Marine Ecosystems"},{"id":"00074347","subnational":[{"awardID":"00074347","focus_area":"2","focus_area_descr":"Democratic governance","lat":"40.3688","lon":"49.8211","name":"Baku","outputID":"00086793","output_locID":"00086793-1","precision":"3","type":"PPLC"}],"title":"Modernization of Customs Service in Azerbaijan"},{"id":"00075577","subnational":[],"title":"Modernization of Sustainability and Efficiency of ICT in"},{"id":"00063580","subnational":[{"awardID":"00063580","focus_area":"4","focus_area_descr":"Environment & sustainable development","lat":"40.3688","lon":"49.8211","name":"Baku","outputID":"00080589","output_locID":"00080589-1","precision":"3","type":"PPLC"}],"title":"National Biodiversity Planning to Support the implementa"},{"id":"00073802","subnational":[{"awardID":"00073802","focus_area":"4","focus_area_descr":"Environment & sustainable development","lat":"40.3688","lon":"49.8211","name":"Baku","outputID":"00086449","output_locID":"00086449-1","precision":"3","type":"PPLC"}],"title":"Nationally Appropriate Mitigation Actions (NAMAs)"},{"id":"00011285","subnational":[{"awardID":"00011285","focus_area":"2","focus_area_descr":"Democratic governance","lat":"40.3688","lon":"49.8211","name":"Baku","outputID":"00011285","output_locID":"00011285-1","precision":"3","type":"PPLC"}],"title":"Pension Reform"},{"id":"00028014","subnational":[{"awardID":"00028014","focus_area":"-","focus_area_descr":"-","lat":"40.3688","lon":"49.8211","name":"Baku","outputID":"00028014","output_locID":"00028014-1","precision":"3","type":"PPLC"}],"title":"Phaseout of ozone depleting substance"},{"id":"00028015","subnational":[{"awardID":"00028015","focus_area":"-","focus_area_descr":"-","lat":"40.3688","lon":"49.8211","name":"Baku","outputID":"00028015","output_locID":"00028015-1","precision":"3","type":"PPLC"}],"title":"Phaseout of ozone depleting substance"},{"id":"00028016","subnational":[{"awardID":"00028016","focus_area":"-","focus_area_descr":"-","lat":"40.3688","lon":"49.8211","name":"Baku","outputID":"00028016","output_locID":"00028016-1","precision":"3","type":"PPLC"}],"title":"Phaseout of ozone depleting substance"},{"id":"00062260","subnational":[{"awardID":"00062260","focus_area":"4","focus_area_descr":"Environment & sustainable development","lat":"40.3688","lon":"49.8211","name":"Baku","outputID":"00079670","output_locID":"00079670-1","precision":"3","type":"PPLC"}],"title":"PIMS 3929 SCCF FSP"},{"id":"00061428","subnational":[{"awardID":"00061428","focus_area":"1","focus_area_descr":"Poverty reduction & MDG achievement","lat":"40.3688","lon":"49.8211","name":"Baku","outputID":"00084476","output_locID":"00084476-1","precision":"3","type":"PPLC"},{"awardID":"00061428","focus_area":"-","focus_area_descr":"-","lat":"40.3","lon":"47.3","name":"Azerbaijan","outputID":"00077801","output_locID":"00077801-1","precision":"9","type":"PCL"}],"title":"Promoting Innovation and Employment in Azerbaijan"},{"id":"00060711","subnational":[{"awardID":"00060711","focus_area":"4","focus_area_descr":"Environment & sustainable development","lat":"40.445902","lon":"49.866154","name":"Baku","outputID":"00076570","output_locID":"00076570-1","precision":"3","type":"PPLC"},{"awardID":"00060711","focus_area":"4","focus_area_descr":"Environment & sustainable development","lat":"41.078963","lon":"49.113667","name":"Siyezen","outputID":"00076570","output_locID":"00076570-2","precision":"4","type":"ADM1"}],"title":"Promoting Sustainable Energy Development"},{"id":"00061827","subnational":[{"awardID":"00061827","focus_area":"-","focus_area_descr":"-","lat":"40.389819","lon":"49.835486","name":"Azerbaijan Pedagogical University, Baku","outputID":"00078786","output_locID":"00078786-1","precision":"1","type":"PPL"}],"title":"Rural women participation in economic and social life"},{"id":"00042114","subnational":[{"awardID":"00042114","focus_area":"4","focus_area_descr":"Environment & sustainable development","lat":"40.3688","lon":"49.8211","name":"Baku","outputID":"00048205","output_locID":"00048205-1","precision":"3","type":"PPLC"},{"awardID":"00042114","focus_area":"4","focus_area_descr":"Environment & sustainable development","lat":"40.793149","lon":"48.151505","name":"Ismayilly","outputID":"00048205","output_locID":"00048205-2","precision":"3","type":"PPLA"}],"title":"Solid Waste Management Improvement"},{"id":"00069778","subnational":[{"awardID":"00069778","focus_area":"1","focus_area_descr":"Poverty reduction & MDG achievement","lat":"40.3688","lon":"49.8211","name":"Baku","outputID":"00084145","output_locID":"00084145-1","precision":"3","type":"PPLC"}],"title":"Southern Caucasus Integrated Boarder Management"},{"id":"00071087","subnational":[{"awardID":"00071087","focus_area":"2","focus_area_descr":"Democratic governance","lat":"40.3688","lon":"49.8211","name":"Baku","outputID":"00084774","output_locID":"00084774-1","precision":"3","type":"PPLC"}],"title":"State Register of Invalid Documents"},{"id":"00071956","subnational":[{"awardID":"00071956","focus_area":"2","focus_area_descr":"Democratic governance","lat":"40.3688","lon":"49.8211","name":"Baku","outputID":"00085205","output_locID":"00085205-1","precision":"3","type":"PPLC"}],"title":"Strengthening and expansion of mine action capacity"},{"id":"00057347","subnational":[{"awardID":"00057347","focus_area":"2","focus_area_descr":"Democratic governance","lat":"41.11984","lon":"45.453787","name":"Aghstafa","outputID":"00070801","output_locID":"00070801-1","precision":"4","type":"ADM1"},{"awardID":"00057347","focus_area":"2","focus_area_descr":"Democratic governance","lat":"39.603837","lon":"47.143192","name":"Fizuli","outputID":"00070801","output_locID":"00070801-2","precision":"4","type":"ADM1"},{"awardID":"00057347","focus_area":"2","focus_area_descr":"Democratic governance","lat":"41.11984","lon":"45.453787","name":"Khanlar","outputID":"00070801","output_locID":"00070801-3","precision":"4","type":"ADM1"}],"title":"Strengthening of the mine action capacity in Azerbaijan"},{"id":"00065653","subnational":[{"awardID":"00065653","focus_area":"1","focus_area_descr":"Poverty reduction & MDG achievement","lat":"40.3688","lon":"49.8211","name":"Baku","outputID":"00082055","output_locID":"00082055-1","precision":"3","type":"PPLC"},{"awardID":"00065653","focus_area":"1","focus_area_descr":"Poverty reduction & MDG achievement","lat":"40.3688","lon":"49.8211","name":"Baku","outputID":"00083996","output_locID":"00083996-1","precision":"3","type":"PPLC"}],"title":"Support to Gender Research in Azerbaijan"},{"id":"00059408","subnational":[{"awardID":"00059408","focus_area":"1","focus_area_descr":"Poverty reduction & MDG achievement","lat":"40.3688","lon":"49.8211","name":"Baku","outputID":"00074282","output_locID":"00074282-1","precision":"3","type":"PPLC"}],"title":"Support to Tourism Development"},{"id":"00070392","subnational":[{"awardID":"00070392","focus_area":"1","focus_area_descr":"Poverty reduction & MDG achievement","lat":"40.3688","lon":"49.8211","name":"Baku","outputID":"00084408","output_locID":"00084408-1","precision":"3","type":"PPLC"}],"title":"Support to Tourism Vocational School"},{"id":"00063140","subnational":[{"awardID":"00063140","focus_area":"4","focus_area_descr":"Environment & sustainable development","lat":"40.3688","lon":"49.8211","name":"Baku","outputID":"00080444","output_locID":"00080444-1","precision":"3","type":"PPLC"}],"title":"Sustainable Land and Forest Management in Greater Caucas"},{"id":"00060785","subnational":[{"awardID":"00060785","focus_area":"4","focus_area_descr":"Environment & sustainable development","lat":"40.444857","lon":"49.869003","name":"Baku","outputID":"00076682","output_locID":"00076682-1","precision":"4","type":"ADM1"}],"title":"Third National Communication Report to UNFCCC"},{"id":"00062257","subnational":[{"awardID":"00062257","focus_area":"1","focus_area_descr":"Poverty reduction & MDG achievement","lat":"40.3688","lon":"49.8211","name":"Baku","outputID":"00083823","output_locID":"00083823-1","precision":"3","type":"PPLC"},{"awardID":"00062257","focus_area":"-","focus_area_descr":"-","lat":"40.384213","lon":"49.845314","name":"Baku","outputID":"00079667","output_locID":"00079667-1","precision":"3","type":"PPLC"}],"title":"UN Global Compact and Support to Entrepreneurship"},{"id":"00062802","subnational":[{"awardID":"00062802","focus_area":"4","focus_area_descr":"Environment & sustainable development","lat":"40.3688","lon":"49.8211","name":"Baku","outputID":"00080208","output_locID":"00080208-1","precision":"3","type":"PPLC"}],"title":"Youth Mobilization for Rio+20"},{"id":"00065350","subnational":[{"awardID":"00065350","focus_area":"2","focus_area_descr":"Democratic governance","lat":"40.3688","lon":"49.8211","name":"Baku","outputID":"00081887","output_locID":"00081887-1","precision":"3","type":"PPLC"}],"title":"Youth Participation in Decision Making and Policy Implem"},{"id":"00060739","subnational":[],"title":"Customs Modernization"},{"id":"00042932","subnational":[],"title":"Customs Modernization Project"},{"id":"00058086","subnational":[],"title":"Developing Capacity of the Ministry of Economic Developm"},{"id":"00059474","subnational":[],"title":"Establishment of the State Register of Population"},{"id":"00044982","subnational":[],"title":"Good Governance through Civil Service Reform"},{"id":"00036010","subnational":[],"title":"National e-Governance Network Initiative"},{"id":"00058141","subnational":[],"title":"National Human Development Report Azerbaijan 2010"},{"id":"00061095","subnational":[],"title":"Pasture and Forest Management in Greater Caucasus"},{"id":"00038551","subnational":[],"title":"PIMS 3211 CC EA: SNC CLIMATE Change"},{"id":"00011280","subnational":[{"awardID":"00011280","focus_area":"-","focus_area_descr":"-","lat":"40.3629","lon":"49.8297","name":"Baku","outputID":"00011280","output_locID":"00011280-1","precision":"3","type":"PPLC"}],"title":"Social Protection System"},{"id":"00060057","subnational":[],"title":"Water and Flood Management in the Greater Caucasus"},{"id":"00031417","subnational":[],"title":"Partnership Programme on UNDP Business Plan"},{"id":"00060739","subnational":[],"title":"Customs Modernization"},{"id":"00064339","subnational":[],"title":"Development Effectivness"},{"id":"00059474","subnational":[],"title":"Establishment of the State Register of Population"},{"id":"00044982","subnational":[],"title":"Good Governance through Civil Service Reform"},{"id":"00036010","subnational":[],"title":"National e-Governance Network Initiative"},{"id":"00058141","subnational":[],"title":"National Human Development Report Azerbaijan 2010"},{"id":"00011280","subnational":[{"awardID":"00011280","focus_area":"-","focus_area_descr":"-","lat":"40.3629","lon":"49.8297","name":"Baku","outputID":"00011280","output_locID":"00011280-1","precision":"3","type":"PPLC"}],"title":"Social Protection System"}]}