{"iso_num":"031","op_unit":"AZE","projects":[{"id":"00037062","subnational":[{"awardID":"00037062","focus_area":"2","focus_area_descr":"Democratic governance","lat":"40.377642","lon":"49.832482","name":"Baku Diplomatic mission abroad","outputID":"00040512","precision":"1","type":"PPL"}],"title":"Capacity Building for the Ministry of Foreign Affairs"},{"id":"00064506","subnational":[],"title":"Civil Service Reform III"},{"id":"00072191","subnational":[],"title":"Clima East pilot projects on ecosystem-based approaches"},{"id":"00072188","subnational":[],"title":"Enhancing the professional and operational capacities of"},{"id":"00060695","subnational":[],"title":"Human Development Course"},{"id":"00058496","subnational":[{"awardID":"00058496","focus_area":"1","focus_area_descr":"Poverty reduction & MDG achievement","lat":"41.095912","lon":"45.36581","name":"Gazakh","outputID":"00072682","precision":"1","type":"PPL"}],"title":"Integrated Border Management in the South Caucasus"},{"id":"00066010","subnational":[],"title":"Internet Governance Forum, Baku 2012"},{"id":"00066182","subnational":[],"title":"Marine Ecosystems"},{"id":"00074347","subnational":[],"title":"Modernization of Customs Service in Azerbaijan"},{"id":"00063580","subnational":[],"title":"National Biodiversity Planning to Support the implementa"},{"id":"00073802","subnational":[],"title":"Nationally Appropriate Mitigation Actions (NAMAs)"},{"id":"00011285","subnational":[],"title":"Pension Reform"},{"id":"00028014","subnational":[],"title":"Phaseout of ozone depleting substance"},{"id":"00028015","subnational":[],"title":"Phaseout of ozone depleting substance"},{"id":"00028016","subnational":[],"title":"Phaseout of ozone depleting substance"},{"id":"00062260","subnational":[],"title":"PIMS 3929 SCCF FSP"},{"id":"00061428","subnational":[],"title":"Promoting Innovation and Employment in Azerbaijan"},{"id":"00060711","subnational":[{"awardID":"00060711","focus_area":"4","focus_area_descr":"Environment & sustainable development","lat":"40.445902","lon":"49.866154","name":"Baku","outputID":"00076570","precision":"3","type":"PPLC"},{"awardID":"00060711","focus_area":"4","focus_area_descr":"Environment & sustainable development","lat":"41.078963","lon":"49.113667","name":"Siyezen","outputID":"00076570","precision":"4","type":"ADM1"}],"title":"Promoting Sustainable Energy Development"},{"id":"00042114","subnational":[{"awardID":"00042114","focus_area":"4","focus_area_descr":"Environment & sustainable development","lat":"40.3688","lon":"49.8211","name":"Baku","outputID":"00048205","precision":"3","type":"PPLC"},{"awardID":"00042114","focus_area":"4","focus_area_descr":"Environment & sustainable development","lat":"40.793149","lon":"48.151505","name":"Ismayilly","outputID":"00048205","precision":"3","type":"PPLA"}],"title":"Solid Waste Management Improvement"},{"id":"00069778","subnational":[],"title":"Southern Caucasus Integrated Boarder Management"},{"id":"00071087","subnational":[],"title":"State Register of Invalid Documents"},{"id":"00071956","subnational":[],"title":"Strengthening and expansion of mine action capacity"},{"id":"00057347","subnational":[{"awardID":"00057347","focus_area":"2","focus_area_descr":"Democratic governance","lat":"41.11984","lon":"45.453787","name":"Aghstafa","outputID":"00070801","precision":"4","type":"ADM1"},{"awardID":"00057347","focus_area":"2","focus_area_descr":"Democratic governance","lat":"39.603837","lon":"47.143192","name":"Fizuli","outputID":"00070801","precision":"4","type":"ADM1"},{"awardID":"00057347","focus_area":"2","focus_area_descr":"Democratic governance","lat":"41.11984","lon":"45.453787","name":"Khanlar","outputID":"00070801","precision":"4","type":"ADM1"}],"title":"Strengthening of the mine action capacity in Azerbaijan"},{"id":"00065653","subnational":[],"title":"Support to Gender Research in Azerbaijan"},{"id":"00059408","subnational":[],"title":"Support to Tourism Development"},{"id":"00070392","subnational":[],"title":"Support to Tourism Vocational School"},{"id":"00063140","subnational":[],"title":"Sustainable Land and Forest Management in Greater Caucas"},{"id":"00060785","subnational":[{"awardID":"00060785","focus_area":"4","focus_area_descr":"Environment & sustainable development","lat":"40.444857","lon":"49.869003","name":"Baku","outputID":"00076682","precision":"4","type":"ADM1"}],"title":"Third National Communication Report to UNFCCC"},{"id":"00062257","subnational":[],"title":"UN Global Compact and Support to Entrepreneurship"},{"id":"00062802","subnational":[],"title":"Youth Mobilization for Rio+20"},{"id":"00065350","subnational":[],"title":"Youth Participation in Decision Making and Policy Implem"}]}