{"op_unit":"AZE","projects":[{"id":"00011280","subnational":[{"lat":40.3629,"lon":49.8297,"precision":"3","scope":"1","type":"1"}],"title":"Social Protection System"},{"id":"00011285","subnational":[{"lat":40.3629,"lon":49.8297,"precision":"1","scope":"1","type":"1"}],"title":"Pension Reform"},{"id":"00036010","subnational":[{"lat":40.37218,"lon":49.84607,"precision":"1","scope":"1","type":"1"}],"title":"National e-Governance Network Initiative"},{"id":"00037062","subnational":[{"lat":40.377642,"lon":49.832482,"precision":"1","scope":"1","type":"1"}],"title":"Capacity Building for the Ministry of Foreign Affairs"},{"id":"00038551","subnational":[],"title":"PIMS 3211 CC EA: SNC CLIMATE Change"},{"id":"00042114","subnational":[{"lat":40.3688,"lon":49.8211,"precision":"3","scope":"1","type":"1"},{"lat":40.793149,"lon":48.151505,"precision":"3","scope":"3","type":"1"}],"title":"Solid Waste Management Improvement"},{"id":"00042932","subnational":[],"title":"Customs Modernization Project"},{"id":"00044982","subnational":[{"lat":40.371397,"lon":49.816818,"precision":"3","scope":"3","type":"1"},{"lat":40.68278,"lon":46.36056,"precision":"3","scope":"3","type":"1"},{"lat":40.78997,"lon":47.02828,"precision":"3","scope":"3","type":"1"},{"lat":41.80583,"lon":46.39795,"precision":"3","scope":"3","type":"1"}],"title":"Good Governance through Civil Service Reform"},{"id":"00057347","subnational":[{"lat":39.603837,"lon":47.143192,"precision":"4","scope":"3","type":"2"},{"lat":41.11984,"lon":45.453787,"precision":"4","scope":"3","type":"2"},{"lat":41.11984,"lon":45.453787,"precision":"4","scope":"3","type":"2"}],"title":"Strengthening of the mine action capacity in Azerbaijan"},{"id":"00058086","subnational":[],"title":"Developing Capacity of the Ministry of Economic Developm"},{"id":"00058141","subnational":[{"lat":40.366852,"lon":49.829993,"precision":"1","scope":"1","type":"1"},{"lat":40.368226,"lon":49.832268,"precision":"1","scope":"1","type":"1"}],"title":"National Human Development Report Azerbaijan 2010"},{"id":"00058496","subnational":[{"lat":41.095912,"lon":45.36581,"precision":"1","scope":"1","type":"1"}],"title":"Integrated Border Management in the South Caucasus"},{"id":"00059408","subnational":[{"lat":40.3649,"lon":49.8279,"precision":"1","scope":"1","type":"1"}],"title":"Support to Tourism Development"},{"id":"00059474","subnational":[{"lat":38.76158,"lon":48.843155,"precision":"3","scope":"3","type":"1"},{"lat":39.777408,"lon":47.618523,"precision":"3","scope":"3","type":"1"},{"lat":40.374847,"lon":49.818106,"precision":"3","scope":"3","type":"1"},{"lat":40.695737,"lon":46.356812,"precision":"3","scope":"3","type":"1"},{"lat":40.765982,"lon":48.213501,"precision":"3","scope":"3","type":"1"},{"lat":40.775342,"lon":47.05101,"precision":"3","scope":"3","type":"1"},{"lat":41.206556,"lon":47.166367,"precision":"3","scope":"3","type":"1"},{"lat":41.362251,"lon":48.512192,"precision":"3","scope":"3","type":"1"}],"title":"Establishment of the State Register of Population"},{"id":"00060057","subnational":[],"title":"Water and Flood Management in the Greater Caucasus"},{"id":"00060695","subnational":[],"title":"Human Development Course"},{"id":"00060711","subnational":[{"lat":40.445902,"lon":49.866154,"precision":"3","scope":"1","type":"1"},{"lat":41.078963,"lon":49.113667,"precision":"4","scope":"2","type":"1"}],"title":"Promoting Sustainable Energy Development"},{"id":"00060739","subnational":[{"lat":40.584,"lon":49.638,"precision":"1","scope":"1","type":"1"}],"title":"Customs Modernization"},{"id":"00060785","subnational":[{"lat":40.444857,"lon":49.869003,"precision":"4","scope":"2","type":"1"}],"title":"Third National Communication Report to UNFCCC"},{"id":"00061095","subnational":[],"title":"Pasture and Forest Management in Greater Caucasus"},{"id":"00061428","subnational":[],"title":"Promoting Innovation and Employment in Azerbaijan"},{"id":"00061827","subnational":[{"lat":40.389819,"lon":49.835486,"precision":"1","scope":"1","type":"1"}],"title":"Rural women participation in economic and social life"},{"id":"00062257","subnational":[{"lat":40.384213,"lon":49.845314,"precision":"3","scope":"1","type":"1"}],"title":"UN Global Compact and Support to Entrepreneurship"},{"id":"00062260","subnational":[],"title":"PIMS 3929 SCCF FSP"},{"id":"00062802","subnational":[],"title":"Youth Mobilization for Rio+20"},{"id":"00064339","subnational":[],"title":"Development Effectivness"},{"id":"00064506","subnational":[],"title":"Civil Service Reform III"},{"id":"00065350","subnational":[],"title":"Youth Participation in Decision Making and Policy Implem"},{"id":"00065653","subnational":[],"title":"Support to Gender Research in Azerbaijan"},{"id":"00066010","subnational":[],"title":"Internet Governance Forum, Baku 2012"},{"id":"00066182","subnational":[],"title":"Marine Ecosystems"},{"id":"00069778","subnational":[],"title":"Southern Caucasus Integrated Boarder Management"},{"id":"00071087","subnational":[],"title":"State Register of Invalid Documents"},{"id":"00071956","subnational":[],"title":"Strengthening and expansion of mine action capacity"}]}