{"iso_num": null, "projects": [{"title": "programme de reintegration-rehabilitation des sinistres", "id": "00039512", "subnational": [{"outputID": "00069271", "output_locID": "00069271-1", "name": "Bubanza", "focus_area": "1", "lat": "-3.116670", "type": "ADM1", "awardID": "00039512", "lon": "29.400000", "precision": "1", "focus_area_descr": "Inclusive & Sustainable Growth"}, {"outputID": "00069271", "output_locID": "00069271-2", "name": "Cibitoke", "focus_area": "1", "lat": "-2.883330", "type": "ADM1", "awardID": "00039512", "lon": "29.250000", "precision": "1", "focus_area_descr": "Inclusive & Sustainable Growth"}, {"outputID": "00069271", "output_locID": "00069271-3", "name": "Bujumbura Rural", "focus_area": "1", "lat": "-3.462700", "type": "ADM1", "awardID": "00039512", "lon": "29.462590", "precision": "1", "focus_area_descr": "Inclusive & Sustainable Growth"}, {"outputID": "00070400", "output_locID": "00070400-1", "name": "Bubanza", "focus_area": "6", "lat": "-3.116670", "type": "ADM1", "awardID": "00039512", "lon": "29.400000", "precision": "1", "focus_area_descr": "Crisis Prevention & Recovery"}, {"outputID": "00070400", "output_locID": "00070400-2", "name": "Cibitoke", "focus_area": "6", "lat": "-2.883330", "type": "ADM1", "awardID": "00039512", "lon": "29.250000", "precision": "1", "focus_area_descr": "Crisis Prevention & Recovery"}, {"outputID": "00070400", "output_locID": "00070400-3", "name": "Bujumbura Rural", "focus_area": "6", "lat": "-3.462700", "type": "ADM1", "awardID": "00039512", "lon": "29.462590", "precision": "1", "focus_area_descr": "Crisis Prevention & Recovery"}, {"outputID": "00044359", "output_locID": "00044359-1", "name": "Bururi", "focus_area": "-", "lat": "-3.948770", "type": "PPLA", "awardID": "00039512", "lon": "29.624380", "precision": "1", "focus_area_descr": "-"}, {"outputID": "00044359", "output_locID": "00044359-2", "name": "Bujumbura", "focus_area": "-", "lat": "-3.382200", "type": "PPLC", "awardID": "00039512", "lon": "29.364400", "precision": "1", "focus_area_descr": "-"}, {"outputID": "00044359", "output_locID": "00044359-3", "name": "Bubanza Province", "focus_area": "-", "lat": "-3.116670", "type": "ADM1", "awardID": "00039512", "lon": "29.400000", "precision": "1", "focus_area_descr": "-"}, {"outputID": "00044359", "output_locID": "00044359-4", "name": "Cibitoke Province", "focus_area": "-", "lat": "-2.883330", "type": "ADM1", "awardID": "00039512", "lon": "29.250000", "precision": "1", "focus_area_descr": "-"}, {"outputID": "00061525", "output_locID": "00061525-1", "name": "Bururi", "focus_area": "-", "lat": "-3.948770", "type": "PPLA", "awardID": "00039512", "lon": "29.624380", "precision": "1", "focus_area_descr": "-"}, {"outputID": "00061525", "output_locID": "00061525-2", "name": "Bujumbura", "focus_area": "-", "lat": "-3.382200", "type": "PPLC", "awardID": "00039512", "lon": "29.364400", "precision": "1", "focus_area_descr": "-"}, {"outputID": "00061525", "output_locID": "00061525-3", "name": "Bubanza Province", "focus_area": "-", "lat": "-3.116670", "type": "ADM1", "awardID": "00039512", "lon": "29.400000", "precision": "1", "focus_area_descr": "-"}, {"outputID": "00061525", "output_locID": "00061525-4", "name": "Cibitoke Province", "focus_area": "-", "lat": "-2.883330", "type": "ADM1", "awardID": "00039512", "lon": "29.250000", "precision": "1", "focus_area_descr": "-"}]}, {"title": "programme support resident coordinator", "id": "00042902", "subnational": [{"outputID": "00098399", "output_locID": "00098399-1", "name": "Bujumbura", "focus_area": "9", "lat": "-3.382200", "type": "PPLC", "awardID": "00042902", "lon": "29.364400", "precision": "1", "focus_area_descr": "Organizational Results Area 2"}, {"outputID": "00060465", "output_locID": "00060465-1", "name": "Burundi", "focus_area": "16", "lat": "-3.500000", "type": "PCLI", "awardID": "00042902", "lon": "30.000000", "precision": "1", "focus_area_descr": "Organizational Results Area 9"}]}, {"title": "support to aid coordination in burundi", "id": "00050318", "subnational": [{"outputID": "00076954", "output_locID": "00076954-1", "name": "Burundi", "focus_area": "7", "lat": "-3.500000", "type": "PCLI", "awardID": "00050318", "lon": "30.000000", "precision": "1", "focus_area_descr": "Development Impact & Effectiveness"}]}, {"title": "planification strategique", "id": "00059157", "subnational": [{"outputID": "00073893", "output_locID": "00073893-1", "name": "Bujumbura", "focus_area": "7", "lat": "-3.382200", "type": "PPLC", "awardID": "00059157", "lon": "29.364400", "precision": "1", "focus_area_descr": "Development Impact & Effectiveness"}, {"outputID": "00086935", "output_locID": "00086935-1", "name": "Burundi", "focus_area": "1", "lat": "-3.500000", "type": "PCLI", "awardID": "00059157", "lon": "30.000000", "precision": "1", "focus_area_descr": "Inclusive & Sustainable Growth"}, {"outputID": "00077543", "output_locID": "00077543-1", "name": "Burundi", "focus_area": "-", "lat": "-3.500000", "type": "PCLI", "awardID": "00059157", "lon": "30.000000", "precision": "1", "focus_area_descr": "-"}]}, {"title": "enhancing efficiency of burundi s protected areas system", "id": "00060803", "subnational": [{"outputID": "00076705", "output_locID": "00076705-1", "name": "Ruyigi", "focus_area": "1", "lat": "-3.450000", "type": "ADM1", "awardID": "00060803", "lon": "30.316670", "precision": "1", "focus_area_descr": "Inclusive & Sustainable Growth"}, {"outputID": "00076705", "output_locID": "00076705-2", "name": "Cankuzo", "focus_area": "1", "lat": "-3.133330", "type": "ADM1", "awardID": "00060803", "lon": "30.583330", "precision": "1", "focus_area_descr": "Inclusive & Sustainable Growth"}, {"outputID": "00076705", "output_locID": "00076705-3", "name": "Karuzi", "focus_area": "1", "lat": "-3.125000", "type": "ADM1", "awardID": "00060803", "lon": "30.133330", "precision": "1", "focus_area_descr": "Inclusive & Sustainable Growth"}, {"outputID": "00076705", "output_locID": "00076705-4", "name": "Muyinga Province", "focus_area": "1", "lat": "-2.833330", "type": "ADM1", "awardID": "00060803", "lon": "30.333330", "precision": "1", "focus_area_descr": "Inclusive & Sustainable Growth"}]}, {"title": "reintegration communautaire et villages ruraux integres", "id": "00060962", "subnational": [{"outputID": "00076994", "output_locID": "00076994-1", "name": "Makamba", "focus_area": "1", "lat": "-4.134800", "type": "PPLA", "awardID": "00060962", "lon": "29.804000", "precision": "1", "focus_area_descr": "Inclusive & Sustainable Growth"}, {"outputID": "00080002", "output_locID": "00080002-1", "name": "Bubanza", "focus_area": "1", "lat": "-3.080400", "type": "PPLA", "awardID": "00060962", "lon": "29.391000", "precision": "1", "focus_area_descr": "Inclusive & Sustainable Growth"}, {"outputID": "00085026", "output_locID": "00085026-1", "name": "Bujumbura", "focus_area": "1", "lat": "-3.382200", "type": "PPLC", "awardID": "00060962", "lon": "29.364400", "precision": "1", "focus_area_descr": "Inclusive & Sustainable Growth"}]}, {"title": "renforcement de la gouvernance et de l'etat de droit", "id": "00070894", "subnational": [{"outputID": "00084641", "output_locID": "00084641-1", "name": "Burundi", "focus_area": "3", "lat": "-3.500000", "type": "PCLI", "awardID": "00070894", "lon": "30.000000", "precision": "1", "focus_area_descr": "Responsive Institutions"}, {"outputID": "00085591", "output_locID": "00085591-1", "name": "Burundi", "focus_area": "3", "lat": "-3.500000", "type": "PCLI", "awardID": "00070894", "lon": "30.000000", "precision": "1", "focus_area_descr": "Responsive Institutions"}, {"outputID": "00085592", "output_locID": "00085592-1", "name": "Burundi", "focus_area": "2", "lat": "-3.500000", "type": "PCLI", "awardID": "00070894", "lon": "30.000000", "precision": "1", "focus_area_descr": "Democratic Governance"}, {"outputID": "00094764", "output_locID": "00094764-1", "name": "Burundi", "focus_area": "2", "lat": "-3.500000", "type": "PCLI", "awardID": "00070894", "lon": "30.000000", "precision": "1", "focus_area_descr": "Democratic Governance"}]}, {"title": "mise en place programme national de volontariat jeunes", "id": "00074152", "subnational": [{"outputID": "00086684", "output_locID": "00086684-1", "name": "Gitega", "focus_area": "1", "lat": "-3.426400", "type": "PPLA", "awardID": "00074152", "lon": "29.930800", "precision": "1", "focus_area_descr": "Inclusive & Sustainable Growth"}, {"outputID": "00086684", "output_locID": "00086684-2", "name": "Ngozi", "focus_area": "1", "lat": "-2.875000", "type": "ADM1", "awardID": "00074152", "lon": "29.925000", "precision": "1", "focus_area_descr": "Inclusive & Sustainable Growth"}]}, {"title": "appui au cycle electoral 2015", "id": "00077432", "subnational": [{"outputID": "00088206", "output_locID": "00088206-1", "name": "Bujumbura", "focus_area": "2", "lat": "-3.382200", "type": "PPLC", "awardID": "00077432", "lon": "29.364400", "precision": "1", "focus_area_descr": "Democratic Governance"}]}, {"title": "avant-projet r\u00e9duction des risques de catastrophes", "id": "00079532", "subnational": [{"outputID": "00089502", "output_locID": "00089502-1", "name": "Makamba", "focus_area": "1", "lat": "-4.166670", "type": "ADM1", "awardID": "00079532", "lon": "29.752780", "precision": "1", "focus_area_descr": "Inclusive & Sustainable Growth"}, {"outputID": "00089502", "output_locID": "00089502-2", "name": "Bururi", "focus_area": "1", "lat": "-3.850000", "type": "ADM1", "awardID": "00079532", "lon": "29.633330", "precision": "1", "focus_area_descr": "Inclusive & Sustainable Growth"}, {"outputID": "00089502", "output_locID": "00089502-3", "name": "Bubanza", "focus_area": "1", "lat": "-3.116670", "type": "ADM1", "awardID": "00079532", "lon": "29.400000", "precision": "1", "focus_area_descr": "Inclusive & Sustainable Growth"}, {"outputID": "00089502", "output_locID": "00089502-4", "name": "Bujumbura Mairie", "focus_area": "1", "lat": "-3.380200", "type": "ADM1", "awardID": "00079532", "lon": "29.354700", "precision": "1", "focus_area_descr": "Inclusive & Sustainable Growth"}, {"outputID": "00089502", "output_locID": "00089502-5", "name": "Bujumbura Rural", "focus_area": "1", "lat": "-3.462700", "type": "ADM1", "awardID": "00079532", "lon": "29.462590", "precision": "1", "focus_area_descr": "Inclusive & Sustainable Growth"}, {"outputID": "00089502", "output_locID": "00089502-6", "name": "Rumonge", "focus_area": "1", "lat": "-3.964780", "type": "ADM1", "awardID": "00079532", "lon": "29.447650", "precision": "1", "focus_area_descr": "Inclusive & Sustainable Growth"}]}, {"title": "pacte pour le d\u00e9veloppement humain", "id": "00080872", "subnational": [{"outputID": "00090411", "output_locID": "00090411-1", "name": "Makamba", "focus_area": "1", "lat": "-4.166670", "type": "ADM1", "awardID": "00080872", "lon": "29.752780", "precision": "1", "focus_area_descr": "Inclusive & Sustainable Growth"}, {"outputID": "00090411", "output_locID": "00090411-2", "name": "Bujumbura", "focus_area": "1", "lat": "-3.382200", "type": "PPLC", "awardID": "00080872", "lon": "29.364400", "precision": "1", "focus_area_descr": "Inclusive & Sustainable Growth"}, {"outputID": "00090411", "output_locID": "00090411-3", "name": "Rumonge", "focus_area": "1", "lat": "-3.964780", "type": "ADM1", "awardID": "00080872", "lon": "29.447650", "precision": "1", "focus_area_descr": "Inclusive & Sustainable Growth"}]}, {"title": "community based climate change related disaster risk man", "id": "00081297", "subnational": [{"outputID": "00090618", "output_locID": "00090618-1", "name": "Makamba", "focus_area": "1", "lat": "-4.166670", "type": "ADM1", "awardID": "00081297", "lon": "29.752780", "precision": "1", "focus_area_descr": "Inclusive & Sustainable Growth"}, {"outputID": "00090618", "output_locID": "00090618-2", "name": "Kirundo", "focus_area": "1", "lat": "-2.583330", "type": "ADM1", "awardID": "00081297", "lon": "30.166670", "precision": "1", "focus_area_descr": "Inclusive & Sustainable Growth"}, {"outputID": "00090618", "output_locID": "00090618-3", "name": "Bujumbura Rural", "focus_area": "1", "lat": "-3.462700", "type": "ADM1", "awardID": "00081297", "lon": "29.462590", "precision": "1", "focus_area_descr": "Inclusive & Sustainable Growth"}]}, {"title": "opportunit\u00e9s economiques par la promotion de l'artisanat", "id": "00081662", "subnational": [{"outputID": "00090854", "output_locID": "00090854-1", "name": "Bujumbura", "focus_area": "1", "lat": "-3.382200", "type": "PPLC", "awardID": "00081662", "lon": "29.364400", "precision": "1", "focus_area_descr": "Inclusive & Sustainable Growth"}]}, {"title": "plan strat\u00e9gique de bujumbura : vision et mise en oeuvre", "id": "00082179", "subnational": [{"outputID": "00091202", "output_locID": "00091202-1", "name": "Burundi", "focus_area": "3", "lat": "-3.500000", "type": "PCLI", "awardID": "00082179", "lon": "30.000000", "precision": "1", "focus_area_descr": "Responsive Institutions"}]}, {"title": "plan prioritaire de consolidation de la paix 2014-2016", "id": "00084021", "subnational": [{"outputID": "00092223", "output_locID": "00092223-1", "name": "Bujumbura", "focus_area": "2", "lat": "-3.382200", "type": "PPLC", "awardID": "00084021", "lon": "29.364400", "precision": "1", "focus_area_descr": "Democratic Governance"}, {"outputID": "00092384", "output_locID": "00092384-1", "name": "Burundi", "focus_area": "2", "lat": "-3.500000", "type": "PCLI", "awardID": "00084021", "lon": "30.000000", "precision": "1", "focus_area_descr": "Democratic Governance"}]}, {"title": "appui a la consolidation de la paix et la r\u00e9int\u00e9gration", "id": "00088697", "subnational": [{"outputID": "00095235", "output_locID": "00095235-1", "name": "Makamba", "focus_area": "6", "lat": "-4.166670", "type": "ADM1", "awardID": "00088697", "lon": "29.752780", "precision": "1", "focus_area_descr": "Crisis Prevention & Recovery"}, {"outputID": "00095235", "output_locID": "00095235-2", "name": "Bururi", "focus_area": "6", "lat": "-3.850000", "type": "ADM1", "awardID": "00088697", "lon": "29.633330", "precision": "1", "focus_area_descr": "Crisis Prevention & Recovery"}, {"outputID": "00095235", "output_locID": "00095235-3", "name": "Bujumbura", "focus_area": "6", "lat": "-3.382200", "type": "PPLC", "awardID": "00088697", "lon": "29.364400", "precision": "1", "focus_area_descr": "Crisis Prevention & Recovery"}, {"outputID": "00095235", "output_locID": "00095235-4", "name": "Bujumbura", "focus_area": "6", "lat": "-3.382200", "type": "PPLC", "awardID": "00088697", "lon": "29.364400", "precision": "1", "focus_area_descr": "Crisis Prevention & Recovery"}, {"outputID": "00095235", "output_locID": "00095235-5", "name": "Bujumbura", "focus_area": "6", "lat": "-3.382200", "type": "PPLC", "awardID": "00088697", "lon": "29.364400", "precision": "1", "focus_area_descr": "Crisis Prevention & Recovery"}, {"outputID": "00095235", "output_locID": "00095235-6", "name": "Ruyigi", "focus_area": "6", "lat": "-3.450000", "type": "ADM1", "awardID": "00088697", "lon": "30.316670", "precision": "1", "focus_area_descr": "Crisis Prevention & Recovery"}, {"outputID": "00095235", "output_locID": "00095235-7", "name": "Bubanza", "focus_area": "6", "lat": "-3.116670", "type": "ADM1", "awardID": "00088697", "lon": "29.400000", "precision": "1", "focus_area_descr": "Crisis Prevention & Recovery"}, {"outputID": "00095235", "output_locID": "00095235-8", "name": "Cibitoke", "focus_area": "6", "lat": "-2.883330", "type": "ADM1", "awardID": "00088697", "lon": "29.250000", "precision": "1", "focus_area_descr": "Crisis Prevention & Recovery"}, {"outputID": "00095235", "output_locID": "00095235-9", "name": "Rutana", "focus_area": "6", "lat": "-3.866670", "type": "ADM1", "awardID": "00088697", "lon": "30.100000", "precision": "1", "focus_area_descr": "Crisis Prevention & Recovery"}, {"outputID": "00095235", "output_locID": "00095235-10", "name": "Rumonge", "focus_area": "6", "lat": "-3.964780", "type": "ADM1", "awardID": "00088697", "lon": "29.447650", "precision": "1", "focus_area_descr": "Crisis Prevention & Recovery"}]}, {"title": "securite communautaire et cohesion sociale", "id": "00095113", "subnational": [{"outputID": "00099144", "output_locID": "00099144-1", "name": "Bujumbura", "focus_area": "3", "lat": "-3.382200", "type": "PPLC", "awardID": "00095113", "lon": "29.364400", "precision": "1", "focus_area_descr": "Responsive Institutions"}, {"outputID": "00099144", "output_locID": "00099144-2", "name": "Burundi", "focus_area": "3", "lat": "-3.500000", "type": "PCLI", "awardID": "00095113", "lon": "30.000000", "precision": "1", "focus_area_descr": "Responsive Institutions"}]}, {"title": "projet d appui au programme", "id": "00096951", "subnational": [{"outputID": "00100843", "output_locID": "00100843-1", "name": "Bujumbura", "focus_area": "9", "lat": "-3.382200", "type": "PPLC", "awardID": "00096951", "lon": "29.364400", "precision": "1", "focus_area_descr": "Organizational Results Area 2"}]}, {"title": "management plan", "id": "00042773", "subnational": [{"outputID": "00049634", "output_locID": "00049634-1", "name": "Bujumbura", "focus_area": "9", "lat": "-3.382200", "type": "PPLC", "awardID": "00042773", "lon": "29.364400", "precision": "1", "focus_area_descr": "Organizational Results Area 2"}]}, {"title": "support for dialogue", "id": "00049687", "subnational": [{"outputID": "00060801", "output_locID": "00060801-1", "name": "Burundi", "focus_area": "0", "lat": "-3.500000", "type": "PCLI", "awardID": "00049687", "lon": "30.000000", "precision": "1", "focus_area_descr": "SP_NONE_APPLIES"}, {"outputID": "00071014", "output_locID": "00071014-1", "name": "Burundi", "focus_area": "0", "lat": "-3.500000", "type": "PCLI", "awardID": "00049687", "lon": "30.000000", "precision": "1", "focus_area_descr": "SP_NONE_APPLIES"}]}, {"title": "appui a la gouvernance democratique", "id": "00059107", "subnational": [{"outputID": "00073812", "output_locID": "00073812-1", "name": "Burundi", "focus_area": "0", "lat": "-3.500000", "type": "PCLI", "awardID": "00059107", "lon": "30.000000", "precision": "1", "focus_area_descr": "SP_NONE_APPLIES"}, {"outputID": "00077335", "output_locID": "00077335-1", "name": "Burundi", "focus_area": "0", "lat": "-3.500000", "type": "PCLI", "awardID": "00059107", "lon": "30.000000", "precision": "1", "focus_area_descr": "SP_NONE_APPLIES"}]}, {"title": "centre integre des services desnations unies", "id": "00059849", "subnational": [{"outputID": "00074972", "output_locID": "00074972-1", "name": "Bujumbura", "focus_area": "0", "lat": "-3.382200", "type": "PPLC", "awardID": "00059849", "lon": "29.364400", "precision": "1", "focus_area_descr": "SP_NONE_APPLIES"}, {"outputID": "00073597", "output_locID": "00073597-1", "name": "Burundi", "focus_area": "-", "lat": "-3.500000", "type": "PCLI", "awardID": "00059849", "lon": "30.000000", "precision": "1", "focus_area_descr": "-"}]}, {"title": "appui d urgence a la coordination et a la reponse des nu", "id": "00072980", "subnational": [{"outputID": "00085941", "output_locID": "00085941-1", "name": "Bujumbura", "focus_area": "-", "lat": "-3.382200", "type": "PPLC", "awardID": "00072980", "lon": "29.364400", "precision": "1", "focus_area_descr": "-"}, {"outputID": "00089510", "output_locID": "00089510-1", "name": "Bujumbura", "focus_area": "1", "lat": "-3.382200", "type": "PPLC", "awardID": "00072980", "lon": "29.364400", "precision": "1", "focus_area_descr": "Inclusive & Sustainable Growth"}]}, {"title": "justice joint programme", "id": "00046514", "subnational": [{"outputID": "00055466", "output_locID": "00055466-1", "name": "Bujumbura", "focus_area": "0", "lat": "-3.382200", "type": "PPLC", "awardID": "00046514", "lon": "29.364400", "precision": "1", "focus_area_descr": "SP_NONE_APPLIES"}, {"outputID": "00055466", "output_locID": "00055466-2", "name": "Burundi", "focus_area": "0", "lat": "-3.500000", "type": "PCLI", "awardID": "00046514", "lon": "30.000000", "precision": "1", "focus_area_descr": "SP_NONE_APPLIES"}]}, {"title": "biodiversite et gestion durable des terres", "id": "00057554", "subnational": [{"outputID": "00047515", "output_locID": "00047515-1", "name": "Bujumbura", "focus_area": "0", "lat": "-3.382200", "type": "PPLC", "awardID": "00057554", "lon": "29.364400", "precision": "1", "focus_area_descr": "SP_NONE_APPLIES"}, {"outputID": "00047515", "output_locID": "00047515-2", "name": "Burundi", "focus_area": "0", "lat": "-3.500000", "type": "PCLI", "awardID": "00057554", "lon": "30.000000", "precision": "1", "focus_area_descr": "SP_NONE_APPLIES"}]}, {"title": "appui au processus electoral 2010", "id": "00058730", "subnational": [{"outputID": "00073866", "output_locID": "00073866-1", "name": "Burundi", "focus_area": "0", "lat": "-3.500000", "type": "PCLI", "awardID": "00058730", "lon": "30.000000", "precision": "1", "focus_area_descr": "SP_NONE_APPLIES"}, {"outputID": "00073209", "output_locID": "00073209-1", "name": "Burundi", "focus_area": "2", "lat": "-3.500000", "type": "PCLI", "awardID": "00058730", "lon": "30.000000", "precision": "1", "focus_area_descr": "Democratic Governance"}]}, {"title": "climate change impact and disaster risk management in bu", "id": "00070754", "subnational": [{"outputID": "00084589", "output_locID": "00084589-1", "name": "Bujumbura", "focus_area": "1", "lat": "-3.382200", "type": "PPLC", "awardID": "00070754", "lon": "29.364400", "precision": "1", "focus_area_descr": "Inclusive & Sustainable Growth"}, {"outputID": "00084589", "output_locID": "00084589-2", "name": "Burundi", "focus_area": "1", "lat": "-3.500000", "type": "PCLI", "awardID": "00070754", "lon": "30.000000", "precision": "1", "focus_area_descr": "Inclusive & Sustainable Growth"}]}, {"title": "emergency programme burundi", "id": "00043773", "subnational": [{"outputID": "00051189", "output_locID": "00051189-1", "name": "Burundi", "focus_area": "-", "lat": "-3.500000", "type": "PCLI", "awardID": "00043773", "lon": "30.000000", "precision": "1", "focus_area_descr": "-"}]}, {"title": "programme action 2 dans la r\u00e9gion des grands lacs", "id": "00045800", "subnational": [{"outputID": "00054198", "output_locID": "00054198-1", "name": "Burundi", "focus_area": "-", "lat": "-3.500000", "type": "PCLI", "awardID": "00045800", "lon": "30.000000", "precision": "1", "focus_area_descr": "-"}]}, {"title": "technical secretariat - pbf", "id": "00046689", "subnational": [{"outputID": "00055745", "output_locID": "00055745-1", "name": "Burundi", "focus_area": "0", "lat": "-3.500000", "type": "PCLI", "awardID": "00046689", "lon": "30.000000", "precision": "1", "focus_area_descr": "SP_NONE_APPLIES"}]}, {"title": "appui au programme national de lutte contre le vih/sida", "id": "00011342", "subnational": [{"outputID": "00011342", "output_locID": "00011342-1", "name": "Burundi", "focus_area": "-", "lat": "-3.500000", "type": "PCLI", "awardID": "00011342", "lon": "30.000000", "precision": "1", "focus_area_descr": "-"}]}, {"title": "gouvernance d\u00e9mocratique", "id": "00011347", "subnational": []}, {"title": "security sector reform  & small arms joint programme", "id": "00046523", "subnational": [{"outputID": "00055672", "output_locID": "00055672-1", "name": "Burundi", "focus_area": "0", "lat": "-3.500000", "type": "PCLI", "awardID": "00046523", "lon": "30.000000", "precision": "1", "focus_area_descr": "SP_NONE_APPLIES"}, {"outputID": "00057805", "output_locID": "00057805-1", "name": "Burundi", "focus_area": "0", "lat": "-3.500000", "type": "PCLI", "awardID": "00046523", "lon": "30.000000", "precision": "1", "focus_area_descr": "SP_NONE_APPLIES"}, {"outputID": "00062564", "output_locID": "00062564-1", "name": "Burundi", "focus_area": "0", "lat": "-3.500000", "type": "PCLI", "awardID": "00046523", "lon": "30.000000", "precision": "1", "focus_area_descr": "SP_NONE_APPLIES"}]}, {"title": "mise en place d'une commission nationale ind\u00e9pendante dh", "id": "00047079", "subnational": [{"outputID": "00056346", "output_locID": "00056346-1", "name": "Burundi", "focus_area": "0", "lat": "-3.500000", "type": "PCLI", "awardID": "00047079", "lon": "30.000000", "precision": "1", "focus_area_descr": "SP_NONE_APPLIES"}]}, {"title": "changements climatiques", "id": "00025024", "subnational": [{"outputID": "00025024", "output_locID": "00025024-1", "name": "Burundi", "focus_area": "-", "lat": "-3.500000", "type": "PCLI", "awardID": "00025024", "lon": "30.000000", "precision": "1", "focus_area_descr": "-"}]}, {"title": "renforcement des capacit\u00e9s en micro finance", "id": "00031542", "subnational": []}, {"title": "cellule inter-agence de reinsertion", "id": "00035744", "subnational": [{"outputID": "00038541", "output_locID": "00038541-1", "name": "Burundi", "focus_area": "-", "lat": "-3.500000", "type": "PCLI", "awardID": "00035744", "lon": "30.000000", "precision": "1", "focus_area_descr": "-"}]}, {"title": "gouvernance,  croissance durable/omds", "id": "00039994", "subnational": [{"outputID": "00045221", "output_locID": "00045221-1", "name": "Burundi", "focus_area": "-", "lat": "-3.500000", "type": "PCLI", "awardID": "00039994", "lon": "30.000000", "precision": "1", "focus_area_descr": "-"}]}, {"title": "local development", "id": "00046601", "subnational": [{"outputID": "00055587", "output_locID": "00055587-1", "name": "Burundi", "focus_area": "-", "lat": "-3.500000", "type": "PCLI", "awardID": "00046601", "lon": "30.000000", "precision": "1", "focus_area_descr": "-"}]}, {"title": "pr\u00e9vention et gestion des catastrophes naturelles", "id": "00046630", "subnational": [{"outputID": "00060790", "output_locID": "00060790-1", "name": "Burundi", "focus_area": "-", "lat": "-3.500000", "type": "PCLI", "awardID": "00046630", "lon": "30.000000", "precision": "1", "focus_area_descr": "-"}]}, {"title": "peace & governance joint programme", "id": "00046663", "subnational": [{"outputID": "00061704", "output_locID": "00061704-1", "name": "Burundi", "focus_area": "0", "lat": "-3.500000", "type": "PCLI", "awardID": "00046663", "lon": "30.000000", "precision": "1", "focus_area_descr": "SP_NONE_APPLIES"}]}, {"title": "promotion du secteur prive local", "id": "00049336", "subnational": [{"outputID": "00060092", "output_locID": "00060092-1", "name": "Burundi", "focus_area": "0", "lat": "-3.500000", "type": "PCLI", "awardID": "00049336", "lon": "30.000000", "precision": "1", "focus_area_descr": "SP_NONE_APPLIES"}, {"outputID": "00063082", "output_locID": "00063082-1", "name": "Burundi", "focus_area": "0", "lat": "-3.500000", "type": "PCLI", "awardID": "00049336", "lon": "30.000000", "precision": "1", "focus_area_descr": "SP_NONE_APPLIES"}, {"outputID": "00072612", "output_locID": "00072612-1", "name": "Burundi", "focus_area": "0", "lat": "-3.500000", "type": "PCLI", "awardID": "00049336", "lon": "30.000000", "precision": "1", "focus_area_descr": "SP_NONE_APPLIES"}]}, {"title": "support to national reforms for conflict prevention", "id": "00056879", "subnational": [{"outputID": "00069989", "output_locID": "00069989-1", "name": "Burundi", "focus_area": "-", "lat": "-3.500000", "type": "PCLI", "awardID": "00056879", "lon": "30.000000", "precision": "1", "focus_area_descr": "-"}]}, {"title": "construction d'un centre socio-sportif jeunes gatumba", "id": "00061280", "subnational": [{"outputID": "00077592", "output_locID": "00077592-1", "name": "Burundi", "focus_area": "0", "lat": "-3.500000", "type": "PCLI", "awardID": "00061280", "lon": "30.000000", "precision": "1", "focus_area_descr": "SP_NONE_APPLIES"}]}, {"title": "greater elections participation", "id": "00058797", "subnational": []}, {"title": "lutte contre la corruption", "id": "00047384", "subnational": []}, {"title": "mine action", "id": "00045116", "subnational": []}, {"title": "production des fleurs integration commerciale", "id": "00037475", "subnational": []}, {"title": "programme-cadre d'assistance aux communautes", "id": "00025482", "subnational": []}, {"title": "projet d'appui \u00e0 la mission des observateurs de l'ue", "id": "00040300", "subnational": []}, {"title": "sechage des fruits et legumes pour l'exportation", "id": "00037477", "subnational": []}, {"title": "second national communication on climate change unfccc", "id": "00039612", "subnational": []}, {"title": "s\u00e9curit\u00e9 alimentaire & environnement", "id": "00011344", "subnational": []}], "op_unit": "BDI"}