{"iso_num": null, "projects": [{"title": "asia-pacific regional crisis prevention&recovery project", "id": "00048430", "subnational": [{"outputID": "00084327", "output_locID": "00084327-1", "name": "China", "focus_area": "5", "lat": "35.000000", "type": "PCLI", "awardID": "00048430", "lon": "105.000000", "precision": "1", "focus_area_descr": "Climate Change & Disaster Resilience"}, {"outputID": "00060714", "output_locID": "00060714-1", "name": "Thailand", "focus_area": "5", "lat": "15.500000", "type": "PCLI", "awardID": "00048430", "lon": "101.000000", "precision": "1", "focus_area_descr": "Climate Change & Disaster Resilience"}, {"outputID": "00058577", "output_locID": "00058577-1", "name": "Kingdom of Thailand", "focus_area": "5", "lat": "15.500000", "type": "PCLI", "awardID": "00048430", "lon": "101.000000", "precision": "1", "focus_area_descr": "Climate Change & Disaster Resilience"}]}, {"title": "se outreach", "id": "00058993", "subnational": []}, {"title": "un action for cooperation against trafficking in persons", "id": "00079980", "subnational": [{"outputID": "00089843", "output_locID": "00089843-1", "name": "Bangkok", "focus_area": "-", "lat": "13.753980", "type": "PPLC", "awardID": "00079980", "lon": "100.501440", "precision": "1", "focus_area_descr": "-"}, {"outputID": "00089843", "output_locID": "00089843-2", "name": "Nay Pyi Taw", "focus_area": "-", "lat": "19.745000", "type": "PPLC", "awardID": "00079980", "lon": "96.129720", "precision": "1", "focus_area_descr": "-"}]}, {"title": "advancing inclusive and sustainable hd", "id": "00083957", "subnational": [{"outputID": "00092174", "output_locID": "00092174-1", "name": "Port Moresby", "focus_area": "1", "lat": "-9.443140", "type": "PPLC", "awardID": "00083957", "lon": "147.179720", "precision": "1", "focus_area_descr": "Inclusive & Sustainable Growth"}, {"outputID": "00092175", "output_locID": "00092175-1", "name": "Colombo", "focus_area": "5", "lat": "6.931940", "type": "PPLC", "awardID": "00083957", "lon": "79.847780", "precision": "1", "focus_area_descr": "Climate Change & Disaster Resilience"}, {"outputID": "00092175", "output_locID": "00092175-2", "name": "Phnom Penh", "focus_area": "5", "lat": "11.562450", "type": "PPLC", "awardID": "00083957", "lon": "104.916010", "precision": "1", "focus_area_descr": "Climate Change & Disaster Resilience"}, {"outputID": "00092176", "output_locID": "00092176-1", "name": "Kabul", "focus_area": "1", "lat": "34.528130", "type": "PPLC", "awardID": "00083957", "lon": "69.172330", "precision": "1", "focus_area_descr": "Inclusive & Sustainable Growth"}, {"outputID": "00092176", "output_locID": "00092176-2", "name": "Ulan Bator", "focus_area": "1", "lat": "47.907710", "type": "PPLC", "awardID": "00083957", "lon": "106.883240", "precision": "1", "focus_area_descr": "Inclusive & Sustainable Growth"}, {"outputID": "00092177", "output_locID": "00092177-1", "name": "Dhaka", "focus_area": "1", "lat": "23.710400", "type": "PPLC", "awardID": "00083957", "lon": "90.407440", "precision": "1", "focus_area_descr": "Inclusive & Sustainable Growth"}, {"outputID": "00092177", "output_locID": "00092177-2", "name": "Nay Pyi Taw", "focus_area": "1", "lat": "19.745000", "type": "PPLC", "awardID": "00083957", "lon": "96.129720", "precision": "1", "focus_area_descr": "Inclusive & Sustainable Growth"}, {"outputID": "00092187", "output_locID": "00092187-1", "name": "Dhaka", "focus_area": "7", "lat": "23.710400", "type": "PPLC", "awardID": "00083957", "lon": "90.407440", "precision": "1", "focus_area_descr": "Development Impact & Effectiveness"}, {"outputID": "00092187", "output_locID": "00092187-2", "name": "Manila", "focus_area": "7", "lat": "14.604200", "type": "PPLC", "awardID": "00083957", "lon": "120.982200", "precision": "1", "focus_area_descr": "Development Impact & Effectiveness"}, {"outputID": "00092187", "output_locID": "00092187-3", "name": "Kuala Lumpur", "focus_area": "7", "lat": "3.141200", "type": "PPLC", "awardID": "00083957", "lon": "101.686530", "precision": "1", "focus_area_descr": "Development Impact & Effectiveness"}, {"outputID": "00092188", "output_locID": "00092188-1", "name": "New Delhi", "focus_area": "7", "lat": "28.635760", "type": "PPLC", "awardID": "00083957", "lon": "77.224450", "precision": "1", "focus_area_descr": "Development Impact & Effectiveness"}, {"outputID": "00092188", "output_locID": "00092188-2", "name": "Jakarta", "focus_area": "7", "lat": "-6.214620", "type": "PPLC", "awardID": "00083957", "lon": "106.845130", "precision": "1", "focus_area_descr": "Development Impact & Effectiveness"}, {"outputID": "00092188", "output_locID": "00092188-3", "name": "Beijing", "focus_area": "7", "lat": "39.907500", "type": "PPLC", "awardID": "00083957", "lon": "116.397230", "precision": "1", "focus_area_descr": "Development Impact & Effectiveness"}, {"outputID": "00092189", "output_locID": "00092189-1", "name": "Hanoi", "focus_area": "3", "lat": "21.024500", "type": "PPLC", "awardID": "00083957", "lon": "105.841170", "precision": "1", "focus_area_descr": "Responsive Institutions"}, {"outputID": "00092189", "output_locID": "00092189-2", "name": "Bangkok", "focus_area": "3", "lat": "13.753980", "type": "PPLC", "awardID": "00083957", "lon": "100.501440", "precision": "1", "focus_area_descr": "Responsive Institutions"}, {"outputID": "00092189", "output_locID": "00092189-3", "name": "Vientiane", "focus_area": "3", "lat": "17.966670", "type": "PPLC", "awardID": "00083957", "lon": "102.600000", "precision": "1", "focus_area_descr": "Responsive Institutions"}, {"outputID": "00092189", "output_locID": "00092189-4", "name": "Beijing", "focus_area": "3", "lat": "39.907500", "type": "PPLC", "awardID": "00083957", "lon": "116.397230", "precision": "1", "focus_area_descr": "Responsive Institutions"}, {"outputID": "00092189", "output_locID": "00092189-5", "name": "Phnom Penh", "focus_area": "3", "lat": "11.562450", "type": "PPLC", "awardID": "00083957", "lon": "104.916010", "precision": "1", "focus_area_descr": "Responsive Institutions"}, {"outputID": "00092190", "output_locID": "00092190-1", "name": "Thimphu", "focus_area": "2", "lat": "27.466090", "type": "PPLC", "awardID": "00083957", "lon": "89.641910", "precision": "1", "focus_area_descr": "Democratic Governance"}, {"outputID": "00092190", "output_locID": "00092190-2", "name": "Bangkok", "focus_area": "2", "lat": "13.753980", "type": "PPLC", "awardID": "00083957", "lon": "100.501440", "precision": "1", "focus_area_descr": "Democratic Governance"}, {"outputID": "00092190", "output_locID": "00092190-3", "name": "Manila", "focus_area": "2", "lat": "14.604200", "type": "PPLC", "awardID": "00083957", "lon": "120.982200", "precision": "1", "focus_area_descr": "Democratic Governance"}, {"outputID": "00092190", "output_locID": "00092190-4", "name": "Nay Pyi Taw", "focus_area": "2", "lat": "19.745000", "type": "PPLC", "awardID": "00083957", "lon": "96.129720", "precision": "1", "focus_area_descr": "Democratic Governance"}, {"outputID": "00092191", "output_locID": "00092191-1", "name": "Suva", "focus_area": "4", "lat": "-18.141610", "type": "PPLC", "awardID": "00083957", "lon": "178.441490", "precision": "1", "focus_area_descr": "Gender Equality"}, {"outputID": "00092192", "output_locID": "00092192-1", "name": "Kabul", "focus_area": "5", "lat": "34.528130", "type": "PPLC", "awardID": "00083957", "lon": "69.172330", "precision": "1", "focus_area_descr": "Climate Change & Disaster Resilience"}, {"outputID": "00092192", "output_locID": "00092192-2", "name": "Islamabad", "focus_area": "5", "lat": "33.721480", "type": "PPLC", "awardID": "00083957", "lon": "73.043290", "precision": "1", "focus_area_descr": "Climate Change & Disaster Resilience"}, {"outputID": "00092192", "output_locID": "00092192-3", "name": "Colombo", "focus_area": "5", "lat": "6.931940", "type": "PPLC", "awardID": "00083957", "lon": "79.847780", "precision": "1", "focus_area_descr": "Climate Change & Disaster Resilience"}, {"outputID": "00092192", "output_locID": "00092192-4", "name": "Kathmandu", "focus_area": "5", "lat": "27.701690", "type": "PPLC", "awardID": "00083957", "lon": "85.320600", "precision": "1", "focus_area_descr": "Climate Change & Disaster Resilience"}, {"outputID": "00092192", "output_locID": "00092192-5", "name": "Jakarta", "focus_area": "5", "lat": "-6.214620", "type": "PPLC", "awardID": "00083957", "lon": "106.845130", "precision": "1", "focus_area_descr": "Climate Change & Disaster Resilience"}, {"outputID": "00092192", "output_locID": "00092192-6", "name": "Manila", "focus_area": "5", "lat": "14.604200", "type": "PPLC", "awardID": "00083957", "lon": "120.982200", "precision": "1", "focus_area_descr": "Climate Change & Disaster Resilience"}, {"outputID": "00092193", "output_locID": "00092193-1", "name": "Islamabad", "focus_area": "7", "lat": "33.721480", "type": "PPLC", "awardID": "00083957", "lon": "73.043290", "precision": "1", "focus_area_descr": "Development Impact & Effectiveness"}, {"outputID": "00092193", "output_locID": "00092193-2", "name": "Dhaka", "focus_area": "7", "lat": "23.710400", "type": "PPLC", "awardID": "00083957", "lon": "90.407440", "precision": "1", "focus_area_descr": "Development Impact & Effectiveness"}, {"outputID": "00092193", "output_locID": "00092193-3", "name": "Kathmandu", "focus_area": "7", "lat": "27.701690", "type": "PPLC", "awardID": "00083957", "lon": "85.320600", "precision": "1", "focus_area_descr": "Development Impact & Effectiveness"}, {"outputID": "00092193", "output_locID": "00092193-4", "name": "Bangkok", "focus_area": "7", "lat": "13.753980", "type": "PPLC", "awardID": "00083957", "lon": "100.501440", "precision": "1", "focus_area_descr": "Development Impact & Effectiveness"}, {"outputID": "00092193", "output_locID": "00092193-5", "name": "Vientiane", "focus_area": "7", "lat": "17.966670", "type": "PPLC", "awardID": "00083957", "lon": "102.600000", "precision": "1", "focus_area_descr": "Development Impact & Effectiveness"}, {"outputID": "00092193", "output_locID": "00092193-6", "name": "Phnom Penh", "focus_area": "7", "lat": "11.562450", "type": "PPLC", "awardID": "00083957", "lon": "104.916010", "precision": "1", "focus_area_descr": "Development Impact & Effectiveness"}, {"outputID": "00092193", "output_locID": "00092193-7", "name": "Suva", "focus_area": "7", "lat": "-18.141610", "type": "PPLC", "awardID": "00083957", "lon": "178.441490", "precision": "1", "focus_area_descr": "Development Impact & Effectiveness"}, {"outputID": "00092208", "output_locID": "00092208-1", "name": "Islamabad", "focus_area": "3", "lat": "33.721480", "type": "PPLC", "awardID": "00083957", "lon": "73.043290", "precision": "1", "focus_area_descr": "Responsive Institutions"}, {"outputID": "00092208", "output_locID": "00092208-2", "name": "Bangkok", "focus_area": "3", "lat": "13.753980", "type": "PPLC", "awardID": "00083957", "lon": "100.501440", "precision": "1", "focus_area_descr": "Responsive Institutions"}, {"outputID": "00092208", "output_locID": "00092208-3", "name": "Manila", "focus_area": "3", "lat": "14.604200", "type": "PPLC", "awardID": "00083957", "lon": "120.982200", "precision": "1", "focus_area_descr": "Responsive Institutions"}, {"outputID": "00092208", "output_locID": "00092208-4", "name": "Beijing", "focus_area": "3", "lat": "39.907500", "type": "PPLC", "awardID": "00083957", "lon": "116.397230", "precision": "1", "focus_area_descr": "Responsive Institutions"}, {"outputID": "00092221", "output_locID": "00092221-1", "name": "Dhaka", "focus_area": "5", "lat": "23.710400", "type": "PPLC", "awardID": "00083957", "lon": "90.407440", "precision": "1", "focus_area_descr": "Climate Change & Disaster Resilience"}, {"outputID": "00092221", "output_locID": "00092221-2", "name": "Mal\u00e9", "focus_area": "5", "lat": "4.174800", "type": "PPLC", "awardID": "00083957", "lon": "73.508880", "precision": "1", "focus_area_descr": "Climate Change & Disaster Resilience"}, {"outputID": "00103333", "output_locID": "00103333-1", "name": "Hanoi", "focus_area": "3", "lat": "21.024500", "type": "PPLC", "awardID": "00083957", "lon": "105.841170", "precision": "1", "focus_area_descr": "Responsive Institutions"}, {"outputID": "00103333", "output_locID": "00103333-2", "name": "Bangkok", "focus_area": "3", "lat": "13.753980", "type": "PPLC", "awardID": "00083957", "lon": "100.501440", "precision": "1", "focus_area_descr": "Responsive Institutions"}, {"outputID": "00103333", "output_locID": "00103333-3", "name": "Vientiane", "focus_area": "3", "lat": "17.966670", "type": "PPLC", "awardID": "00083957", "lon": "102.600000", "precision": "1", "focus_area_descr": "Responsive Institutions"}, {"outputID": "00103333", "output_locID": "00103333-4", "name": "Beijing", "focus_area": "3", "lat": "39.907500", "type": "PPLC", "awardID": "00083957", "lon": "116.397230", "precision": "1", "focus_area_descr": "Responsive Institutions"}, {"outputID": "00103333", "output_locID": "00103333-5", "name": "Phnom Penh", "focus_area": "3", "lat": "11.562450", "type": "PPLC", "awardID": "00083957", "lon": "104.916010", "precision": "1", "focus_area_descr": "Responsive Institutions"}, {"outputID": "00104711", "output_locID": "00104711-1", "name": "Dhaka", "focus_area": "1", "lat": "23.710400", "type": "PPLC", "awardID": "00083957", "lon": "90.407440", "precision": "1", "focus_area_descr": "Inclusive & Sustainable Growth"}, {"outputID": "00104711", "output_locID": "00104711-2", "name": "Bangkok", "focus_area": "1", "lat": "13.753980", "type": "PPLC", "awardID": "00083957", "lon": "100.501440", "precision": "1", "focus_area_descr": "Inclusive & Sustainable Growth"}, {"outputID": "00104711", "output_locID": "00104711-3", "name": "Jakarta", "focus_area": "1", "lat": "-6.214620", "type": "PPLC", "awardID": "00083957", "lon": "106.845130", "precision": "1", "focus_area_descr": "Inclusive & Sustainable Growth"}, {"outputID": "00104711", "output_locID": "00104711-4", "name": "Phnom Penh", "focus_area": "1", "lat": "11.562450", "type": "PPLC", "awardID": "00083957", "lon": "104.916010", "precision": "1", "focus_area_descr": "Inclusive & Sustainable Growth"}, {"outputID": "00104711", "output_locID": "00104711-5", "name": "Port Vila", "focus_area": "1", "lat": "-17.733810", "type": "PPLC", "awardID": "00083957", "lon": "168.321880", "precision": "1", "focus_area_descr": "Inclusive & Sustainable Growth"}, {"outputID": "00104711", "output_locID": "00104711-6", "name": "Nuku'alofa", "focus_area": "1", "lat": "-21.139380", "type": "PPLC", "awardID": "00083957", "lon": "-175.201800", "precision": "1", "focus_area_descr": "Inclusive & Sustainable Growth"}, {"outputID": "00106597", "output_locID": "00106597-1", "name": "Manila", "focus_area": "1", "lat": "14.604200", "type": "PPLC", "awardID": "00083957", "lon": "120.982200", "precision": "1", "focus_area_descr": "Inclusive & Sustainable Growth"}, {"outputID": "00106597", "output_locID": "00106597-2", "name": "Beijing", "focus_area": "1", "lat": "39.907500", "type": "PPLC", "awardID": "00083957", "lon": "116.397230", "precision": "1", "focus_area_descr": "Inclusive & Sustainable Growth"}]}, {"title": "regional jp gender-based violence prevention", "id": "00085744", "subnational": []}, {"title": "rbap pipeline development fund", "id": "00098310", "subnational": []}, {"title": "unsif_2", "id": "00100885", "subnational": []}, {"title": "hiv, human development & mobility in asia & the pacific", "id": "00048472", "subnational": [{"outputID": "00081766", "output_locID": "00081766-1", "name": "Thailand", "focus_area": "3", "lat": "15.500000", "type": "PCLI", "awardID": "00048472", "lon": "101.000000", "precision": "1", "focus_area_descr": "Responsive Institutions"}, {"outputID": "00058655", "output_locID": "00058655-1", "name": "Kingdom of Thailand", "focus_area": "3", "lat": "15.500000", "type": "PCLI", "awardID": "00048472", "lon": "101.000000", "precision": "1", "focus_area_descr": "Responsive Institutions"}, {"outputID": "00084194", "output_locID": "00084194-1", "name": "Kingdom of Thailand", "focus_area": "3", "lat": "15.500000", "type": "PCLI", "awardID": "00048472", "lon": "101.000000", "precision": "1", "focus_area_descr": "Responsive Institutions"}, {"outputID": "00079200", "output_locID": "00079200-1", "name": "Kingdom of Thailand", "focus_area": "3", "lat": "15.500000", "type": "PCLI", "awardID": "00048472", "lon": "101.000000", "precision": "1", "focus_area_descr": "Responsive Institutions"}, {"outputID": "00071336", "output_locID": "00071336-1", "name": "Kingdom of Thailand", "focus_area": "1", "lat": "15.500000", "type": "PCLI", "awardID": "00048472", "lon": "101.000000", "precision": "1", "focus_area_descr": "Inclusive & Sustainable Growth"}, {"outputID": "00072244", "output_locID": "00072244-1", "name": "Kingdom of Thailand", "focus_area": "3", "lat": "15.500000", "type": "PCLI", "awardID": "00048472", "lon": "101.000000", "precision": "1", "focus_area_descr": "Responsive Institutions"}]}, {"title": "asia regional governance programme; phase ii", "id": "00048517", "subnational": [{"outputID": "00058708", "output_locID": "00058708-1", "name": "Thailand", "focus_area": "3", "lat": "15.500000", "type": "PCLI", "awardID": "00048517", "lon": "101.000000", "precision": "1", "focus_area_descr": "Responsive Institutions"}, {"outputID": "00059061", "output_locID": "00059061-1", "name": "Thailand", "focus_area": "7", "lat": "15.500000", "type": "PCLI", "awardID": "00048517", "lon": "101.000000", "precision": "1", "focus_area_descr": "Development Impact & Effectiveness"}, {"outputID": "00062131", "output_locID": "00062131-1", "name": "Kingdom of Thailand", "focus_area": "3", "lat": "15.500000", "type": "PCLI", "awardID": "00048517", "lon": "101.000000", "precision": "1", "focus_area_descr": "Responsive Institutions"}, {"outputID": "00063381", "output_locID": "00063381-1", "name": "Kingdom of Thailand", "focus_area": "3", "lat": "15.500000", "type": "PCLI", "awardID": "00048517", "lon": "101.000000", "precision": "1", "focus_area_descr": "Responsive Institutions"}, {"outputID": "00062129", "output_locID": "00062129-1", "name": "Kingdom of Thailand", "focus_area": "3", "lat": "15.500000", "type": "PCLI", "awardID": "00048517", "lon": "101.000000", "precision": "1", "focus_area_descr": "Responsive Institutions"}, {"outputID": "00062130", "output_locID": "00062130-1", "name": "Kingdom of Thailand", "focus_area": "2", "lat": "15.500000", "type": "PCLI", "awardID": "00048517", "lon": "101.000000", "precision": "1", "focus_area_descr": "Democratic Governance"}, {"outputID": "00078160", "output_locID": "00078160-1", "name": "Kingdom of Thailand", "focus_area": "3", "lat": "15.500000", "type": "PCLI", "awardID": "00048517", "lon": "101.000000", "precision": "1", "focus_area_descr": "Responsive Institutions"}]}, {"title": "regional climate change, energy, ecosystems project", "id": "00048869", "subnational": [{"outputID": "00059217", "output_locID": "00059217-1", "name": "Thailand", "focus_area": "1", "lat": "15.500000", "type": "PCLI", "awardID": "00048869", "lon": "101.000000", "precision": "1", "focus_area_descr": "Inclusive & Sustainable Growth"}, {"outputID": "00059221", "output_locID": "00059221-1", "name": "Thailand", "focus_area": "1", "lat": "15.500000", "type": "PCLI", "awardID": "00048869", "lon": "101.000000", "precision": "1", "focus_area_descr": "Inclusive & Sustainable Growth"}, {"outputID": "00059215", "output_locID": "00059215-1", "name": "Kingdom of Thailand", "focus_area": "1", "lat": "15.500000", "type": "PCLI", "awardID": "00048869", "lon": "101.000000", "precision": "1", "focus_area_descr": "Inclusive & Sustainable Growth"}, {"outputID": "00059220", "output_locID": "00059220-1", "name": "Kingdom of Thailand", "focus_area": "1", "lat": "15.500000", "type": "PCLI", "awardID": "00048869", "lon": "101.000000", "precision": "1", "focus_area_descr": "Inclusive & Sustainable Growth"}, {"outputID": "00061267", "output_locID": "00061267-1", "name": "Kingdom of Thailand", "focus_area": "1", "lat": "15.500000", "type": "PCLI", "awardID": "00048869", "lon": "101.000000", "precision": "1", "focus_area_descr": "Inclusive & Sustainable Growth"}, {"outputID": "00062429", "output_locID": "00062429-1", "name": "Kingdom of Thailand", "focus_area": "1", "lat": "15.500000", "type": "PCLI", "awardID": "00048869", "lon": "101.000000", "precision": "1", "focus_area_descr": "Inclusive & Sustainable Growth"}]}, {"title": "regional climate risk reduction project in himalayan reg", "id": "00058475", "subnational": [{"outputID": "00072650", "output_locID": "00072650-1", "name": "Thailand", "focus_area": "5", "lat": "15.500000", "type": "PCLI", "awardID": "00058475", "lon": "101.000000", "precision": "1", "focus_area_descr": "Climate Change & Disaster Resilience"}]}, {"title": "aprc un development group for asia pacific", "id": "00065537", "subnational": []}, {"title": "msa-910-g02-h gf regional msm programme phase2", "id": "00077902", "subnational": []}, {"title": "strengthening governance of extractive industries for su", "id": "00082206", "subnational": []}, {"title": "unsif-the united nations social impact fund", "id": "00097996", "subnational": [{"outputID": "00101500", "output_locID": "00101500-1", "name": "Bangkok", "focus_area": "7", "lat": "13.753980", "type": "PPLC", "awardID": "00097996", "lon": "100.501440", "precision": "1", "focus_area_descr": "Development Impact & Effectiveness"}]}, {"title": "reg. initiative on hdr in asia and the pacific -phase ii", "id": "00048473", "subnational": [{"outputID": "00058656", "output_locID": "00058656-1", "name": "Kingdom of Thailand", "focus_area": "7", "lat": "15.500000", "type": "PCLI", "awardID": "00048473", "lon": "101.000000", "precision": "1", "focus_area_descr": "Development Impact & Effectiveness"}]}, {"title": "gender programme", "id": "00048474", "subnational": [{"outputID": "00058657", "output_locID": "00058657-1", "name": "Kingdom of Thailand", "focus_area": "4", "lat": "15.500000", "type": "PCLI", "awardID": "00048474", "lon": "101.000000", "precision": "1", "focus_area_descr": "Gender Equality"}]}, {"title": "partners for prevention: gender-based violence", "id": "00050568", "subnational": [{"outputID": "00062541", "output_locID": "00062541-1", "name": "Kingdom of Thailand", "focus_area": "4", "lat": "15.500000", "type": "PCLI", "awardID": "00050568", "lon": "101.000000", "precision": "1", "focus_area_descr": "Gender Equality"}]}, {"title": "inclusive growth and poverty reduction", "id": "00061859", "subnational": [{"outputID": "00078866", "output_locID": "00078866-1", "name": "Kingdom of Thailand", "focus_area": "7", "lat": "15.500000", "type": "PCLI", "awardID": "00061859", "lon": "101.000000", "precision": "1", "focus_area_descr": "Development Impact & Effectiveness"}, {"outputID": "00080018", "output_locID": "00080018-1", "name": "Kingdom of Thailand", "focus_area": "1", "lat": "15.500000", "type": "PCLI", "awardID": "00061859", "lon": "101.000000", "precision": "1", "focus_area_descr": "Inclusive & Sustainable Growth"}, {"outputID": "00080020", "output_locID": "00080020-1", "name": "Kingdom of Thailand", "focus_area": "1", "lat": "15.500000", "type": "PCLI", "awardID": "00061859", "lon": "101.000000", "precision": "1", "focus_area_descr": "Inclusive & Sustainable Growth"}, {"outputID": "00080021", "output_locID": "00080021-1", "name": "Kingdom of Thailand", "focus_area": "-", "lat": "15.500000", "type": "PCLI", "awardID": "00061859", "lon": "101.000000", "precision": "1", "focus_area_descr": "-"}]}, {"title": "reg. initiative on indigenous peoples\u2019 rights & developm", "id": "00048538", "subnational": [{"outputID": "00058739", "output_locID": "00058739-1", "name": "Kingdom of Thailand", "focus_area": "2", "lat": "15.500000", "type": "PCLI", "awardID": "00048538", "lon": "101.000000", "precision": "1", "focus_area_descr": "Democratic Governance"}, {"outputID": "00058742", "output_locID": "00058742-1", "name": "Kingdom of Thailand", "focus_area": "2", "lat": "15.500000", "type": "PCLI", "awardID": "00048538", "lon": "101.000000", "precision": "1", "focus_area_descr": "Democratic Governance"}]}, {"title": "n-peace engage for peace, equality, access, community", "id": "00075714", "subnational": [{"outputID": "00087478", "output_locID": "00087478-1", "name": "Kingdom of Thailand", "focus_area": "5", "lat": "15.500000", "type": "PCLI", "awardID": "00075714", "lon": "101.000000", "precision": "1", "focus_area_descr": "Climate Change & Disaster Resilience"}]}, {"title": "capacity 2015 regional environmental governanceprogramme", "id": "00044409", "subnational": [{"outputID": "00052209", "output_locID": "00052209-1", "name": "Kingdom of Thailand", "focus_area": "-", "lat": "15.500000", "type": "PCLI", "awardID": "00044409", "lon": "101.000000", "precision": "1", "focus_area_descr": "-"}]}, {"title": "millennium development goals initiative for asia pacific", "id": "00048471", "subnational": [{"outputID": "00058654", "output_locID": "00058654-1", "name": "Kingdom of Thailand", "focus_area": "-", "lat": "15.500000", "type": "PCLI", "awardID": "00048471", "lon": "101.000000", "precision": "1", "focus_area_descr": "-"}]}], "op_unit": "BRC"}