{"iso_num": null, "projects": [{"title": "changements climatiques", "id": "00045154", "subnational": [{"outputID": "00053282", "output_locID": "00053282-1", "name": "Brazzaville", "focus_area": "1", "lat": "-4.266130", "type": "PPLC", "awardID": "00045154", "lon": "15.283180", "precision": "1", "focus_area_descr": "Inclusive Growth"}, {"outputID": "00074655", "output_locID": "00074655-1", "name": "Brazzaville", "focus_area": "1", "lat": "-4.266130", "type": "PPLC", "awardID": "00045154", "lon": "15.283180", "precision": "1", "focus_area_descr": "Inclusive Growth"}, {"outputID": "00074672", "output_locID": "00074672-1", "name": "Brazzaville", "focus_area": "1", "lat": "-4.266130", "type": "PPLC", "awardID": "00045154", "lon": "15.283180", "precision": "1", "focus_area_descr": "Inclusive Growth"}, {"outputID": "00086986", "output_locID": "00086986-1", "name": "Brazzaville", "focus_area": "1", "lat": "-4.266130", "type": "PPLC", "awardID": "00045154", "lon": "15.283180", "precision": "1", "focus_area_descr": "Inclusive Growth"}, {"outputID": "00084263", "output_locID": "00084263-1", "name": "Brazzaville", "focus_area": "1", "lat": "-4.266130", "type": "PPLC", "awardID": "00045154", "lon": "15.283180", "precision": "1", "focus_area_descr": "Inclusive Growth"}, {"outputID": "00089214", "output_locID": "00089214-1", "name": "Brazzaville", "focus_area": "1", "lat": "-4.266130", "type": "PPLC", "awardID": "00045154", "lon": "15.283180", "precision": "1", "focus_area_descr": "Inclusive Growth"}, {"outputID": "00099473", "output_locID": "00099473-1", "name": "Brazzaville", "focus_area": "1", "lat": "-4.266130", "type": "PPLC", "awardID": "00045154", "lon": "15.283180", "precision": "1", "focus_area_descr": "Inclusive Growth"}]}, {"title": "reintegration and community development unit", "id": "00050032", "subnational": [{"outputID": "00061563", "output_locID": "00061563-1", "name": "Pool", "focus_area": "4", "lat": "-3.533330", "type": "ADM1", "awardID": "00050032", "lon": "14.833330", "precision": "1", "focus_area_descr": "Gender Equality"}, {"outputID": "00080908", "output_locID": "00080908-1", "name": "Brazzaville", "focus_area": "1", "lat": "-4.266130", "type": "PPLC", "awardID": "00050032", "lon": "15.283180", "precision": "1", "focus_area_descr": "Inclusive Growth"}]}, {"title": "politiques et strat\u00e9gies sur le d\u00e9veloppement", "id": "00057635", "subnational": [{"outputID": "00071300", "output_locID": "00071300-1", "name": "Brazzaville", "focus_area": "1", "lat": "-4.266130", "type": "PPLC", "awardID": "00057635", "lon": "15.283180", "precision": "1", "focus_area_descr": "Inclusive Growth"}]}, {"title": "gouvernance d\u00e9mocratique", "id": "00059455", "subnational": [{"outputID": "00074344", "output_locID": "00074344-1", "name": "Brazzaville", "focus_area": "3", "lat": "-4.266130", "type": "PPLC", "awardID": "00059455", "lon": "15.283180", "precision": "1", "focus_area_descr": "Basic Services"}, {"outputID": "00074987", "output_locID": "00074987-1", "name": "Brazzaville", "focus_area": "3", "lat": "-4.266130", "type": "PPLC", "awardID": "00059455", "lon": "15.283180", "precision": "1", "focus_area_descr": "Basic Services"}, {"outputID": "00077415", "output_locID": "00077415-1", "name": "Brazzaville", "focus_area": "2", "lat": "-4.266130", "type": "PPLC", "awardID": "00059455", "lon": "15.283180", "precision": "1", "focus_area_descr": "Democratic Governance"}, {"outputID": "00094426", "output_locID": "00094426-1", "name": "Brazzaville", "focus_area": "1", "lat": "-4.266130", "type": "PPLC", "awardID": "00059455", "lon": "15.283180", "precision": "1", "focus_area_descr": "Inclusive Growth"}, {"outputID": "00094464", "output_locID": "00094464-1", "name": "Brazzaville", "focus_area": "1", "lat": "-4.266130", "type": "PPLC", "awardID": "00059455", "lon": "15.283180", "precision": "1", "focus_area_descr": "Inclusive Growth"}, {"outputID": "00101028", "output_locID": "00101028-1", "name": "Brazzaville", "focus_area": "2", "lat": "-4.266130", "type": "PPLC", "awardID": "00059455", "lon": "15.283180", "precision": "1", "focus_area_descr": "Democratic Governance"}, {"outputID": "00101028", "output_locID": "00101028-2", "name": "Brazzaville", "focus_area": "2", "lat": "-4.266130", "type": "PPLC", "awardID": "00059455", "lon": "15.283180", "precision": "1", "focus_area_descr": "Democratic Governance"}]}, {"title": "catalisation de la gestion durable des for\u00eats sur le site des zones humides transfrontali\u00e8res des lacs t\u00e9l\u00e9 et tumba.", "id": "00061704", "subnational": [{"outputID": "00078435", "output_locID": "00078435-1", "name": "Likouala", "focus_area": "1", "lat": "2.000000", "type": "ADM1", "awardID": "00061704", "lon": "17.500000", "precision": "1", "focus_area_descr": "Inclusive Growth"}, {"outputID": "00078435", "output_locID": "00078435-2", "name": "Mbandaka", "focus_area": "1", "lat": "-0.094200", "type": "ADM3", "awardID": "00061704", "lon": "18.277570", "precision": "1", "focus_area_descr": "Inclusive Growth"}]}, {"title": "genre-ledership f\u00e9minin et vih-sida", "id": "00071622", "subnational": [{"outputID": "00084978", "output_locID": "00084978-1", "name": "Brazzaville", "focus_area": "2", "lat": "-4.266130", "type": "PPLC", "awardID": "00071622", "lon": "15.283180", "precision": "1", "focus_area_descr": "Democratic Governance"}]}, {"title": "autonomisat\u00b0 et emploi jeunes", "id": "00092456", "subnational": [{"outputID": "00097157", "output_locID": "00097157-1", "name": "Brazzaville", "focus_area": "1", "lat": "-4.266130", "type": "PPLC", "awardID": "00092456", "lon": "15.283180", "precision": "1", "focus_area_descr": "Inclusive Growth"}, {"outputID": "00097157", "output_locID": "00097157-2", "name": "Owando", "focus_area": "1", "lat": "-0.665000", "type": "ADM2", "awardID": "00092456", "lon": "15.974000", "precision": "1", "focus_area_descr": "Inclusive Growth"}, {"outputID": "00097157", "output_locID": "00097157-3", "name": "Pointe-Noire", "focus_area": "1", "lat": "-4.624000", "type": "ADM2", "awardID": "00092456", "lon": "12.004000", "precision": "1", "focus_area_descr": "Inclusive Growth"}]}, {"title": "pims 5612-integrated and transboundary", "id": "00092643", "subnational": [{"outputID": "00097266", "output_locID": "00097266-1", "name": "Brazzaville", "focus_area": "1", "lat": "-4.266130", "type": "PPLC", "awardID": "00092643", "lon": "15.283180", "precision": "1", "focus_area_descr": "Inclusive Growth"}]}, {"title": "pims 4685 micro hydro congo", "id": "00096048", "subnational": [{"outputID": "00100063", "output_locID": "00100063-1", "name": "Brazzaville", "focus_area": "5", "lat": "-4.266130", "type": "PPLC", "awardID": "00096048", "lon": "15.283180", "precision": "1", "focus_area_descr": "Risk Reduction"}]}, {"title": "projet d'appui au pgme ddr au congo", "id": "00098115", "subnational": [{"outputID": "00101565", "output_locID": "00101565-1", "name": "Pool", "focus_area": "1", "lat": "-3.533330", "type": "ADM1", "awardID": "00098115", "lon": "14.833330", "precision": "1", "focus_area_descr": "Inclusive Growth"}]}, {"title": "pims 5986-fonds vert pour le climat congo", "id": "00099761", "subnational": [{"outputID": "00103028", "output_locID": "00103028-1", "name": "Plateaux", "focus_area": "1", "lat": "-2.000000", "type": "ADM1", "awardID": "00099761", "lon": "15.500000", "precision": "1", "focus_area_descr": "Inclusive Growth"}, {"outputID": "00103028", "output_locID": "00103028-2", "name": "Brazzaville", "focus_area": "1", "lat": "-4.266130", "type": "PPLC", "awardID": "00099761", "lon": "15.283180", "precision": "1", "focus_area_descr": "Inclusive Growth"}, {"outputID": "00103028", "output_locID": "00103028-3", "name": "Cuvette-Ouest", "focus_area": "1", "lat": "0.000000", "type": "ADM1", "awardID": "00099761", "lon": "14.500000", "precision": "1", "focus_area_descr": "Inclusive Growth"}]}, {"title": "d\u00e9veloppement local", "id": "00040729", "subnational": [{"outputID": "00074664", "output_locID": "00074664-1", "name": "Cuvette", "focus_area": "1", "lat": "-0.500000", "type": "ADM1", "awardID": "00040729", "lon": "16.000000", "precision": "1", "focus_area_descr": "Inclusive Growth"}, {"outputID": "00074664", "output_locID": "00074664-2", "name": "Brazzaville", "focus_area": "1", "lat": "-4.266130", "type": "PPLC", "awardID": "00040729", "lon": "15.283180", "precision": "1", "focus_area_descr": "Inclusive Growth"}, {"outputID": "00074665", "output_locID": "00074665-1", "name": "Brazzaville", "focus_area": "3", "lat": "-4.266130", "type": "PPLC", "awardID": "00040729", "lon": "15.283180", "precision": "1", "focus_area_descr": "Basic Services"}, {"outputID": "00074665", "output_locID": "00074665-2", "name": "R\u00e9gion de la Bouenza", "focus_area": "3", "lat": "-4.162900", "type": "ADM1", "awardID": "00040729", "lon": "13.710940", "precision": "1", "focus_area_descr": "Basic Services"}]}, {"title": "fida - appui au projet", "id": "00065230", "subnational": [{"outputID": "00081827", "output_locID": "00081827-1", "name": "Brazzaville", "focus_area": "1", "lat": "-4.266130", "type": "PPLC", "awardID": "00065230", "lon": "15.283180", "precision": "1", "focus_area_descr": "Inclusive Growth"}]}, {"title": "pims 5612-integrated and transboundary", "id": "00090313", "subnational": [{"outputID": "00096140", "output_locID": "00096140-1", "name": "Likouala", "focus_area": "5", "lat": "2.000000", "type": "ADM1", "awardID": "00090313", "lon": "17.500000", "precision": "1", "focus_area_descr": "Risk Reduction"}]}, {"title": "r\u00e9ponse \u00e0 la situat\u00b0 humanitaire pool", "id": "00100380", "subnational": [{"outputID": "00103365", "output_locID": "00103365-1", "name": "Pool", "focus_area": "1", "lat": "-3.533330", "type": "ADM1", "awardID": "00100380", "lon": "14.833330", "precision": "1", "focus_area_descr": "Inclusive Growth"}]}, {"title": "pr\u00e9vention du vih/sida chez les femmes et les filles", "id": "00047495", "subnational": [{"outputID": "00057085", "output_locID": "00057085-1", "name": "Brazzaville", "focus_area": "1", "lat": "-4.266130", "type": "PPLC", "awardID": "00047495", "lon": "15.283180", "precision": "1", "focus_area_descr": "Inclusive Growth"}]}, {"title": "pims 4685 micro hydro congo", "id": "00079111", "subnational": [{"outputID": "00089213", "output_locID": "00089213-1", "name": "Plateaux", "focus_area": "5", "lat": "-2.000000", "type": "ADM1", "awardID": "00079111", "lon": "15.500000", "precision": "1", "focus_area_descr": "Risk Reduction"}, {"outputID": "00089213", "output_locID": "00089213-2", "name": "R\u00e9gion du Kouilou", "focus_area": "5", "lat": "-4.195770", "type": "ADM1", "awardID": "00079111", "lon": "11.999820", "precision": "1", "focus_area_descr": "Risk Reduction"}]}, {"title": "collecte et destruction des armes pour le d\u00e9veloppement", "id": "00036198", "subnational": []}, {"title": "youth at risk/jeunesse \u00e0 risque", "id": "00039072", "subnational": []}, {"title": "projet d'appui r\u00e9insertion socio-eco groupes d\u00e9favoris\u00e9s", "id": "00046774", "subnational": []}, {"title": "capacit\u00e9 de planification, contr\u00f4le, suivi & evaluation", "id": "00059100", "subnational": []}, {"title": "action communautaire", "id": "00014518", "subnational": []}, {"title": "lutte contre pauvrete", "id": "00014530", "subnational": []}, {"title": "purac", "id": "00014535", "subnational": []}, {"title": "programme vih/sida", "id": "00039984", "subnational": []}, {"title": "collecte et destruction des armes pour le developpemt ii", "id": "00044871", "subnational": []}, {"title": "pacdip", "id": "00049057", "subnational": []}, {"title": "tf sida agricultural road repairs", "id": "00014533", "subnational": []}, {"title": "pims 2618 mfa ea: ncsa congo", "id": "00039073", "subnational": []}, {"title": "mise en \u0153uvre pgf: prgme centralis\u00e9 r\u00e9cup&recyl cfc-12", "id": "00040649", "subnational": []}, {"title": "projet d'appui aux initiatives d'urgence pour le d\u00e9velop", "id": "00047825", "subnational": []}, {"title": "diversite biologique", "id": "00036232", "subnational": []}, {"title": "assitance pr\u00e9paratoire armes contre d\u00e9veloppement", "id": "00040057", "subnational": []}, {"title": "appui au cadre de coop\u00e9ration et \u00e0 l'ex\u00e9cution nationale", "id": "00034024", "subnational": []}, {"title": "appui aux institutions parlementaires", "id": "00014522", "subnational": []}, {"title": "cedap", "id": "00047549", "subnational": []}, {"title": "programme de gouvernance de la republique du congo", "id": "00039729", "subnational": []}], "op_unit": "COG"}