{"iso_num":"174","op_unit":"COM","projects":[{"id":"00059370","subnational":[{"awardID":"00059370","lat":"-12.25","lon":"44.41667","name":"Anjouan","precision":"4","type":"ADM1"},{"awardID":"00059370","lat":"-11.70216","lon":"43.25506","name":"Grande Comore","precision":"3","type":"PPLC"},{"awardID":"00059370","lat":"-12.34268","lon":"43.73623","name":"Moheli","precision":"4","type":"ADM1"}],"title":"Appui \u00e0 la d\u00e9centralisation en Union des Comores"},{"id":"00066735","subnational":[],"title":"Appui aux sinistr\u00e9s des innondations d'avril 2012"},{"id":"00061239","subnational":[{"awardID":"00061239","lat":"-12.23333","lon":"44.44553","name":"Comoros","precision":"9","type":"PCL"}],"title":"ASSISTANCE MISE EN \u0152UVRE DU CADRE INTEGRE RENFORCE"},{"id":"00041774","subnational":[{"awardID":"00041774","lat":"-12.25694","lon":"44.53194","name":"Domoni","precision":"3","type":"PPL"}],"title":"Centre de formation handicap\u00e9s"},{"id":"00062620","subnational":[{"awardID":"00062620","lat":"-12.23333","lon":"44.44553","name":"Comoros","precision":"9","type":"PCL"}],"title":"Change Management Fonds Unique"},{"id":"00059373","subnational":[{"awardID":"00059373","lat":"-12.23333","lon":"44.44553","name":"Comoros","precision":"9","type":"PCL"}],"title":"Coh\u00e9sion sociale"},{"id":"00046040","subnational":[{"awardID":"00046040","lat":"-12.23333","lon":"44.44553","name":"Comoros","precision":"9","type":"PCL"}],"title":"COORDINATION BUDGET"},{"id":"00034225","subnational":[{"awardID":"00034225","lat":"-11.76028","lon":"43.35306","name":"Karthala","precision":"4","type":"RES"},{"awardID":"00034225","lat":"-12.2033","lon":"43.441","name":"Moheli Marine Park","precision":"4","type":"RES"}],"title":"Dev. des capacit\u00e9s OCBs et Prom. du Volontariat OMD"},{"id":"00047284","subnational":[],"title":"Development Support Services (DSS)"},{"id":"00051255","subnational":[{"awardID":"00051255","lat":"-12.23333","lon":"44.44553","name":"Comoros","precision":"9","type":"PCL"}],"title":"D\u00e9veloppement des capacit\u00e9s de gestion de l'environnemen"},{"id":"00056759","subnational":[{"awardID":"00056759","lat":"-12.23333","lon":"44.44553","name":"Comoros","precision":"9","type":"PCL"}],"title":"D\u00e9veloppement des capacit\u00e9s de gestion des risques de ca"},{"id":"00046971","subnational":[{"awardID":"00046971","lat":"-12.25","lon":"44.41667","name":"Anjouan","precision":"4","type":"ADM1"},{"awardID":"00046971","lat":"-11.70216","lon":"43.25506","name":"Grande Comore","precision":"4","type":"ADM1"},{"awardID":"00046971","lat":"-12.34268","lon":"43.73623","name":"Moheli","precision":"4","type":"ADM1"}],"title":"Election Presidentiel des \u00celes Union des Comores"},{"id":"00060577","subnational":[{"awardID":"00060577","lat":"-12.23333","lon":"44.44553","name":"Comoros","precision":"9","type":"PCL"},{"awardID":"00060577","lat":"-12.23333","lon":"44.44553","name":"Comoros","precision":"9","type":"PCL"}],"title":"Elections Harmonis\u00e9es Pr\u00e9sident Union & Gouverneurs 2010"},{"id":"00047481","subnational":[],"title":"Elections Presidentielles des \u00eeles 2007"},{"id":"00047217","subnational":[],"title":"Inter-Agency Cooperation for Disaster Reduction/Comoros"},{"id":"00037560","subnational":[],"title":"Mise en oeuvre Accord Dispositions Transitoires Comores"},{"id":"00038961","subnational":[{"awardID":"00038961","lat":"-12.23333","lon":"44.44553","name":"Comoros","precision":"9","type":"PCL"}],"title":"PIMS 3382 LDC PDF-A :  SLM - Comoros"},{"id":"00060498","subnational":[{"awardID":"00060498","lat":"-12.23333","lon":"44.44553","name":"Comoros","precision":"9","type":"PCL"}],"title":"PIMS 4188 : Comoros Adapting Water Resource Management"},{"id":"00067650","subnational":[],"title":"PMIS 4926 LDCF-Comoros PPG"},{"id":"00071654","subnational":[],"title":"PPG PIMS 4950 Comoros PA System"},{"id":"00056763","subnational":[{"awardID":"00056763","lat":"-12.23333","lon":"44.44553","name":"Comoros","precision":"9","type":"PCL"}],"title":"Programme conjoint VIH/SIDA 2009-2012"},{"id":"00059488","subnational":[{"awardID":"00059488","lat":"-12.23333","lon":"44.44553","name":"Comoros","precision":"9","type":"PCL"}],"title":"Programme d'appui \u00e0 la finance inclusive aux Comores"},{"id":"00059622","subnational":[{"awardID":"00059622","lat":"-12.28","lon":"43.7425","name":"Fomboni","precision":"3","type":"PPL"},{"awardID":"00059622","lat":"-12.29667","lon":"43.63528","name":"Miringoni","precision":"3","type":"PPL"}],"title":"Projet agriculture Moh\u00e9li"},{"id":"00056935","subnational":[{"awardID":"00056935","lat":"-12.25","lon":"44.41667","name":"Anjouan","precision":"4","type":"ADM1"},{"awardID":"00056935","lat":"-11.70216","lon":"43.25506","name":"Grande Comore","precision":"4","type":"ADM1"},{"awardID":"00056935","lat":"-12.34268","lon":"43.73623","name":"Moheli","precision":"4","type":"ADM1"},{"awardID":"00056935","lat":"-12.25","lon":"44.41667","name":"Anjouan","precision":"4","type":"ADM1"},{"awardID":"00056935","lat":"-11.70216","lon":"43.25506","name":"Grande Comore","precision":"4","type":"ADM1"},{"awardID":"00056935","lat":"-12.34268","lon":"43.73623","name":"Moheli","precision":"4","type":"ADM1"}],"title":"Projet Conjoint Genre"},{"id":"00058942","subnational":[{"awardID":"00058942","lat":"-12.34268","lon":"43.73623","name":"Moheli","precision":"4","type":"ADM1"},{"awardID":"00058942","lat":"-11.58611","lon":"43.33306","name":"Njazidja","precision":"4","type":"ADM1"}],"title":"R\u00e9forme du secteur de la s\u00e9curit\u00e9 en Union des Comores"},{"id":"00073929","subnational":[],"title":"R\u00e9forme S\u00e9curitaire en Union des Comores"},{"id":"00075548","subnational":[],"title":"Renf Cap Nationale en Matiere de Consolidation paix"},{"id":"00057995","subnational":[{"awardID":"00057995","lat":"-12.25","lon":"44.41667","name":"Anjouan","precision":"4","type":"ADM1"},{"awardID":"00057995","lat":"-11.70216","lon":"43.25506","name":"Grande Comore","precision":"4","type":"ADM1"},{"awardID":"00057995","lat":"-12.34268","lon":"43.73623","name":"Moheli","precision":"4","type":"ADM1"},{"awardID":"00057995","lat":"-12.23333","lon":"44.44553","name":"Comoros","precision":"9","type":"PCL"}],"title":"Renforcement capacit\u00e9s nationales Consolidation paix"},{"id":"00059489","subnational":[{"awardID":"00059489","lat":"-12.23333","lon":"44.44553","name":"Comoros","precision":"9","type":"PCL"}],"title":"Renforcement des capacit\u00e9s en gestion du developpement"},{"id":"00058937","subnational":[{"awardID":"00058937","lat":"-12.25","lon":"44.41667","name":"Anjouan","precision":"4","type":"ADM1"},{"awardID":"00058937","lat":"-11.70216","lon":"43.25506","name":"Grande Comore","precision":"4","type":"ADM1"},{"awardID":"00058937","lat":"-12.34268","lon":"43.73623","name":"Moheli","precision":"4","type":"ADM1"}],"title":"Restructuration et renforcemt cap police nationale"},{"id":"00072064","subnational":[],"title":"Strat\u00e9gie de renforcement du systeme SPS aux Comores"},{"id":"00056522","subnational":[],"title":"OAI-INVESTIGATIONS"}]}