{"op_unit":"COM","projects":[{"id":"00025611","subnational":[],"title":"APPUI AUX  DEPLACES D'ANJOUAN"},{"id":"00031794","subnational":[],"title":"Appui Processus R\u00e9conciliation Nat. & Nlles Institutions"},{"id":"00034225","subnational":[{"lat":11.4537,"lon":43.2111,"precision":"4","scope":"3","type":"2"},{"lat":12.2033,"lon":43.441,"precision":"4","scope":"3","type":"2"}],"title":"Dev. des capacit\u00e9s OCBs et Prom. du Volontariat OMD"},{"id":"00035330","subnational":[],"title":"Processus Electoral au Comores du 2001-2005"},{"id":"00037560","subnational":[],"title":"Mise en oeuvre Accord Dispositions Transitoires Comores"},{"id":"00038467","subnational":[],"title":"Management Plan"},{"id":"00038961","subnational":[{"lat":12.14,"lon":44.2643,"precision":"9","scope":"4","type":"1"}],"title":"PIMS 3382 LDC PDF-A :  SLM - Comoros"},{"id":"00040815","subnational":[],"title":"Acc\u00e8s au Cr\u00e9dit et cr\u00e9ation Micro et Petits entreprises"},{"id":"00041774","subnational":[],"title":"Centre de formation handicap\u00e9s"},{"id":"00043125","subnational":[],"title":"Femme Comorienne et Prise des Decision"},{"id":"00043423","subnational":[],"title":"Election Presidentiel 2006 - Anjouan"},{"id":"00044626","subnational":[],"title":"Election Presidentiel 2006 - Fond-EU"},{"id":"00045060","subnational":[],"title":"GEFF Small Grants Programme in Comoros"},{"id":"00045852","subnational":[],"title":"renforcement capacit\u00e9s UNCT en droits humains"},{"id":"00046040","subnational":[],"title":"COORDINATION BUDGET"},{"id":"00046291","subnational":[],"title":"Elaboration documents de programmation et d'\u00e9valuation"},{"id":"00046952","subnational":[],"title":"Etude Diagnostique pour l\u2019Int\u00e9gration du Commerce"},{"id":"00046971","subnational":[{"lat":12.14,"lon":44.2643,"precision":"9","scope":"4","type":"1"}],"title":"Election Presidentiel des \u00celes Union des Comores"},{"id":"00047284","subnational":[],"title":"Development Support Services (DSS)"},{"id":"00047481","subnational":[],"title":"Elections Presidentielles des \u00eeles 2007"},{"id":"00048965","subnational":[],"title":"Gestion integre des dechets Solide Moroni"},{"id":"00049134","subnational":[],"title":"Plan de Gestion et d'Elimination Finale des CFC"},{"id":"00049533","subnational":[],"title":"D\u00e9veloppement des capacit\u00e9s du Parlement de l'Union"},{"id":"00050632","subnational":[],"title":"Programme Renf. Sces Commerce & Investissement (CI)"},{"id":"00051075","subnational":[],"title":"Organisation du colloque Karthala"},{"id":"00051207","subnational":[],"title":"Appui \u00e0 l'organisation de l'atelier de lancement du PBF"},{"id":"00051255","subnational":[],"title":"D\u00e9veloppement des capacit\u00e9s de gestion de l\u2019environnemen"},{"id":"00056759","subnational":[{"lat":12.14,"lon":44.2643,"precision":"9","scope":"4","type":"1"}],"title":"D\u00e9veloppement des capacit\u00e9s de gestion des risques de ca"},{"id":"00056763","subnational":[{"lat":12.14,"lon":44.2643,"precision":"9","scope":"4","type":"2"}],"title":"Programme conjoint VIH/SIDA 2009-2012"},{"id":"00056935","subnational":[{"lat":12.14,"lon":44.2643,"precision":"9","scope":"4","type":"1"},{"lat":12.14,"lon":44.2643,"precision":"9","scope":"4","type":"1"}],"title":"Projet Conjoint Genre"},{"id":"00057631","subnational":[],"title":"PROJET CONJOINT STATISTIQUES"},{"id":"00057890","subnational":[],"title":"PMIS4188LDCF-Comoros PPG"},{"id":"00057995","subnational":[{"lat":12.14,"lon":44.2643,"precision":"9","scope":"4","type":"1"}],"title":"Renforcement capacit\u00e9s nationales Consolidation paix"},{"id":"00058448","subnational":[],"title":"AP - Renf. capacit\u00e9s nationales de gestion du dvpt"},{"id":"00058588","subnational":[],"title":"Elections l\u00e9gislatives et des conseils des \u00eeles 2009"},{"id":"00058937","subnational":[{"lat":12.14,"lon":44.2643,"precision":"9","scope":"4","type":"1"}],"title":"Restructuration et renforcemt cap police nationale"},{"id":"00058942","subnational":[{"lat":12.14,"lon":44.2643,"precision":"9","scope":"4","type":"1"}],"title":"R\u00e9forme du secteur de la s\u00e9curit\u00e9 en Union des Comores"},{"id":"00059193","subnational":[],"title":"Renforcement des capacit\u00e9s en mati\u00e8re de Syst\u00e8me d\u2019alert"},{"id":"00059370","subnational":[{"lat":12.14,"lon":44.2643,"precision":"9","scope":"4","type":"1"}],"title":"Appui \u00e0 la d\u00e9centralisation en Union des Comores"},{"id":"00059373","subnational":[{"lat":12.14,"lon":44.2643,"precision":"9","scope":"4","type":"1"}],"title":"Coh\u00e9sion sociale"},{"id":"00059488","subnational":[{"lat":12.14,"lon":44.2643,"precision":"9","scope":"4","type":"1"}],"title":"Programme d'appui \u00e0 la finance inclusive aux Comores"},{"id":"00059489","subnational":[{"lat":12.14,"lon":44.2643,"precision":"9","scope":"4","type":"1"}],"title":"Renforcement des capacit\u00e9s en gestion du developpement"},{"id":"00059622","subnational":[{"lat":11.5142,"lon":43.293,"precision":"3","scope":"3","type":"2"},{"lat":12.1748,"lon":43.387,"precision":"3","scope":"3","type":"2"}],"title":"Projet agriculture Moh\u00e9li"},{"id":"00059630","subnational":[],"title":"PN de D\u00e9sarmement, D\u00e9mobilisation et R\u00e9integration"},{"id":"00060498","subnational":[{"lat":12.14,"lon":44.2643,"precision":"9","scope":"4","type":"1"}],"title":"PIMS 4188 : Comoros Adapting Water Resource Management"},{"id":"00060577","subnational":[{"lat":12.14,"lon":44.2643,"precision":"9","scope":"4","type":"1"},{"lat":12.14,"lon":44.2643,"precision":"9","scope":"4","type":"1"},{"lat":12.14,"lon":44.2643,"precision":"9","scope":"4","type":"1"}],"title":"Elections Harmonis\u00e9es Pr\u00e9sident Union & Gouverneurs 2010"},{"id":"00061239","subnational":[{"lat":12.14,"lon":44.2643,"precision":"9","scope":"4","type":"1"}],"title":"ASSISTANCE MISE EN \u0152UVRE DU CADRE INTEGRE RENFORCE"},{"id":"00062620","subnational":[],"title":"Change Management Fonds Unique"},{"id":"00066735","subnational":[],"title":"Appui aux sinistr\u00e9s des innondations d'avril 2012"},{"id":"00067650","subnational":[],"title":"PMIS 4926 LDCF-Comoros PPG"},{"id":"00072064","subnational":[],"title":"Strat\u00e9gie de renforcement du systeme SPS aux Comores"}]}