{"iso_num":"218","op_unit":"ECU","projects":[{"id":"00048331","subnational":[{"awardID":"00048331","lat":"-2","lon":"-77.5","name":"Ecuador","precision":"9","type":"PCL"}],"title":"Adaptaci\u00f3n al Cambio Clim\u00e1tico en Ecuador"},{"id":"00059732","subnational":[{"awardID":"00059732","lat":"-2","lon":"-77.5","name":"Ecuador","precision":"9","type":"PCL"}],"title":"Aportes al Proceso de Transformaci\u00f3n del Estado"},{"id":"00041248","subnational":[{"awardID":"00041248","lat":"-2.90054","lon":"-79.00453","name":"Cuenca, Ecuador","precision":"3","type":"PCL"}],"title":"APOYO RACIONALIZACION TRANSPORTE PUBLICO EN CUENCA"},{"id":"00061982","subnational":[{"awardID":"00061982","lat":"-0.22985","lon":"-78.52495","name":"Quito, ecuador","precision":"9","type":"PPLC"}],"title":"Assesment con Climate Change Capacity Building"},{"id":"00046457","subnational":[{"awardID":"00046457","lat":"-2","lon":"-77.5","name":"Northern Border Zone","precision":"9","type":"PCL"}],"title":"CADENAS PRODUCTIVAS"},{"id":"00065940","subnational":[],"title":"Conservaci\u00f3n de Vida Silvestre"},{"id":"00035873","subnational":[{"awardID":"00035873","lat":"-2","lon":"-77.5","name":"Ecuador","precision":"9","type":"PCL"}],"title":"DEVELOPMENT ADVISORY SERVICES"},{"id":"00074330","subnational":[],"title":"Dipecho 2013-2014"},{"id":"00067641","subnational":[],"title":"Ecoparque Industrial Zonal con enfoque de transformaci\u00f3n"},{"id":"00042428","subnational":[{"awardID":"00042428","lat":"0","lon":"-90.5","name":"Galapagos Islands, Ecuador","precision":"4","type":"RES"}],"title":"Energ\u00eda Renovable para Generaci\u00f3n de Energ\u00eda El\u00e9ctrica"},{"id":"00012293","subnational":[{"awardID":"00012293","lat":"-2","lon":"-77.5","name":"Ecuador","precision":"9","type":"PCL"}],"title":"Especies Invasoras en el Archipi\u00e9lago de Gal\u00e1pagos"},{"id":"00061703","subnational":[{"awardID":"00061703","lat":"-0.22985","lon":"-78.52495","name":"Quito, ecuador","precision":"9","type":"PPLC"},{"awardID":"00061703","lat":"-0.22985","lon":"-78.52495","name":"Quito, ecuador","precision":"9","type":"PPLC"},{"awardID":"00061703","lat":"-0.22985","lon":"-78.52495","name":"Quito, ecuador","precision":"9","type":"PPLC"}],"title":"Estimaci\u00f3n de Vulnerabilidades a nivel Cantonal"},{"id":"00050669","subnational":[{"awardID":"00050669","lat":"-0.22985","lon":"-78.52495","name":"Agencia de Coooperacion Internacional","precision":"3","type":"PPLC"}],"title":"Fortalecimiento Capacidades SETECI"},{"id":"00058169","subnational":[{"awardID":"00058169","lat":"-2","lon":"-77.5","name":"Ecuador","precision":"9","type":"PCL"}],"title":"Incentive System Disaster  Reducction Municipal level"},{"id":"00057865","subnational":[{"awardID":"00057865","lat":"-0.68917","lon":"-78.42889","name":"Cotopaxi, Ecuador","precision":"3","type":"RES"},{"awardID":"00057865","lat":"-1.67083","lon":"-78.64861","name":"Chimborazo, Ecuador","precision":"3","type":"PPLA"},{"awardID":"00057865","lat":"-0.22985","lon":"-78.52495","name":"Pichincha, Ecuador","precision":"3","type":"PPLC"},{"awardID":"00057865","lat":"-3.25694","lon":"-79.95972","name":"El Oro, Ecuador","precision":"3","type":"PPLA"},{"awardID":"00057865","lat":"-0.22985","lon":"-78.52495","name":"Guaya, Ecuador","precision":"3","type":"PPLC"},{"awardID":"00057865","lat":"-2.22778","lon":"-80.85694","name":"Santa Elena, Ecuador","precision":"3","type":"PPLA"}],"title":"INFORMATION SYSTEM AT MUNICIPAL LEVEL"},{"id":"00057619","subnational":[{"awardID":"00057619","lat":"-3.99313","lon":"-79.20422","name":"Loja, Ecuador","precision":"3","type":"PPL"},{"awardID":"00057619","lat":"-3.25694","lon":"-79.95972","name":"El Oro, Ecuador","precision":"3","type":"PPLA"},{"awardID":"00057619","lat":"-2.90054","lon":"-79.00453","name":"Azuay, Ecuador","precision":"3","type":"PPLA"}],"title":"JUVENTUD, EMPLEO Y MIGRACION EN ECUADOR"},{"id":"00066762","subnational":[],"title":"Manejo ambientalmente correcto de Bifenilos Policlorados"},{"id":"00066333","subnational":[],"title":"National Biodiversity Planning to Support imp of CBD"},{"id":"00045260","subnational":[{"awardID":"00045260","lat":"-2","lon":"-77.5","name":"Northern Border Zone","precision":"9","type":"PCL"}],"title":"Paz y Desarrollo en la Frontera Norte de Ecuador"},{"id":"00038616","subnational":[],"title":"PIMS 3375 CC EA  Segunda Comunicaci\u00f3n Nacional CC"},{"id":"00028101","subnational":[],"title":"PIMS 928 BD PDFA Cons'n in Galapagos Archipelago"},{"id":"00050377","subnational":[{"awardID":"00050377","lat":"-2","lon":"-77.5","name":"Ecuador","precision":"9","type":"PCL"}],"title":"Programa Marco Articulacion de Redes Territoriales"},{"id":"00062135","subnational":[{"awardID":"00062135","lat":"-0.22985","lon":"-78.52495","name":"Quito, ecuador","precision":"9","type":"PPLC"}],"title":"Programa Nacional Conjunto Ecuador"},{"id":"00050961","subnational":[{"awardID":"00050961","lat":"-2","lon":"-77.5","name":"Ecuador","precision":"9","type":"PCL"}],"title":"Proyecto de Gobernabilidad del Sector Agua y Saneamiento"},{"id":"00064236","subnational":[],"title":"Quinta Fase Operativa Programa Peque\u00f1as Donaciones"},{"id":"00051240","subnational":[{"awardID":"00051240","lat":"-0.22985","lon":"-78.52495","name":"Quito, ecuador","precision":"3","type":"PPLC"}],"title":"REDUCCION RIESGO DESASTRES  MUNICIPIO QUITO"},{"id":"00072777","subnational":[],"title":"Securing Energy Efficiency"},{"id":"00059162","subnational":[{"awardID":"00059162","lat":"-2","lon":"-77.5","name":"Ecuador","precision":"9","type":"PCL"}],"title":"Sostenibilidad Financiera de las Areas Protegidas"},{"id":"00033217","subnational":[{"awardID":"00033217","lat":"-0.22985","lon":"-78.52495","name":"Quito, Ecuador","precision":"3","type":"PPLC"}],"title":"Transporte P\u00fablico en el Distrito Metropolitano de Quito"},{"id":"00057495","subnational":[{"awardID":"00057495","lat":"-2","lon":"-77.5","name":"Ecuador","precision":"9","type":"PCL"}],"title":"VOLUNTEERS- DISASTER RISK REDUCTION"}]}