{"iso_num": null, "projects": [{"title": "fortalecimiento municipio de guayaquil", "id": "00012295", "subnational": [{"outputID": "00012295", "output_locID": "00012295-1", "name": "Guayaquil", "focus_area": "5", "lat": "-2.205840", "type": "PPLA", "awardID": "00012295", "lon": "-79.907950", "precision": "1", "focus_area_descr": "Climate Change & Disaster Resilience"}]}, {"title": "transporte p\u00fablico en el distrito metropolitano de quito", "id": "00033217", "subnational": [{"outputID": "00034363", "output_locID": "00034363-1", "name": "Quito", "focus_area": "3", "lat": "-0.229850", "type": "PPLC", "awardID": "00033217", "lon": "-78.524950", "precision": "1", "focus_area_descr": "Responsive Institutions"}, {"outputID": "00034363", "output_locID": "00034363-2", "name": "Quito", "focus_area": "3", "lat": "-0.229850", "type": "PPLC", "awardID": "00033217", "lon": "-78.524950", "precision": "1", "focus_area_descr": "Responsive Institutions"}]}, {"title": "adaptaci\u00f3n al cambio clim\u00e1tico en ecuador", "id": "00048331", "subnational": [{"outputID": "00058409", "output_locID": "00058409-1", "name": "Republic of Ecuador", "focus_area": "1", "lat": "-1.250000", "type": "PCLI", "awardID": "00048331", "lon": "-78.250000", "precision": "1", "focus_area_descr": "Inclusive & Sustainable Growth"}]}, {"title": "paz y desarrollo en la frontera norte de ecuador", "id": "00045260", "subnational": [{"outputID": "00053431", "output_locID": "00053431-1", "name": "Provincia de Esmeraldas", "focus_area": "", "lat": "0.833330", "type": "ADM1", "awardID": "00045260", "lon": "-79.250000", "precision": "1", "focus_area_descr": "-"}, {"outputID": "00053431", "output_locID": "00053431-2", "name": "Provincia de Imbabura", "focus_area": "", "lat": "0.376310", "type": "ADM1", "awardID": "00045260", "lon": "-78.323710", "precision": "1", "focus_area_descr": "-"}, {"outputID": "00053431", "output_locID": "00053431-3", "name": "Provincia del Carchi", "focus_area": "", "lat": "0.750000", "type": "ADM1", "awardID": "00045260", "lon": "-78.083330", "precision": "1", "focus_area_descr": "-"}, {"outputID": "00053431", "output_locID": "00053431-4", "name": "Provincia de Sucumb\u00edos", "focus_area": "", "lat": "0.100000", "type": "ADM1", "awardID": "00045260", "lon": "-76.866670", "precision": "1", "focus_area_descr": "-"}]}, {"title": "assesment con climate change capacity building", "id": "00061982", "subnational": [{"outputID": "00083312", "output_locID": "00083312-1", "name": "Republic of Ecuador", "focus_area": "8", "lat": "-1.250000", "type": "PCLI", "awardID": "00061982", "lon": "-78.250000", "precision": "1", "focus_area_descr": "South-South"}, {"outputID": "00079159", "output_locID": "00079159-1", "name": "Quito, ecuador", "focus_area": "8", "lat": "-0.22985", "type": "PPLC", "awardID": "00061982", "lon": "-78.52495", "precision": "3", "focus_area_descr": "South-South"}]}, {"title": "quinta fase operativa programa peque\u00f1as donaciones", "id": "00064236", "subnational": [{"outputID": "00081120", "output_locID": "00081120-1", "name": "Republic of Ecuador", "focus_area": "1", "lat": "-1.250000", "type": "PCLI", "awardID": "00064236", "lon": "-78.250000", "precision": "1", "focus_area_descr": "Inclusive & Sustainable Growth"}]}, {"title": "national biodiversity planning to support imp of cbd", "id": "00066333", "subnational": [{"outputID": "00082536", "output_locID": "00082536-1", "name": "Republic of Ecuador", "focus_area": "2", "lat": "-1.250000", "type": "PCLI", "awardID": "00066333", "lon": "-78.250000", "precision": "1", "focus_area_descr": "Democratic Governance"}]}, {"title": "estimaci\u00f3n de vulnerabilidades a nivel cantonal", "id": "00061703", "subnational": [{"outputID": "00078433", "output_locID": "00078433-1", "name": "Quito", "focus_area": "", "lat": "-0.229850", "type": "PPLC", "awardID": "00061703", "lon": "-78.524950", "precision": "1", "focus_area_descr": "-"}, {"outputID": "00078433", "output_locID": "00078433-2", "name": "Quito", "focus_area": "", "lat": "-0.229850", "type": "PPLC", "awardID": "00061703", "lon": "-78.524950", "precision": "1", "focus_area_descr": "-"}, {"outputID": "00078888", "output_locID": "00078888-1", "name": "Quito, ecuador", "focus_area": "6", "lat": "-0.22985", "type": "PPLC", "awardID": "00061703", "lon": "-78.52495", "precision": "3", "focus_area_descr": "Crisis Prevention & Recovery"}, {"outputID": "00078930", "output_locID": "00078930-1", "name": "Quito, ecuador", "focus_area": "6", "lat": "-0.22985", "type": "PPLC", "awardID": "00061703", "lon": "-78.52495", "precision": "3", "focus_area_descr": "Crisis Prevention & Recovery"}]}, {"title": "democratic governance group 2009 -2013", "id": "00057501", "subnational": []}, {"title": "juventud, empleo y migracion en ecuador", "id": "00057619", "subnational": [{"outputID": "00071264", "output_locID": "00071264-1", "name": "Machala", "focus_area": "", "lat": "-3.258610", "type": "PPLA", "awardID": "00057619", "lon": "-79.960540", "precision": "1", "focus_area_descr": "-"}, {"outputID": "00071264", "output_locID": "00071264-2", "name": "Macar\u00e1", "focus_area": "", "lat": "-4.381810", "type": "PPL", "awardID": "00057619", "lon": "-79.943700", "precision": "1", "focus_area_descr": "-"}, {"outputID": "00071264", "output_locID": "00071264-3", "name": "Cuenca", "focus_area": "", "lat": "-2.900540", "type": "PPLA", "awardID": "00057619", "lon": "-79.004530", "precision": "1", "focus_area_descr": "-"}, {"outputID": "00071264", "output_locID": "00071264-4", "name": "Cuenca", "focus_area": "", "lat": "-2.900540", "type": "PPLA", "awardID": "00057619", "lon": "-79.004530", "precision": "1", "focus_area_descr": "-"}]}, {"title": "sostenibilidad financiera de las areas protegidas", "id": "00059162", "subnational": [{"outputID": "00073902", "output_locID": "00073902-1", "name": "Republic of Ecuador", "focus_area": "1", "lat": "-1.250000", "type": "PCLI", "awardID": "00059162", "lon": "-78.250000", "precision": "1", "focus_area_descr": "Inclusive & Sustainable Growth"}]}, {"title": "gesti\u00f3n integrada de los recursos h\u00eddricos", "id": "00073135", "subnational": []}, {"title": "apoyo al ecuador en el desarrollo de plan de acci\u00f3n naci", "id": "00080262", "subnational": []}, {"title": "global sustainable supply chains for marine commodities", "id": "00078984", "subnational": []}, {"title": "ecoparque industrial zonal con enfoque de transformaci\u00f3n", "id": "00067641", "subnational": [{"outputID": "00083313", "output_locID": "00083313-1", "name": "Republic of Ecuador", "focus_area": "", "lat": "-1.250000", "type": "PCLI", "awardID": "00067641", "lon": "-78.250000", "precision": "1", "focus_area_descr": "-"}]}, {"title": "dipecho 2013-2014", "id": "00074330", "subnational": [{"outputID": "00086787", "output_locID": "00086787-1", "name": "Ibarra", "focus_area": "5", "lat": "0.351710", "type": "PPLA", "awardID": "00074330", "lon": "-78.122330", "precision": "1", "focus_area_descr": "Climate Change & Disaster Resilience"}, {"outputID": "00087236", "output_locID": "00087236-1", "name": "Ibarra", "focus_area": "", "lat": "0.351710", "type": "PPLA", "awardID": "00074330", "lon": "-78.122330", "precision": "1", "focus_area_descr": "-"}]}, {"title": "conservaci\u00f3n de la vida silvestre en peligro", "id": "00075233", "subnational": []}, {"title": "tercera comunicacion nacional y reporte de actualizacion", "id": "00076778", "subnational": []}, {"title": "securing energy efficiency", "id": "00072777", "subnational": [{"outputID": "00085822", "output_locID": "00085822-1", "name": "Republic of Ecuador", "focus_area": "1", "lat": "-1.250000", "type": "PCLI", "awardID": "00072777", "lon": "-78.250000", "precision": "1", "focus_area_descr": "Inclusive & Sustainable Growth"}]}, {"title": "fortalecimiento de la gesti\u00f3n de la cooperaci\u00f3n cuenca", "id": "00075812", "subnational": [{"outputID": "00087511", "output_locID": "00087511-1", "name": "Cuenca", "focus_area": "3", "lat": "-2.900540", "type": "PPLA", "awardID": "00075812", "lon": "-79.004530", "precision": "1", "focus_area_descr": "Responsive Institutions"}, {"outputID": "00087511", "output_locID": "00087511-2", "name": "Cuenca", "focus_area": "3", "lat": "-2.900540", "type": "PPLA", "awardID": "00075812", "lon": "-79.004530", "precision": "1", "focus_area_descr": "Responsive Institutions"}]}, {"title": "inclusive business models in developing countries", "id": "00060953", "subnational": []}, {"title": "programa nacional conjunto ecuador", "id": "00062135", "subnational": [{"outputID": "00079464", "output_locID": "00079464-1", "name": "Quito", "focus_area": "1", "lat": "-0.229850", "type": "PPLC", "awardID": "00062135", "lon": "-78.524950", "precision": "1", "focus_area_descr": "Inclusive & Sustainable Growth"}, {"outputID": "00079464", "output_locID": "00079464-2", "name": "Quito", "focus_area": "1", "lat": "-0.229850", "type": "PPLC", "awardID": "00062135", "lon": "-78.524950", "precision": "1", "focus_area_descr": "Inclusive & Sustainable Growth"}, {"outputID": "00080361", "output_locID": "00080361-1", "name": "Republic of Ecuador", "focus_area": "1", "lat": "-1.250000", "type": "PCLI", "awardID": "00062135", "lon": "-78.250000", "precision": "1", "focus_area_descr": "Inclusive & Sustainable Growth"}, {"outputID": "00080360", "output_locID": "00080360-1", "name": "Republic of Ecuador", "focus_area": "1", "lat": "-1.250000", "type": "PCLI", "awardID": "00062135", "lon": "-78.250000", "precision": "1", "focus_area_descr": "Inclusive & Sustainable Growth"}, {"outputID": "00080363", "output_locID": "00080363-1", "name": "Republic of Ecuador", "focus_area": "1", "lat": "-1.250000", "type": "PCLI", "awardID": "00062135", "lon": "-78.250000", "precision": "1", "focus_area_descr": "Inclusive & Sustainable Growth"}, {"outputID": "00080362", "output_locID": "00080362-1", "name": "Republic of Ecuador", "focus_area": "1", "lat": "-1.250000", "type": "PCLI", "awardID": "00062135", "lon": "-78.250000", "precision": "1", "focus_area_descr": "Inclusive & Sustainable Growth"}, {"outputID": "00080364", "output_locID": "00080364-1", "name": "Republic of Ecuador", "focus_area": "1", "lat": "-1.250000", "type": "PCLI", "awardID": "00062135", "lon": "-78.250000", "precision": "1", "focus_area_descr": "Inclusive & Sustainable Growth"}]}, {"title": "programa de seguridad humana", "id": "00076474", "subnational": []}, {"title": "gesti\u00f3n integrada y ambientalmente racional de pcb", "id": "00075963", "subnational": []}, {"title": "securing energy efficiency in the ecuadorian residential", "id": "00079790", "subnational": []}, {"title": "agroparque industrial esmeraldas", "id": "00084877", "subnational": []}, {"title": "conservaci\u00f3n de la biodiversidad de los anfibios", "id": "00077233", "subnational": []}, {"title": "programa marco articulacion de redes territoriales", "id": "00050377", "subnational": [{"outputID": "00062201", "output_locID": "00062201-1", "name": "Republic of Ecuador", "focus_area": "3", "lat": "-1.250000", "type": "PCLI", "awardID": "00050377", "lon": "-78.250000", "precision": "1", "focus_area_descr": "Responsive Institutions"}]}, {"title": "development advisory services", "id": "00035873", "subnational": [{"outputID": "00038731", "output_locID": "00038731-1", "name": "Republic of Ecuador", "focus_area": "", "lat": "-1.250000", "type": "PCLI", "awardID": "00035873", "lon": "-78.250000", "precision": "1", "focus_area_descr": "-"}]}, {"title": "support to un coordination", "id": "00032142", "subnational": []}, {"title": "energ\u00eda renovable para generaci\u00f3n de energ\u00eda el\u00e9ctrica", "id": "00042428", "subnational": []}, {"title": "aportes al proceso de transformaci\u00f3n del estado", "id": "00059732", "subnational": [{"outputID": "00074853", "output_locID": "00074853-1", "name": "Ecuador", "focus_area": "2", "lat": "-2", "type": "PCL", "awardID": "00059732", "lon": "-77.5", "precision": "9", "focus_area_descr": "Democratic Governance"}]}, {"title": "apoyo racionalizacion transporte publico en cuenca", "id": "00041248", "subnational": [{"outputID": "00046953", "output_locID": "00046953-1", "name": "Cuenca, Ecuador", "focus_area": "2", "lat": "-2.90054", "type": "PCL", "awardID": "00041248", "lon": "-79.00453", "precision": "9", "focus_area_descr": "Democratic Governance"}]}, {"title": "bases para un pacto fiscal para el desarrollo humano", "id": "00036581", "subnational": [{"outputID": "00039858", "output_locID": "00039858-1", "name": "Ecuador", "focus_area": "-", "lat": "-2", "type": "PCL", "awardID": "00036581", "lon": "-77.5", "precision": "9", "focus_area_descr": "-"}]}, {"title": "cadenas productivas", "id": "00046457", "subnational": [{"outputID": "00055370", "output_locID": "00055370-1", "name": "Northern Border Zone", "focus_area": "1", "lat": "-2", "type": "PCL", "awardID": "00046457", "lon": "-77.5", "precision": "9", "focus_area_descr": "Inclusive & Sustainable Growth"}]}, {"title": "conservaci\u00f3n de vida silvestre", "id": "00065940", "subnational": [{"outputID": "00082261", "output_locID": "00082261-1", "name": "Ecuador", "focus_area": "5", "lat": "-2", "type": "PCL", "awardID": "00065940", "lon": "-77.5", "precision": "9", "focus_area_descr": "Climate Change & Disaster Resilience"}]}, {"title": "desarrollo humano sostenible en azuay", "id": "00037414", "subnational": [{"outputID": "00040946", "output_locID": "00040946-1", "name": "Azuay, Ecuador", "focus_area": "1", "lat": "-2.90054", "type": "PPLA", "awardID": "00037414", "lon": "-79.00453", "precision": "3", "focus_area_descr": "Inclusive & Sustainable Growth"}, {"outputID": "00040946", "output_locID": "00040946-2", "name": "Cuenca, Ecuador", "focus_area": "1", "lat": "-2.90054", "type": "PPLA", "awardID": "00037414", "lon": "-79.00453", "precision": "3", "focus_area_descr": "Inclusive & Sustainable Growth"}]}, {"title": "especies invasoras en el archipi\u00e9lago de gal\u00e1pagos", "id": "00012293", "subnational": [{"outputID": "00012293", "output_locID": "00012293-1", "name": "Galapagos Islands, Ecuador", "focus_area": "5", "lat": "0", "type": "RES", "awardID": "00012293", "lon": "-90.5", "precision": "4", "focus_area_descr": "Climate Change & Disaster Resilience"}]}, {"title": "fortalecimiento capacidades seteci", "id": "00050669", "subnational": [{"outputID": "00062703", "output_locID": "00062703-1", "name": "Quito, ecuador", "focus_area": "8", "lat": "-0.22985", "type": "PPLC", "awardID": "00050669", "lon": "-78.52495", "precision": "3", "focus_area_descr": "South-South"}]}, {"title": "fortalecimiento de estructuras financieras locales", "id": "00057883", "subnational": [{"outputID": "00071671", "output_locID": "00071671-1", "name": "Ecuador", "focus_area": "1", "lat": "-2", "type": "PCL", "awardID": "00057883", "lon": "-77.5", "precision": "9", "focus_area_descr": "Inclusive & Sustainable Growth"}]}, {"title": "incentive system disaster  reducction municipal level", "id": "00058169", "subnational": [{"outputID": "00072143", "output_locID": "00072143-1", "name": "Ecuador", "focus_area": "6", "lat": "-2", "type": "PCL", "awardID": "00058169", "lon": "-77.5", "precision": "9", "focus_area_descr": "Crisis Prevention & Recovery"}]}, {"title": "information system at municipal level", "id": "00057865", "subnational": [{"outputID": "00071623", "output_locID": "00071623-1", "name": "Chimborazo, Ecuador", "focus_area": "6", "lat": "-1.67083", "type": "PPLA", "awardID": "00057865", "lon": "-78.64861", "precision": "3", "focus_area_descr": "Crisis Prevention & Recovery"}, {"outputID": "00071623", "output_locID": "00071623-2", "name": "Cotopaxi, Ecuador", "focus_area": "6", "lat": "-0.68917", "type": "RES", "awardID": "00057865", "lon": "-78.42889", "precision": "4", "focus_area_descr": "Crisis Prevention & Recovery"}, {"outputID": "00071623", "output_locID": "00071623-3", "name": "El Oro, Ecuador", "focus_area": "6", "lat": "-3.25694", "type": "PPLA", "awardID": "00057865", "lon": "-79.95972", "precision": "3", "focus_area_descr": "Crisis Prevention & Recovery"}, {"outputID": "00071623", "output_locID": "00071623-4", "name": "Guaya, Ecuador", "focus_area": "6", "lat": "-0.22985", "type": "PPLC", "awardID": "00057865", "lon": "-78.52495", "precision": "3", "focus_area_descr": "Crisis Prevention & Recovery"}, {"outputID": "00071623", "output_locID": "00071623-5", "name": "Pichincha, Ecuador", "focus_area": "6", "lat": "-0.22985", "type": "PPLC", "awardID": "00057865", "lon": "-78.52495", "precision": "3", "focus_area_descr": "Crisis Prevention & Recovery"}, {"outputID": "00071623", "output_locID": "00071623-6", "name": "Santa Elena, Ecuador", "focus_area": "6", "lat": "-2.22778", "type": "PPLA", "awardID": "00057865", "lon": "-80.85694", "precision": "3", "focus_area_descr": "Crisis Prevention & Recovery"}]}, {"title": "manejo ambientalmente correcto de bifenilos policlorados", "id": "00066762", "subnational": [{"outputID": "00082824", "output_locID": "00082824-1", "name": "Ecuador", "focus_area": "5", "lat": "-2", "type": "PCL", "awardID": "00066762", "lon": "-77.5", "precision": "9", "focus_area_descr": "Climate Change & Disaster Resilience"}]}, {"title": "microempresas turisticas", "id": "00042779", "subnational": [{"outputID": "00049648", "output_locID": "00049648-1", "name": "Ecuador", "focus_area": "1", "lat": "-2", "type": "PCL", "awardID": "00042779", "lon": "-77.5", "precision": "9", "focus_area_descr": "Inclusive & Sustainable Growth"}]}, {"title": "pims 928 bd pdfa cons'n in galapagos archipelago", "id": "00028101", "subnational": [{"outputID": "00028101", "output_locID": "00028101-1", "name": "Galapagos Islands, Ecuador", "focus_area": "-", "lat": "0", "type": "RES", "awardID": "00028101", "lon": "-90.5", "precision": "4", "focus_area_descr": "-"}]}, {"title": "programa nacional de alimentaci\u00f3n y nutrici\u00f3n", "id": "00012283", "subnational": [{"outputID": "00012283", "output_locID": "00012283-1", "name": "Ecuador", "focus_area": "1", "lat": "-2", "type": "PCL", "awardID": "00012283", "lon": "-77.5", "precision": "9", "focus_area_descr": "Inclusive & Sustainable Growth"}]}, {"title": "proyecto de gobernabilidad del sector agua y saneamiento", "id": "00050961", "subnational": [{"outputID": "00063226", "output_locID": "00063226-1", "name": "Ecuador", "focus_area": "2", "lat": "-2", "type": "PCL", "awardID": "00050961", "lon": "-77.5", "precision": "9", "focus_area_descr": "Democratic Governance"}]}, {"title": "reduccion riesgo desastres  municipio quito", "id": "00051240", "subnational": [{"outputID": "00063700", "output_locID": "00063700-1", "name": "Quito, ecuador", "focus_area": "6", "lat": "-0.22985", "type": "PPLC", "awardID": "00051240", "lon": "-78.52495", "precision": "3", "focus_area_descr": "Crisis Prevention & Recovery"}]}, {"title": "reduccion riesgos y preparacion situaciones emergencia", "id": "00060266", "subnational": [{"outputID": "00075803", "output_locID": "00075803-1", "name": "Ecuador", "focus_area": "-", "lat": "-2", "type": "PCL", "awardID": "00060266", "lon": "-77.5", "precision": "9", "focus_area_descr": "-"}]}, {"title": "reforma iess", "id": "00012286", "subnational": [{"outputID": "00012286", "output_locID": "00012286-1", "name": "Ecuador", "focus_area": "-", "lat": "-2", "type": "PCL", "awardID": "00012286", "lon": "-77.5", "precision": "9", "focus_area_descr": "-"}]}, {"title": "respuestas multisectoriales al vih sida", "id": "00058297", "subnational": [{"outputID": "00072372", "output_locID": "00072372-1", "name": "Ecuador", "focus_area": "-", "lat": "-2", "type": "PCL", "awardID": "00058297", "lon": "-77.5", "precision": "9", "focus_area_descr": "-"}]}, {"title": "segunda comunicaci\u00f3n nacional cambio clim\u00e1tico", "id": "00038616", "subnational": [{"outputID": "00042923", "output_locID": "00042923-1", "name": "Ecuador", "focus_area": "5", "lat": "-2", "type": "PCL", "awardID": "00038616", "lon": "-77.5", "precision": "9", "focus_area_descr": "Climate Change & Disaster Resilience"}]}, {"title": "volunteers- disaster risk reduction", "id": "00057495", "subnational": [{"outputID": "00071052", "output_locID": "00071052-1", "name": "Ecuador", "focus_area": "6", "lat": "-2", "type": "PCL", "awardID": "00057495", "lon": "-77.5", "precision": "9", "focus_area_descr": "Crisis Prevention & Recovery"}]}, {"title": "asistencia proceso post rio+20", "id": "00069467", "subnational": []}, {"title": "colacion escolar para mejorar educacion basica", "id": "00012278", "subnational": [{"outputID": "00012278", "output_locID": "00012278-1", "name": "Ecuador", "focus_area": "-", "lat": "-2", "type": "PCL", "awardID": "00012278", "lon": "-77.5", "precision": "9", "focus_area_descr": "-"}]}, {"title": "corte suprema de justicia y altos tribunales", "id": "00040956", "subnational": []}, {"title": "desarrollo y diversidad cultural para reducir la pobreza", "id": "00051348", "subnational": []}, {"title": "energia renovable para generacion de electricidad", "id": "00012297", "subnational": []}, {"title": "enfoque estrat\u00e9gico en productos qu\u00edmicos", "id": "00056656", "subnational": [{"outputID": "00069479", "output_locID": "00069479-1", "name": "Ecuador", "focus_area": "-", "lat": "-2", "type": "PCL", "awardID": "00056656", "lon": "-77.5", "precision": "9", "focus_area_descr": "-"}]}, {"title": "estrategia de desarrollo humano en el marco de los odm", "id": "00041051", "subnational": []}, {"title": "fondo odms reserva bi\u00f3sfera yasuni - componente undp", "id": "00049406", "subnational": [{"outputID": "00060212", "output_locID": "00060212-1", "name": "Reserva de la Biosfera de Yasuni", "focus_area": "-", "lat": "0.83333", "type": "RES", "awardID": "00049406", "lon": "-79.25", "precision": "4", "focus_area_descr": "-"}]}, {"title": "fortalecimiento de la aviacion civil", "id": "00012282", "subnational": [{"outputID": "00012282", "output_locID": "00012282-1", "name": "Direccion General de Aviacion Civil, Ecuador", "focus_area": "-", "lat": "-2", "type": "PCL", "awardID": "00012282", "lon": "-77.5", "precision": "9", "focus_area_descr": "-"}]}, {"title": "fortalecimiento red agencias desarrollo territorial", "id": "00059668", "subnational": [{"outputID": "00074730", "output_locID": "00074730-1", "name": "Ecuador", "focus_area": "-", "lat": "-2", "type": "PCL", "awardID": "00059668", "lon": "-77.5", "precision": "9", "focus_area_descr": "-"}]}, {"title": "modelo de equilibrio general din\u00e1mico", "id": "00062062", "subnational": [{"outputID": "00079303", "output_locID": "00079303-1", "name": "Quito, ecuador", "focus_area": "-", "lat": "-0.22985", "type": "PPLC", "awardID": "00062062", "lon": "-78.52495", "precision": "3", "focus_area_descr": "-"}]}, {"title": "programa onusida ecuador", "id": "00037354", "subnational": [{"outputID": "00040877", "output_locID": "00040877-1", "name": "Ecuador", "focus_area": "-", "lat": "-2", "type": "PCL", "awardID": "00037354", "lon": "-77.5", "precision": "9", "focus_area_descr": "-"}]}, {"title": "apoyo democracia, promocion debate y analisis del pais", "id": "00035705", "subnational": []}, {"title": "participacion inclusiva, apoyo politicas publicas y odms", "id": "00051042", "subnational": []}, {"title": "rehabilitacion del litoral luego de las inundaciones", "id": "00049990", "subnational": []}, {"title": "sustainable financing of ecuador's national system", "id": "00057640", "subnational": []}], "op_unit": "ECU"}