{"iso_num": null, "projects": [{"title": "support to un coordination", "id": "00032142", "subnational": []}, {"title": "transporte p\u00fablico en el distrito metropolitano de quito", "id": "00033217", "subnational": [{"outputID": "00034363", "output_locID": "00034363-1", "name": "Quito", "focus_area": "2", "lat": "-0.229850", "type": "PPLC", "awardID": "00033217", "lon": "-78.524950", "precision": "1", "focus_area_descr": "Democratic Governance"}]}, {"title": "incentive system disaster  reducction municipal level", "id": "00058169", "subnational": [{"outputID": "00072143", "output_locID": "00072143-1", "name": "Quito", "focus_area": "-", "lat": "-0.229850", "type": "PPLC", "awardID": "00058169", "lon": "-78.524950", "precision": "1", "focus_area_descr": "-"}]}, {"title": "assesment con climate change capacity building", "id": "00061982", "subnational": [{"outputID": "00083312", "output_locID": "00083312-1", "name": "Quito", "focus_area": "1", "lat": "-0.229850", "type": "PPLC", "awardID": "00061982", "lon": "-78.524950", "precision": "1", "focus_area_descr": "Inclusive Growth"}, {"outputID": "00096755", "output_locID": "00096755-1", "name": "Quito", "focus_area": "1", "lat": "-0.229850", "type": "PPLC", "awardID": "00061982", "lon": "-78.524950", "precision": "1", "focus_area_descr": "Inclusive Growth"}, {"outputID": "00105178", "output_locID": "00105178-1", "name": "Quito", "focus_area": "1", "lat": "-0.229850", "type": "PPLC", "awardID": "00061982", "lon": "-78.524950", "precision": "1", "focus_area_descr": "Inclusive Growth"}, {"outputID": "00079159", "output_locID": "00079159-1", "name": "Quito", "focus_area": "1", "lat": "-0.229850", "type": "PPLC", "awardID": "00061982", "lon": "-78.524950", "precision": "1", "focus_area_descr": "Inclusive Growth"}]}, {"title": "quinta fase operativa programa peque\u00f1as donaciones", "id": "00064236", "subnational": [{"outputID": "00081120", "output_locID": "00081120-1", "name": "Quito", "focus_area": "1", "lat": "-0.229850", "type": "PPLC", "awardID": "00064236", "lon": "-78.524950", "precision": "1", "focus_area_descr": "Inclusive Growth"}]}, {"title": "conservaci\u00f3n de la vida silvestre en peligro", "id": "00075233", "subnational": [{"outputID": "00087256", "output_locID": "00087256-1", "name": "Quito", "focus_area": "1", "lat": "-0.229850", "type": "PPLC", "awardID": "00075233", "lon": "-78.524950", "precision": "1", "focus_area_descr": "Inclusive Growth"}]}, {"title": "fortalecimiento de la gesti\u00f3n de la cooperaci\u00f3n cuenca", "id": "00075812", "subnational": [{"outputID": "00087511", "output_locID": "00087511-1", "name": "Cuenca", "focus_area": "3", "lat": "-2.900540", "type": "PPLA", "awardID": "00075812", "lon": "-79.004530", "precision": "1", "focus_area_descr": "Basic Services"}]}, {"title": "gesti\u00f3n integrada y ambientalmente racional de pcb", "id": "00075963", "subnational": [{"outputID": "00087582", "output_locID": "00087582-1", "name": "Quito", "focus_area": "1", "lat": "-0.229850", "type": "PPLC", "awardID": "00075963", "lon": "-78.524950", "precision": "1", "focus_area_descr": "Inclusive Growth"}]}, {"title": "programa de seguridad humana", "id": "00076474", "subnational": [{"outputID": "00087844", "output_locID": "00087844-1", "name": "Provincia de Sucumb\u00edos", "focus_area": "5", "lat": "0.100000", "type": "ADM1", "awardID": "00076474", "lon": "-76.866670", "precision": "1", "focus_area_descr": "Risk Reduction"}, {"outputID": "00087844", "output_locID": "00087844-2", "name": "Esmeraldas", "focus_area": "5", "lat": "0.945790", "type": "ADM3", "awardID": "00076474", "lon": "-79.685530", "precision": "1", "focus_area_descr": "Risk Reduction"}]}, {"title": "securing energy efficiency in the ecuadorian residential", "id": "00079790", "subnational": [{"outputID": "00089679", "output_locID": "00089679-1", "name": "Quito", "focus_area": "1", "lat": "-0.229850", "type": "PPLC", "awardID": "00079790", "lon": "-78.524950", "precision": "1", "focus_area_descr": "Inclusive Growth"}]}, {"title": "gesti\u00f3n integrada de recursos h\u00eddricos de las cuencas tr", "id": "00083398", "subnational": [{"outputID": "00091894", "output_locID": "00091894-1", "name": "Loja", "focus_area": "1", "lat": "-4.166670", "type": "ADM1", "awardID": "00083398", "lon": "-79.500000", "precision": "1", "focus_area_descr": "Inclusive Growth"}, {"outputID": "00091894", "output_locID": "00091894-2", "name": "Provincia de Tumbes", "focus_area": "1", "lat": "-3.750000", "type": "ADM2", "awardID": "00083398", "lon": "-80.416670", "precision": "1", "focus_area_descr": "Inclusive Growth"}]}, {"title": "cadenas globales de suministros sostenibles", "id": "00083706", "subnational": [{"outputID": "00092045", "output_locID": "00092045-1", "name": "Manabi", "focus_area": "1", "lat": "-0.666670", "type": "ADM1", "awardID": "00083706", "lon": "-80.083330", "precision": "1", "focus_area_descr": "Inclusive Growth"}]}, {"title": "sexta fase operativa del programa de peque\u00f1as donaciones en ecuador", "id": "00085032", "subnational": [{"outputID": "00092802", "output_locID": "00092802-1", "name": "Quito", "focus_area": "1", "lat": "-0.229850", "type": "PPLC", "awardID": "00085032", "lon": "-78.524950", "precision": "1", "focus_area_descr": "Inclusive Growth"}, {"outputID": "00104217", "output_locID": "00104217-1", "name": "Quito", "focus_area": "-", "lat": "-0.229850", "type": "PPLC", "awardID": "00085032", "lon": "-78.524950", "precision": "1", "focus_area_descr": "-"}]}, {"title": "fortalecimiento de capacidades institucionales y comunitarias, a nivel nacional y local, para la reducci\u00f3n de la vulnerabilidad frente a eventos s\u00edsmicos en el ecuador", "id": "00085038", "subnational": [{"outputID": "00092808", "output_locID": "00092808-1", "name": "Quito", "focus_area": "5", "lat": "-0.229850", "type": "PPLC", "awardID": "00085038", "lon": "-78.524950", "precision": "1", "focus_area_descr": "Risk Reduction"}, {"outputID": "00092808", "output_locID": "00092808-2", "name": "Ibarra", "focus_area": "5", "lat": "0.351710", "type": "PPLA", "awardID": "00085038", "lon": "-78.122330", "precision": "1", "focus_area_descr": "Risk Reduction"}, {"outputID": "00092808", "output_locID": "00092808-3", "name": "Dur\u00e1n", "focus_area": "5", "lat": "-2.175790", "type": "PPL", "awardID": "00085038", "lon": "-79.855190", "precision": "1", "focus_area_descr": "Risk Reduction"}]}, {"title": "conservaci\u00f3n de anfibios", "id": "00086955", "subnational": [{"outputID": "00094106", "output_locID": "00094106-1", "name": "Quito", "focus_area": "1", "lat": "-0.229850", "type": "PPLC", "awardID": "00086955", "lon": "-78.524950", "precision": "1", "focus_area_descr": "Inclusive Growth"}]}, {"title": "global marine commodities", "id": "00090199", "subnational": [{"outputID": "00096079", "output_locID": "00096079-1", "name": "Quito", "focus_area": "1", "lat": "-0.229850", "type": "PPLC", "awardID": "00090199", "lon": "-78.524950", "precision": "1", "focus_area_descr": "Inclusive Growth"}, {"outputID": "00096079", "output_locID": "00096079-2", "name": "Quito", "focus_area": "1", "lat": "-0.229850", "type": "PPLC", "awardID": "00090199", "lon": "-78.524950", "precision": "1", "focus_area_descr": "Inclusive Growth"}, {"outputID": "00096079", "output_locID": "00096079-3", "name": "Quito", "focus_area": "1", "lat": "-0.229850", "type": "PPLC", "awardID": "00090199", "lon": "-78.524950", "precision": "1", "focus_area_descr": "Inclusive Growth"}, {"outputID": "00096079", "output_locID": "00096079-4", "name": "Quito", "focus_area": "1", "lat": "-0.229850", "type": "PPLC", "awardID": "00090199", "lon": "-78.524950", "precision": "1", "focus_area_descr": "Inclusive Growth"}]}, {"title": "desarrollo de proveedores", "id": "00094801", "subnational": [{"outputID": "00098895", "output_locID": "00098895-1", "name": "Quito", "focus_area": "1", "lat": "-0.229850", "type": "PPLC", "awardID": "00094801", "lon": "-78.524950", "precision": "1", "focus_area_descr": "Inclusive Growth"}]}, {"title": "fuerza ecuador", "id": "00096096", "subnational": [{"outputID": "00100098", "output_locID": "00100098-1", "name": "Manabi", "focus_area": "1", "lat": "-0.666670", "type": "ADM1", "awardID": "00096096", "lon": "-80.083330", "precision": "1", "focus_area_descr": "Inclusive Growth"}, {"outputID": "00100098", "output_locID": "00100098-2", "name": "Provincia de Esmeraldas", "focus_area": "1", "lat": "0.833330", "type": "ADM1", "awardID": "00096096", "lon": "-79.250000", "precision": "1", "focus_area_descr": "Inclusive Growth"}]}, {"title": "contribuci\u00f3n al fortalecimiento de las capacidades institucionales y comunitarias del sndgr, a trav\u00e9s de la preparaci\u00f3n para la respuesta y recuperaci\u00f3n en caso de un evento de magnitud de inundaci\u00f3n o terremoto en la regi\u00f3n costera de ecuador", "id": "00096667", "subnational": [{"outputID": "00100621", "output_locID": "00100621-1", "name": "Quito", "focus_area": "5", "lat": "-0.229850", "type": "PPLC", "awardID": "00096667", "lon": "-78.524950", "precision": "1", "focus_area_descr": "Risk Reduction"}]}, {"title": "recuperaci\u00f3n de medios de vida \u2013 independiente del valle", "id": "00098699", "subnational": [{"outputID": "00101929", "output_locID": "00101929-1", "name": "Manabi", "focus_area": "6", "lat": "-0.666670", "type": "ADM1", "awardID": "00098699", "lon": "-80.083330", "precision": "1", "focus_area_descr": "Early Recovery"}, {"outputID": "00101929", "output_locID": "00101929-2", "name": "Provincia de Esmeraldas", "focus_area": "6", "lat": "0.833330", "type": "ADM1", "awardID": "00098699", "lon": "-79.250000", "precision": "1", "focus_area_descr": "Early Recovery"}]}, {"title": "hip medios de vida. acciones emergentes", "id": "00099408", "subnational": [{"outputID": "00102697", "output_locID": "00102697-1", "name": "Manabi", "focus_area": "6", "lat": "-0.666670", "type": "ADM1", "awardID": "00099408", "lon": "-80.083330", "precision": "1", "focus_area_descr": "Early Recovery"}, {"outputID": "00104430", "output_locID": "00104430-1", "name": "Manabi", "focus_area": "6", "lat": "-0.666670", "type": "ADM1", "awardID": "00099408", "lon": "-80.083330", "precision": "1", "focus_area_descr": "Early Recovery"}, {"outputID": "00104430", "output_locID": "00104430-2", "name": "Provincia de Esmeraldas", "focus_area": "6", "lat": "0.833330", "type": "ADM1", "awardID": "00099408", "lon": "-79.250000", "precision": "1", "focus_area_descr": "Early Recovery"}]}, {"title": "mecanismo de coordinaci\u00f3n pa\u00eds del ecuador.", "id": "00100021", "subnational": [{"outputID": "00103188", "output_locID": "00103188-1", "name": "Quito", "focus_area": "2", "lat": "-0.229850", "type": "PPLC", "awardID": "00100021", "lon": "-78.524950", "precision": "1", "focus_area_descr": "Democratic Governance"}]}, {"title": "green climate fund", "id": "00100778", "subnational": [{"outputID": "00103568", "output_locID": "00103568-1", "name": "Quito", "focus_area": "1", "lat": "-0.229850", "type": "PPLC", "awardID": "00100778", "lon": "-78.524950", "precision": "1", "focus_area_descr": "Inclusive Growth"}]}, {"title": "gef qu\u00edmicos y contaminantes", "id": "00100779", "subnational": []}, {"title": "full size gef amazonia", "id": "00100780", "subnational": [{"outputID": "00103570", "output_locID": "00103570-1", "name": "Quito", "focus_area": "1", "lat": "-0.229850", "type": "PPLC", "awardID": "00100780", "lon": "-78.524950", "precision": "1", "focus_area_descr": "Inclusive Growth"}]}, {"title": "articulaci\u00f3n del plan de desarrollo y ordenamiento territorial de distrito metropolitano de quito con la agenda 2030 de desarrollo sostenible.", "id": "00101729", "subnational": [{"outputID": "00104044", "output_locID": "00104044-1", "name": "Quito", "focus_area": "7", "lat": "-0.229850", "type": "PPLC", "awardID": "00101729", "lon": "-78.524950", "precision": "1", "focus_area_descr": "Thought Leadership"}]}, {"title": "programa de desarrollo econ\u00f3mico inclusivo", "id": "00101731", "subnational": [{"outputID": "00104046", "output_locID": "00104046-1", "name": "Quito", "focus_area": "1", "lat": "-0.229850", "type": "PPLC", "awardID": "00101731", "lon": "-78.524950", "precision": "1", "focus_area_descr": "Inclusive Growth"}]}, {"title": "readiness green climate fund", "id": "00101839", "subnational": []}, {"title": "apoyo en pol\u00edticas para los objetivos de desarrollo sostenible y la gobernabilidad democr\u00e1tica.", "id": "00101858", "subnational": [{"outputID": "00104122", "output_locID": "00104122-1", "name": "Quito", "focus_area": "2", "lat": "-0.229850", "type": "PPLC", "awardID": "00101858", "lon": "-78.524950", "precision": "1", "focus_area_descr": "Democratic Governance"}]}, {"title": "desarrollo econ\u00f3mico inclusivo", "id": "00104569", "subnational": [{"outputID": "00106067", "output_locID": "00106067-1", "name": "Quito", "focus_area": "-", "lat": "-0.229850", "type": "PPLC", "awardID": "00104569", "lon": "-78.524950", "precision": "1", "focus_area_descr": "-"}]}, {"title": "visi\u00f3n ibarra 2030", "id": "00104623", "subnational": [{"outputID": "00106122", "output_locID": "00106122-1", "name": "Ibarra", "focus_area": "2", "lat": "0.330390", "type": "ADM2", "awardID": "00104623", "lon": "-78.082650", "precision": "1", "focus_area_descr": "Democratic Governance"}]}, {"title": "iniciativa de pesquer\u00edas costeras", "id": "00104643", "subnational": []}, {"title": "tercer plan de inicio \u00e1rea de ambiente y energ\u00eda", "id": "00105802", "subnational": [{"outputID": "00106875", "output_locID": "00106875-1", "name": "Quito", "focus_area": "1", "lat": "-0.229850", "type": "PPLC", "awardID": "00105802", "lon": "-78.524950", "precision": "1", "focus_area_descr": "Inclusive Growth"}]}, {"title": "petroecuador - evaluaci\u00f3n t\u00e9cnica", "id": "00107271", "subnational": []}, {"title": "09engagement facility 2018", "id": "00110105", "subnational": []}, {"title": "sostenibilidad financiera de las areas protegidas", "id": "00059162", "subnational": [{"outputID": "00073902", "output_locID": "00073902-1", "name": "Quito", "focus_area": "1", "lat": "-0.229850", "type": "PPLC", "awardID": "00059162", "lon": "-78.524950", "precision": "1", "focus_area_descr": "Inclusive Growth"}]}, {"title": "tercera comunicacion nacional y reporte de actualizacion", "id": "00076778", "subnational": [{"outputID": "00087987", "output_locID": "00087987-1", "name": "Quito", "focus_area": "1", "lat": "-0.229850", "type": "PPLC", "awardID": "00076778", "lon": "-78.524950", "precision": "1", "focus_area_descr": "Inclusive Growth"}]}, {"title": "programa marco de desarrollo territorial", "id": "00085229", "subnational": [{"outputID": "00097568", "output_locID": "00097568-1", "name": "Quito", "focus_area": "1", "lat": "-0.229850", "type": "PPLC", "awardID": "00085229", "lon": "-78.524950", "precision": "1", "focus_area_descr": "Inclusive Growth"}]}, {"title": "proyecto en marcha conquito", "id": "00087095", "subnational": [{"outputID": "00097426", "output_locID": "00097426-1", "name": "Quito", "focus_area": "1", "lat": "-0.229850", "type": "PPLC", "awardID": "00087095", "lon": "-78.524950", "precision": "1", "focus_area_descr": "Inclusive Growth"}]}, {"title": "apoyo a la finalizaci\u00f3n de la fase de preparaci\u00f3n para redd+ en ecuador y arranque de la implementaci\u00f3n del marco de varsovia para redd+", "id": "00087176", "subnational": [{"outputID": "00094304", "output_locID": "00094304-1", "name": "Quito", "focus_area": "1", "lat": "-0.229850", "type": "PPLC", "awardID": "00087176", "lon": "-78.524950", "precision": "1", "focus_area_descr": "Inclusive Growth"}, {"outputID": "00094304", "output_locID": "00094304-2", "name": "Provincia del Pastaza", "focus_area": "1", "lat": "-1.666670", "type": "ADM1", "awardID": "00087176", "lon": "-76.833330", "precision": "1", "focus_area_descr": "Inclusive Growth"}, {"outputID": "00094304", "output_locID": "00094304-3", "name": "Provincia de Napo", "focus_area": "1", "lat": "-0.629150", "type": "ADM1", "awardID": "00087176", "lon": "-77.831640", "precision": "1", "focus_area_descr": "Inclusive Growth"}, {"outputID": "00094304", "output_locID": "00094304-4", "name": "Provincia de Morona-Santiago", "focus_area": "1", "lat": "-2.500000", "type": "ADM1", "awardID": "00087176", "lon": "-77.916670", "precision": "1", "focus_area_descr": "Inclusive Growth"}, {"outputID": "00094304", "output_locID": "00094304-5", "name": "Provincia de Esmeraldas", "focus_area": "1", "lat": "0.833330", "type": "ADM1", "awardID": "00087176", "lon": "-79.250000", "precision": "1", "focus_area_descr": "Inclusive Growth"}, {"outputID": "00094304", "output_locID": "00094304-6", "name": "Provincia de Sucumb\u00edos", "focus_area": "1", "lat": "0.100000", "type": "ADM1", "awardID": "00087176", "lon": "-76.866670", "precision": "1", "focus_area_descr": "Inclusive Growth"}, {"outputID": "00094304", "output_locID": "00094304-7", "name": "Provincia de Francisco de Orellana", "focus_area": "1", "lat": "-0.750000", "type": "ADM1", "awardID": "00087176", "lon": "-76.416670", "precision": "1", "focus_area_descr": "Inclusive Growth"}, {"outputID": "00094304", "output_locID": "00094304-8", "name": "Zamora", "focus_area": "1", "lat": "-4.157790", "type": "ADM3", "awardID": "00087176", "lon": "-79.001930", "precision": "1", "focus_area_descr": "Inclusive Growth"}]}, {"title": "elaboraci\u00f3n del plan estrat\u00e9gico integral de desarrollo de la zona especial de desarrollo econ\u00f3mico (zede): casos de negocio y servicios de acompa\u00f1amiento internacional", "id": "00089472", "subnational": [{"outputID": "00095693", "output_locID": "00095693-1", "name": "Quito", "focus_area": "1", "lat": "-0.229850", "type": "PPLC", "awardID": "00089472", "lon": "-78.524950", "precision": "1", "focus_area_descr": "Inclusive Growth"}]}, {"title": "insumos para la competitividad del distrito metropolitano de quito: elaboraci\u00f3n de agenda estrat\u00e9gica de innovaci\u00f3n.", "id": "00090163", "subnational": [{"outputID": "00096051", "output_locID": "00096051-1", "name": "Quito", "focus_area": "1", "lat": "-0.229850", "type": "PPLC", "awardID": "00090163", "lon": "-78.524950", "precision": "1", "focus_area_descr": "Inclusive Growth"}]}, {"title": "fase preparatoria quimicos", "id": "00094766", "subnational": [{"outputID": "00098854", "output_locID": "00098854-1", "name": "Quito", "focus_area": "1", "lat": "-0.229850", "type": "PPLC", "awardID": "00094766", "lon": "-78.524950", "precision": "1", "focus_area_descr": "Inclusive Growth"}]}, {"title": "segundo plan de inicio ambiente y energ\u00eda", "id": "00096153", "subnational": [{"outputID": "00100149", "output_locID": "00100149-1", "name": "Quito", "focus_area": "1", "lat": "-0.229850", "type": "PPLC", "awardID": "00096153", "lon": "-78.524950", "precision": "1", "focus_area_descr": "Inclusive Growth"}]}, {"title": "fortalecimiento de la aviacion civil", "id": "00012282", "subnational": [{"outputID": "00012282", "output_locID": "00012282-1", "name": "Quito", "focus_area": "-", "lat": "-0.229850", "type": "PPLC", "awardID": "00012282", "lon": "-78.524950", "precision": "1", "focus_area_descr": "-"}]}, {"title": "fortalecimiento municipio de guayaquil", "id": "00012295", "subnational": [{"outputID": "00012295", "output_locID": "00012295-1", "name": "Guayaquil", "focus_area": "5", "lat": "-2.205840", "type": "PPLA", "awardID": "00012295", "lon": "-79.907950", "precision": "1", "focus_area_descr": "Risk Reduction"}]}, {"title": "development advisory services das", "id": "00035873", "subnational": [{"outputID": "00038731", "output_locID": "00038731-1", "name": "Quito", "focus_area": "8", "lat": "-0.229850", "type": "PPLC", "awardID": "00035873", "lon": "-78.524950", "precision": "1", "focus_area_descr": "Organizational Results Area 1"}]}, {"title": "energ\u00eda renovable para generaci\u00f3n de energ\u00eda el\u00e9ctrica", "id": "00042428", "subnational": [{"outputID": "00048857", "output_locID": "00048857-1", "name": "Galapagos Islands", "focus_area": "1", "lat": "0.000000", "type": "ISLS", "awardID": "00042428", "lon": "-90.500000", "precision": "1", "focus_area_descr": "Inclusive Growth"}]}, {"title": "programa marco articulacion de redes territoriales", "id": "00050377", "subnational": [{"outputID": "00062201", "output_locID": "00062201-1", "name": "Quito", "focus_area": "3", "lat": "-0.229850", "type": "PPLC", "awardID": "00050377", "lon": "-78.524950", "precision": "1", "focus_area_descr": "Basic Services"}]}, {"title": "national biodiversity planning to support imp of cbd", "id": "00066333", "subnational": [{"outputID": "00082536", "output_locID": "00082536-1", "name": "Quito", "focus_area": "2", "lat": "-0.229850", "type": "PPLC", "awardID": "00066333", "lon": "-78.524950", "precision": "1", "focus_area_descr": "Democratic Governance"}]}, {"title": "apoyo al ecuador en el desarrollo de plan de acci\u00f3n naci", "id": "00080262", "subnational": []}, {"title": "agroparque industrial esmeraldas", "id": "00084877", "subnational": []}, {"title": "proyecto marco ambiente y energia", "id": "00087074", "subnational": []}, {"title": "proyecto pol\u00edgonos industriales", "id": "00087098", "subnational": [{"outputID": "00094244", "output_locID": "00094244-1", "name": "Quito", "focus_area": "1", "lat": "-0.229850", "type": "PPLC", "awardID": "00087098", "lon": "-78.524950", "precision": "1", "focus_area_descr": "Inclusive Growth"}]}, {"title": "fortalecimiento gobernabilidad", "id": "00088729", "subnational": []}, {"title": "fase preparatoria amazonia", "id": "00089047", "subnational": []}, {"title": "agenda 2030 y paz frontera norte", "id": "00096366", "subnational": []}, {"title": "paz y desarrollo en la frontera norte de ecuador", "id": "00045260", "subnational": []}, {"title": "adaptaci\u00f3n al cambio clim\u00e1tico en ecuador", "id": "00048331", "subnational": []}, {"title": "juventud, empleo y migracion en ecuador", "id": "00057619", "subnational": []}, {"title": "aportes al proceso de transformaci\u00f3n del estado", "id": "00059732", "subnational": []}, {"title": "programa nacional conjunto ecuador", "id": "00062135", "subnational": []}, {"title": "gesti\u00f3n integrada de los recursos h\u00eddricos", "id": "00073135", "subnational": []}, {"title": "dipecho 2013-2014", "id": "00074330", "subnational": []}, {"title": "conservaci\u00f3n de la biodiversidad de los anfibios", "id": "00077233", "subnational": []}, {"title": "global sustainable supply chains for marine commodities", "id": "00078984", "subnational": []}, {"title": "estimaci\u00f3n de vulnerabilidades a nivel cantonal", "id": "00061703", "subnational": []}, {"title": "ecoparque industrial zonal con enfoque de transformaci\u00f3n", "id": "00067641", "subnational": []}, {"title": "securing energy efficiency", "id": "00072777", "subnational": []}, {"title": "programa nacional de alimentaci\u00f3n y nutrici\u00f3n", "id": "00012283", "subnational": []}, {"title": "reforma iess", "id": "00012286", "subnational": []}, {"title": "especies invasoras en el archipi\u00e9lago de gal\u00e1pagos", "id": "00012293", "subnational": []}, {"title": "pims 928 bd pdfa cons'n in galapagos archipelago", "id": "00028101", "subnational": []}, {"title": "bases para un pacto fiscal para el desarrollo humano", "id": "00036581", "subnational": []}, {"title": "desarrollo humano sostenible en azuay", "id": "00037414", "subnational": []}, {"title": "segunda comunicaci\u00f3n nacional cambio clim\u00e1tico", "id": "00038616", "subnational": []}, {"title": "apoyo racionalizacion transporte publico en cuenca", "id": "00041248", "subnational": []}, {"title": "microempresas turisticas", "id": "00042779", "subnational": []}, {"title": "cadenas productivas", "id": "00046457", "subnational": []}, {"title": "fortalecimiento capacidades seteci", "id": "00050669", "subnational": []}, {"title": "proyecto de gobernabilidad del sector agua y saneamiento", "id": "00050961", "subnational": []}, {"title": "reduccion riesgo desastres  municipio quito", "id": "00051240", "subnational": []}, {"title": "information system at municipal level", "id": "00057865", "subnational": []}, {"title": "fortalecimiento de estructuras financieras locales", "id": "00057883", "subnational": []}, {"title": "respuestas multisectoriales al vih sida", "id": "00058297", "subnational": []}, {"title": "reduccion riesgos y preparacion situaciones emergencia", "id": "00060266", "subnational": []}, {"title": "conservaci\u00f3n de vida silvestre", "id": "00065940", "subnational": []}, {"title": "manejo ambientalmente correcto de bifenilos policlorados", "id": "00066762", "subnational": []}, {"title": "colacion escolar para mejorar educacion basica", "id": "00012278", "subnational": []}, {"title": "programa onusida ecuador", "id": "00037354", "subnational": []}, {"title": "corte suprema de justicia y altos tribunales", "id": "00040956", "subnational": []}, {"title": "estrategia de desarrollo humano en el marco de los odm", "id": "00041051", "subnational": []}, {"title": "fondo odms reserva bi\u00f3sfera yasuni - componente undp", "id": "00049406", "subnational": []}, {"title": "desarrollo y diversidad cultural para reducir la pobreza", "id": "00051348", "subnational": []}, {"title": "enfoque estrat\u00e9gico en productos qu\u00edmicos", "id": "00056656", "subnational": []}, {"title": "modelo de equilibrio general din\u00e1mico", "id": "00062062", "subnational": []}, {"title": "asistencia proceso post rio+20", "id": "00069467", "subnational": []}, {"title": "apoyo democracia, promocion debate y analisis del pais", "id": "00035705", "subnational": []}, {"title": "fortalecimiento red agencias desarrollo territorial", "id": "00059668", "subnational": []}, {"title": "participacion inclusiva, apoyo politicas publicas y odms", "id": "00051042", "subnational": []}, {"title": "rehabilitacion del litoral luego de las inundaciones", "id": "00049990", "subnational": []}, {"title": "sustainable financing of ecuador's national system", "id": "00057640", "subnational": []}, {"title": "volunteers- disaster risk reduction", "id": "00057495", "subnational": []}], "op_unit": "ECU"}