{"iso_num":"818","op_unit":"EGY","projects":[{"id":"00058179","subnational":[{"awardID":"00058179","focus_area":"2","focus_area_descr":"Democratic governance","lat":"30.06263","lon":"31.24967","name":"Cairo","outputID":"00072158","output_locID":"00072158-1","precision":"3","type":"PPLC"},{"awardID":"00058179","focus_area":"2","focus_area_descr":"Democratic governance","lat":"30.06263","lon":"31.24967","name":"Cairo","outputID":"00080857","output_locID":"00080857-1","precision":"3","type":"PPLC"}],"title":"Abandon Female Genital Mutilation & Empower Families"},{"id":"00057676","subnational":[{"awardID":"00057676","focus_area":"4","focus_area_descr":"Environment & sustainable development","lat":"31.21564","lon":"29.95527","name":"Alexandria","outputID":"00071359","output_locID":"00071359-1","precision":"3","type":"PPLA"},{"awardID":"00057676","focus_area":"4","focus_area_descr":"Environment & sustainable development","lat":"31.41648","lon":"31.81332","name":"Damietta","outputID":"00071359","output_locID":"00071359-2","precision":"3","type":"PPLA"},{"awardID":"00057676","focus_area":"4","focus_area_descr":"Environment & sustainable development","lat":"31.25654","lon":"32.28412","name":"Port Said","outputID":"00071359","output_locID":"00071359-3","precision":"3","type":"PPLA"},{"awardID":"00057676","focus_area":"4","focus_area_descr":"Environment & sustainable development","lat":"31.40444","lon":"30.41639","name":"Rosetta","outputID":"00071359","output_locID":"00071359-4","precision":"3","type":"PPL"},{"awardID":"00057676","focus_area":"4","focus_area_descr":"Environment & sustainable development","lat":"30.6","lon":"30.2","name":"Behaira","outputID":"00071359","output_locID":"00071359-5","precision":"4","type":"ADM1"}],"title":"Adaptation to Climate Change in the Nile Delta"},{"id":"00045899","subnational":[{"awardID":"00045899","focus_area":"4","focus_area_descr":"Environment & sustainable development","lat":"31.21564","lon":"29.95527","name":"Alexandria","outputID":"00054347","output_locID":"00054347-1","precision":"3","type":"PPLA"},{"awardID":"00045899","focus_area":"4","focus_area_descr":"Environment & sustainable development","lat":"27.18096","lon":"31.18368","name":"Assuit","outputID":"00054347","output_locID":"00054347-2","precision":"3","type":"PPLA"},{"awardID":"00045899","focus_area":"4","focus_area_descr":"Environment & sustainable development","lat":"29.30995","lon":"30.8418","name":"Fayoum","outputID":"00054347","output_locID":"00054347-3","precision":"3","type":"PPLA"},{"awardID":"00045899","focus_area":"4","focus_area_descr":"Environment & sustainable development","lat":"30.00808","lon":"31.21093","name":"Giza","outputID":"00054347","output_locID":"00054347-4","precision":"3","type":"PPLA"},{"awardID":"00045899","focus_area":"4","focus_area_descr":"Environment & sustainable development","lat":"30.3","lon":"31.25","name":"Kalyubia","outputID":"00054347","output_locID":"00054347-5","precision":"4","type":"ADM1"}],"title":"BioEnergy for Sustainable Rural Development: FSP"},{"id":"00057142","subnational":[{"awardID":"00057142","focus_area":"2","focus_area_descr":"Democratic governance","lat":"30.06263","lon":"31.24967","name":"Cairo","outputID":"00070488","output_locID":"00070488-1","precision":"3","type":"PPLC"}],"title":"Capacity Building for Crisis, Disaster&Risk Management"},{"id":"00048176","subnational":[{"awardID":"00048176","focus_area":"4","focus_area_descr":"Environment & sustainable development","lat":"30.06263","lon":"31.24967","name":"Egypt","outputID":"00058197","output_locID":"00058197-1","precision":"9","type":"PCL"}],"title":"Climate Change Risk Management Programme in Egypt"},{"id":"00031368","subnational":[{"awardID":"00031368","focus_area":"-","focus_area_descr":"-","lat":"30.06263","lon":"31.24967","name":"Egypt","outputID":"00031457","output_locID":"00031457-1","precision":"9","type":"PCL"}],"title":"Consolidation of Oper.Unit for Dev Assist Secretariat"},{"id":"00076444","subnational":[{"awardID":"00076444","focus_area":"-","focus_area_descr":"-","lat":"26.16418","lon":"32.72671","name":"Qena","outputID":"00087829","output_locID":"00087829-1","precision":"3","type":"PPLA"}],"title":"Egypt Network for Integrated Development (ENID)"},{"id":"00066194","subnational":[{"awardID":"00066194","focus_area":"1","focus_area_descr":"Poverty reduction & MDG achievement","lat":"29.30995","lon":"30.8418","name":"Fayoum","outputID":"00082406","output_locID":"00082406-1","precision":"3","type":"PPLA"},{"awardID":"00066194","focus_area":"1","focus_area_descr":"Poverty reduction & MDG achievement","lat":"26.55695","lon":"31.69478","name":"Sohag","outputID":"00082406","output_locID":"00082406-2","precision":"3","type":"PPLA"},{"awardID":"00066194","focus_area":"1","focus_area_descr":"Poverty reduction & MDG achievement","lat":"25.69893","lon":"32.6421","name":"Luxor","outputID":"00082406","output_locID":"00082406-3","precision":"3","type":"PPLA"},{"awardID":"00066194","focus_area":"1","focus_area_descr":"Poverty reduction & MDG achievement","lat":"28.10988","lon":"30.7503","name":"Minya","outputID":"00082406","output_locID":"00082406-4","precision":"3","type":"PPLA"},{"awardID":"00066194","focus_area":"1","focus_area_descr":"Poverty reduction & MDG achievement","lat":"26.16418","lon":"32.72671","name":"Qena","outputID":"00082406","output_locID":"00082406-5","precision":"3","type":"PPLA"},{"awardID":"00066194","focus_area":"1","focus_area_descr":"Poverty reduction & MDG achievement","lat":"30.58768","lon":"31.502","name":"Sharkia","outputID":"00082406","output_locID":"00082406-6","precision":"3","type":"PPLA"}],"title":"Employment Creation in innovative public work programs"},{"id":"00045558","subnational":[{"awardID":"00045558","focus_area":"-","focus_area_descr":"-","lat":"30.07203","lon":"31.0219","name":"Smart Village, Cairo","outputID":"00053834","output_locID":"00053834-1","precision":"3","type":"PPL"}],"title":"Empowering &Connecting the Community through Technology"},{"id":"00060083","subnational":[{"awardID":"00060083","focus_area":"2","focus_area_descr":"Democratic governance","lat":"30.06263","lon":"31.24967","name":"Cairo","outputID":"00075466","output_locID":"00075466-1","precision":"3","type":"PPLC"}],"title":"Enhance Efficiency &Accountability of the Public Sector"},{"id":"00069984","subnational":[{"awardID":"00069984","focus_area":"-","focus_area_descr":"-","lat":"30.06263","lon":"31.24967","name":"Egypt","outputID":"00084234","output_locID":"00084234-1","precision":"9","type":"PCL"}],"title":"Enhancing Access to Knowledge for Development"},{"id":"00072826","subnational":[{"awardID":"00072826","focus_area":"-","focus_area_descr":"-","lat":"30.06263","lon":"31.24967","name":"Egypt","outputID":"00085852","output_locID":"00085852-1","precision":"9","type":"PCL"}],"title":"Grid-Connected Small-Scale Photovoltaic Systems"},{"id":"00048455","subnational":[{"awardID":"00048455","focus_area":"-","focus_area_descr":"-","lat":"30.06263","lon":"31.24967","name":"Egypt","outputID":"00058627","output_locID":"00058627-1","precision":"9","type":"PCL"}],"title":"Groundwater in Nile Countries"},{"id":"00056483","subnational":[{"awardID":"00056483","focus_area":"1","focus_area_descr":"Poverty reduction & MDG achievement","lat":"30.06263","lon":"31.24967","name":"Egypt","outputID":"00069144","output_locID":"00069144-1","precision":"9","type":"PCL"}],"title":"Growing Sustainable Business for Poverty Reduction"},{"id":"00069985","subnational":[{"awardID":"00069985","focus_area":"-","focus_area_descr":"-","lat":"30.06263","lon":"31.24967","name":"Cairo","outputID":"00085935","output_locID":"00085935-1","precision":"3","type":"PPLC"}],"title":"ICT for Comprehensive Community Development"},{"id":"00012326","subnational":[{"awardID":"00012326","focus_area":"-","focus_area_descr":"-","lat":"30.06263","lon":"31.24967","name":"Egypt","outputID":"00012326","output_locID":"00012326-1","precision":"9","type":"PCL"}],"title":"Improving Energy Efficiency and Greenhouse Gas Reduction"},{"id":"00060162","subnational":[{"awardID":"00060162","focus_area":"4","focus_area_descr":"Environment & sustainable development","lat":"30.06263","lon":"31.24967","name":"Egypt","outputID":"00075645","output_locID":"00075645-1","precision":"9","type":"PCL"}],"title":"ImprovingEnergyEfficiency ofLighting&Building Appliances"},{"id":"00045170","subnational":[{"awardID":"00045170","focus_area":"1","focus_area_descr":"Poverty reduction & MDG achievement","lat":"30.06263","lon":"31.24967","name":"Egypt","outputID":"00053303","output_locID":"00053303-1","precision":"9","type":"PCL"}],"title":"Information&Communication Technology in Small Businesses"},{"id":"00042056","subnational":[{"awardID":"00042056","focus_area":"-","focus_area_descr":"-","lat":"30.06263","lon":"31.24967","name":"Egypt","outputID":"00048136","output_locID":"00048136-1","precision":"9","type":"PCL"}],"title":"Integrated Management of Shared Nubian Aquifer"},{"id":"00067246","subnational":[{"awardID":"00067246","focus_area":"2","focus_area_descr":"Democratic governance","lat":"30.06263","lon":"31.24967","name":"Cairo","outputID":"00083131","output_locID":"00083131-1","precision":"3","type":"PPLC"}],"title":"Integrating Human Rights in Higher Education"},{"id":"00073186","subnational":[{"awardID":"00073186","focus_area":"-","focus_area_descr":"-","lat":"30.06263","lon":"31.24967","name":"Egypt","outputID":"00086139","output_locID":"00086139-1","precision":"9","type":"PCL"}],"title":"Mainstream Biodiversity into Tourism"},{"id":"00050281","subnational":[{"awardID":"00050281","focus_area":"4","focus_area_descr":"Environment & sustainable development","lat":"30.06263","lon":"31.24967","name":"Egypt","outputID":"00062038","output_locID":"00062038-1","precision":"9","type":"PCL"}],"title":"Mainstreaming Environment into National Plans"},{"id":"00057799","subnational":[{"awardID":"00057799","focus_area":"1","focus_area_descr":"Poverty reduction & MDG achievement","lat":"30.06263","lon":"31.24967","name":"Cairo","outputID":"00071534","output_locID":"00071534-1","precision":"3","type":"PPLC"}],"title":"MDG Awareness & Research Initivative - Cairo University"},{"id":"00012347","subnational":[{"awardID":"00012347","focus_area":"4","focus_area_descr":"Environment & sustainable development","lat":"28.51","lon":"33.95463","name":"Saint Katherine","outputID":"00012347","output_locID":"00012347-1","precision":"4","type":"RES"}],"title":"Medicinal Plants Conservation Project"},{"id":"00048469","subnational":[{"awardID":"00048469","focus_area":"1","focus_area_descr":"Poverty reduction & MDG achievement","lat":"29.75","lon":"31.23333","name":"Dahshur","outputID":"00058644","output_locID":"00058644-1","precision":"3","type":"PPL"},{"awardID":"00048469","focus_area":"1","focus_area_descr":"Poverty reduction & MDG achievement","lat":"29.86667","lon":"31.25","name":"Memphis","outputID":"00058644","output_locID":"00058644-2","precision":"3","type":"PPL"},{"awardID":"00048469","focus_area":"1","focus_area_descr":"Poverty reduction & MDG achievement","lat":"25.73333","lon":"32.6","name":"Necropolis","outputID":"00058644","output_locID":"00058644-3","precision":"3","type":"PPL"}],"title":"Mobilization of the Dahs World Heritage Site for Com dev"},{"id":"00067080","subnational":[{"awardID":"00067080","focus_area":"4","focus_area_descr":"Environment & sustainable development","lat":"30.06263","lon":"31.24967","name":"Egypt","outputID":"00083008","output_locID":"00083008-1","precision":"9","type":"PCL"}],"title":"National Biodiversity Strategy and Action Plan"},{"id":"00049649","subnational":[{"awardID":"00049649","focus_area":"1","focus_area_descr":"Poverty reduction & MDG achievement","lat":"30.06263","lon":"31.24967","name":"Cairo","outputID":"00060701","output_locID":"00060701-1","precision":"3","type":"PPLC"}],"title":"National CSR and Global Compact Center"},{"id":"00012375","subnational":[{"awardID":"00012375","focus_area":"1","focus_area_descr":"Poverty reduction & MDG achievement","lat":"30.06263","lon":"31.24967","name":"Egypt","outputID":"00012375","output_locID":"00012375-1","precision":"9","type":"PCL"}],"title":"National Human Dev. Report Project"},{"id":"00047913","subnational":[{"awardID":"00047913","focus_area":"1","focus_area_descr":"Poverty reduction & MDG achievement","lat":"30.00808","lon":"31.21093","name":"Giza","outputID":"00057830","output_locID":"00057830-1","precision":"3","type":"PPLA"}],"title":"Outreach Support to National Telecommunication Institute"},{"id":"00058215","subnational":[{"awardID":"00058215","focus_area":"4","focus_area_descr":"Environment & sustainable development","lat":"30.06263","lon":"31.24967","name":"Cairo","outputID":"00072223","output_locID":"00072223-1","precision":"3","type":"PPLC"}],"title":"Ozone Depleting Subtances"},{"id":"00044434","subnational":[{"awardID":"00044434","focus_area":"-","focus_area_descr":"-","lat":"25.65","lon":"30.63333","name":"El Sahel","outputID":"00052243","output_locID":"00052243-1","precision":"4","type":"RES"}],"title":"Participaotry & Intrgated Health & Urban Development"},{"id":"00061637","subnational":[{"awardID":"00061637","focus_area":"4","focus_area_descr":"Environment & sustainable development","lat":"30.06263","lon":"31.24967","name":"Cairo","outputID":"00078164","output_locID":"00078164-1","precision":"3","type":"PPLC"}],"title":"Phase-out of HydroChloroFluoroCarbons in Egypt Foam Sect"},{"id":"00057097","subnational":[{"awardID":"00057097","focus_area":"1","focus_area_descr":"Poverty reduction & MDG achievement","lat":"27.18096","lon":"31.18368","name":"Assiut","outputID":"00070412","output_locID":"00070412-1","precision":"3","type":"PPLA"},{"awardID":"00057097","focus_area":"1","focus_area_descr":"Poverty reduction & MDG achievement","lat":"29.07441","lon":"31.09785","name":"Beni Suef","outputID":"00070412","output_locID":"00070412-2","precision":"3","type":"PPLA"},{"awardID":"00057097","focus_area":"1","focus_area_descr":"Poverty reduction & MDG achievement","lat":"28.10988","lon":"30.7503","name":"Minya","outputID":"00070412","output_locID":"00070412-3","precision":"3","type":"PPLA"},{"awardID":"00057097","focus_area":"1","focus_area_descr":"Poverty reduction & MDG achievement","lat":"26.16418","lon":"32.72671","name":"Qena","outputID":"00070412","output_locID":"00070412-4","precision":"3","type":"PPLA"},{"awardID":"00057097","focus_area":"1","focus_area_descr":"Poverty reduction & MDG achievement","lat":"26.55695","lon":"31.69478","name":"Sohag","outputID":"00070412","output_locID":"00070412-5","precision":"3","type":"PPLA"}],"title":"Pro-Poor Horticulture Value Chains in Upper Egypt"},{"id":"00031641","subnational":[{"awardID":"00031641","focus_area":"-","focus_area_descr":"-","lat":"30.06263","lon":"31.24967","name":"Egypt","outputID":"00031817","output_locID":"00031817-1","precision":"9","type":"PCL"}],"title":"Project Implementation Services by Opert.Unit for Dev.As"},{"id":"00073119","subnational":[{"awardID":"00073119","focus_area":"-","focus_area_descr":"-","lat":"30.06263","lon":"31.24967","name":"Egypt","outputID":"00086076","output_locID":"00086076-1","precision":"9","type":"PCL"}],"title":"Protecting Human Health and the Env from POPs"},{"id":"00064373","subnational":[{"awardID":"00064373","focus_area":"-","focus_area_descr":"-","lat":"30.06263","lon":"31.24967","name":"Cairo","outputID":"00081213","output_locID":"00081213-1","precision":"3","type":"PPLC"}],"title":"Regional Basel Convention Center"},{"id":"00056761","subnational":[{"awardID":"00056761","focus_area":"2","focus_area_descr":"Democratic governance","lat":"31.21564","lon":"29.95527","name":"Alexandria","outputID":"00069670","output_locID":"00069670-1","precision":"3","type":"PPLA"},{"awardID":"00056761","focus_area":"2","focus_area_descr":"Democratic governance","lat":"27.18096","lon":"31.18368","name":"Assiout","outputID":"00069670","output_locID":"00069670-2","precision":"3","type":"PPLA"},{"awardID":"00056761","focus_area":"2","focus_area_descr":"Democratic governance","lat":"24.09343","lon":"32.90704","name":"Aswan","outputID":"00069670","output_locID":"00069670-3","precision":"3","type":"PPLA"},{"awardID":"00056761","focus_area":"2","focus_area_descr":"Democratic governance","lat":"30.93055","lon":"31.69864","name":"Awlad Saqr","outputID":"00069670","output_locID":"00069670-4","precision":"3","type":"PPL"},{"awardID":"00056761","focus_area":"2","focus_area_descr":"Democratic governance","lat":"29.07441","lon":"31.09785","name":"Beni Suef","outputID":"00069670","output_locID":"00069670-5","precision":"3","type":"PPLA"},{"awardID":"00056761","focus_area":"2","focus_area_descr":"Democratic governance","lat":"29.30995","lon":"30.8418","name":"Fayoum","outputID":"00069670","output_locID":"00069670-6","precision":"3","type":"PPLA"},{"awardID":"00056761","focus_area":"2","focus_area_descr":"Democratic governance","lat":"28.10988","lon":"30.7503","name":"Minia","outputID":"00069670","output_locID":"00069670-7","precision":"3","type":"PPLA"},{"awardID":"00056761","focus_area":"2","focus_area_descr":"Democratic governance","lat":"31.25654","lon":"32.28412","name":"Port Said","outputID":"00069670","output_locID":"00069670-8","precision":"3","type":"PPLA"},{"awardID":"00056761","focus_area":"2","focus_area_descr":"Democratic governance","lat":"29.97371","lon":"32.52627","name":"Suez","outputID":"00069670","output_locID":"00069670-9","precision":"3","type":"PPLA"},{"awardID":"00056761","focus_area":"2","focus_area_descr":"Democratic governance","lat":"30.7142","lon":"31.24425","name":"Zifta","outputID":"00069670","output_locID":"00069670-10","precision":"3","type":"PPL"},{"awardID":"00056761","focus_area":"2","focus_area_descr":"Democratic governance","lat":"30.7","lon":"31.8","name":"Sharkia","outputID":"00069670","output_locID":"00069670-11","precision":"4","type":"ADM1"},{"awardID":"00056761","focus_area":"2","focus_area_descr":"Democratic governance","lat":"28.53914","lon":"33.97496","name":"Sinai","outputID":"00069670","output_locID":"00069670-12","precision":"4","type":"RES"}],"title":"Regional, National & Governorate Strategic Planning SPAD"},{"id":"00049298","subnational":[{"awardID":"00049298","focus_area":"4","focus_area_descr":"Environment & sustainable development","lat":"30.06263","lon":"31.24967","name":"Egypt","outputID":"00060021","output_locID":"00060021-1","precision":"9","type":"PCL"}],"title":"SOARING BIRDS FSP (Egypt Component)"},{"id":"00045653","subnational":[{"awardID":"00045653","focus_area":"1","focus_area_descr":"Poverty reduction & MDG achievement","lat":"30.06263","lon":"31.24967","name":"Cairo","outputID":"00053972","output_locID":"00053972-1","precision":"3","type":"PPLC"},{"awardID":"00045653","focus_area":"1","focus_area_descr":"Poverty reduction & MDG achievement","lat":"30.06263","lon":"31.24967","name":"Egypt","outputID":"00070132","output_locID":"00070132-1","precision":"9","type":"PCL"}],"title":"Social Contract Advisory, Monitoring and Coord. Center"},{"id":"00049150","subnational":[{"awardID":"00049150","focus_area":"1","focus_area_descr":"Poverty reduction & MDG achievement","lat":"30.06263","lon":"31.24967","name":"Egypt","outputID":"00059735","output_locID":"00059735-1","precision":"9","type":"PCL"}],"title":"Social Fund for Development - Phase IV"},{"id":"00060199","subnational":[{"awardID":"00060199","focus_area":"4","focus_area_descr":"Environment & sustainable development","lat":"28.10988","lon":"30.7503","name":"Minya","outputID":"00075697","output_locID":"00075697-1","precision":"3","type":"PPLA"}],"title":"Solid Waste Management in Minya - Phase II"},{"id":"00012357","subnational":[{"awardID":"00012357","focus_area":"2","focus_area_descr":"Democratic governance","lat":"25.69893","lon":"32.6421","name":"Luxor","outputID":"00048331","output_locID":"00048331-1","precision":"3","type":"PPLA"}],"title":"Strategic Dev. Plan of Southern Egypt (New Valley)"},{"id":"00047162","subnational":[{"awardID":"00047162","focus_area":"2","focus_area_descr":"Democratic governance","lat":"30.06263","lon":"31.24967","name":"Cairo","outputID":"00056471","output_locID":"00056471-1","precision":"3","type":"PPLC"},{"awardID":"00047162","focus_area":"2","focus_area_descr":"Democratic governance","lat":"30.00808","lon":"31.21093","name":"Giza","outputID":"00056471","output_locID":"00056471-2","precision":"3","type":"PPLA"},{"awardID":"00047162","focus_area":"2","focus_area_descr":"Democratic governance","lat":"30.12511","lon":"31.25053","name":"Shubra El Kheima","outputID":"00056471","output_locID":"00056471-3","precision":"3","type":"PPL"}],"title":"Strategic Urban Dev. Plan for Greater Cairo Region"},{"id":"00058428","subnational":[{"awardID":"00058428","focus_area":"2","focus_area_descr":"Democratic governance","lat":"31.21564","lon":"29.95527","name":"Alexandria","outputID":"00072587","output_locID":"00072587-1","precision":"3","type":"PPLA"}],"title":"Strategic Urban Planning for Alexandria City till 2032"},{"id":"00060771","subnational":[{"awardID":"00060771","focus_area":"2","focus_area_descr":"Democratic governance","lat":"30.06263","lon":"31.24967","name":"Cairo","outputID":"00076659","output_locID":"00076659-1","precision":"3","type":"PPLC"}],"title":"Strengthening Capacities for Results Based Management"},{"id":"00044225","subnational":[{"awardID":"00044225","focus_area":"1","focus_area_descr":"Poverty reduction & MDG achievement","lat":"30.06263","lon":"31.24967","name":"Egypt","outputID":"00051879","output_locID":"00051879-1","precision":"9","type":"PCL"}],"title":"Strengthening capacity of Ministry of Social Solidarity"},{"id":"00062430","subnational":[{"awardID":"00062430","focus_area":"2","focus_area_descr":"Democratic governance","lat":"30.06263","lon":"31.24967","name":"Egypt","outputID":"00083566","output_locID":"00083566-1","precision":"9","type":"PCL"},{"awardID":"00062430","focus_area":"2","focus_area_descr":"Democratic governance","lat":"30.06263","lon":"31.24967","name":"Egypt","outputID":"00079914","output_locID":"00079914-1","precision":"9","type":"PCL"}],"title":"Strengthening of the Democratic Process in Egypt"},{"id":"00057529","subnational":[{"awardID":"00057529","focus_area":"4","focus_area_descr":"Environment & sustainable development","lat":"28","lon":"32","name":"Arabian Desert","outputID":"00071131","output_locID":"00071131-1","precision":"4","type":"RES"},{"awardID":"00057529","focus_area":"4","focus_area_descr":"Environment & sustainable development","lat":"27.0568","lon":"27.96979","name":"Farafra","outputID":"00071131","output_locID":"00071131-2","precision":"3","type":"PPL"},{"awardID":"00057529","focus_area":"4","focus_area_descr":"Environment & sustainable development","lat":"30.72304","lon":"31.04846","name":"Ghazal","outputID":"00071131","output_locID":"00071131-3","precision":"3","type":"PPL"},{"awardID":"00057529","focus_area":"4","focus_area_descr":"Environment & sustainable development","lat":"27.25738","lon":"33.81291","name":"Hurghada","outputID":"00071131","output_locID":"00071131-4","precision":"3","type":"PPLA"},{"awardID":"00057529","focus_area":"4","focus_area_descr":"Environment & sustainable development","lat":"29.9782","lon":"31.2332","name":"Maadi Cornish","outputID":"00071131","output_locID":"00071131-5","precision":"3","type":"PPL"},{"awardID":"00057529","focus_area":"4","focus_area_descr":"Environment & sustainable development","lat":"28.06958","lon":"34.42654","name":"Nabq","outputID":"00071131","output_locID":"00071131-6","precision":"3","type":"PPL"},{"awardID":"00057529","focus_area":"4","focus_area_descr":"Environment & sustainable development","lat":"27.73251","lon":"34.25904","name":"Ras Mohammad","outputID":"00071131","output_locID":"00071131-7","precision":"3","type":"PPL"},{"awardID":"00057529","focus_area":"4","focus_area_descr":"Environment & sustainable development","lat":"28.98224","lon":"31.04981","name":"Sannur","outputID":"00071131","output_locID":"00071131-8","precision":"3","type":"PPL"},{"awardID":"00057529","focus_area":"4","focus_area_descr":"Environment & sustainable development","lat":"27.8","lon":"30.83333","name":"Sidi Muhammad al Ahrash","outputID":"00071131","output_locID":"00071131-9","precision":"3","type":"PPL"},{"awardID":"00057529","focus_area":"4","focus_area_descr":"Environment & sustainable development","lat":"29.49199","lon":"34.89572","name":"Taba","outputID":"00071131","output_locID":"00071131-10","precision":"3","type":"PPL"},{"awardID":"00057529","focus_area":"4","focus_area_descr":"Environment & sustainable development","lat":"28.62478","lon":"34.57443","name":"Abu Galum","outputID":"00071131","output_locID":"00071131-11","precision":"4","type":"RES"},{"awardID":"00057529","focus_area":"4","focus_area_descr":"Environment & sustainable development","lat":"31.28528","lon":"32.19167","name":"Ashtum El Gamil","outputID":"00071131","output_locID":"00071131-12","precision":"4","type":"RES"},{"awardID":"00057529","focus_area":"4","focus_area_descr":"Environment & sustainable development","lat":"31.47722","lon":"30.85228","name":"Burullus","outputID":"00071131","output_locID":"00071131-13","precision":"4","type":"RES"},{"awardID":"00057529","focus_area":"4","focus_area_descr":"Environment & sustainable development","lat":"22.2","lon":"36.33333","name":"Elba","outputID":"00071131","output_locID":"00071131-14","precision":"4","type":"RES"},{"awardID":"00057529","focus_area":"4","focus_area_descr":"Environment & sustainable development","lat":"30.5218","lon":"33.79145","name":"Hassana","outputID":"00071131","output_locID":"00071131-15","precision":"4","type":"RES"},{"awardID":"00057529","focus_area":"4","focus_area_descr":"Environment & sustainable development","lat":"30.9","lon":"29.38333","name":"Maadi","outputID":"00071131","output_locID":"00071131-16","precision":"4","type":"RES"},{"awardID":"00057529","focus_area":"4","focus_area_descr":"Environment & sustainable development","lat":"27.18624","lon":"33.78845","name":"Red Sea","outputID":"00071131","output_locID":"00071131-17","precision":"4","type":"ADM1"},{"awardID":"00057529","focus_area":"4","focus_area_descr":"Environment & sustainable development","lat":"24.0724","lon":"32.86565","name":"Saluga","outputID":"00071131","output_locID":"00071131-18","precision":"4","type":"RES"},{"awardID":"00057529","focus_area":"4","focus_area_descr":"Environment & sustainable development","lat":"29.19226","lon":"25.52753","name":"Siwa","outputID":"00071131","output_locID":"00071131-19","precision":"4","type":"RES"},{"awardID":"00057529","focus_area":"4","focus_area_descr":"Environment & sustainable development","lat":"28.51","lon":"33.95463","name":"St. Katherine","outputID":"00071131","output_locID":"00071131-20","precision":"4","type":"RES"},{"awardID":"00057529","focus_area":"4","focus_area_descr":"Environment & sustainable development","lat":"22.96667","lon":"32.9","name":"Wadi Allaqi","outputID":"00071131","output_locID":"00071131-21","precision":"4","type":"RES"},{"awardID":"00057529","focus_area":"4","focus_area_descr":"Environment & sustainable development","lat":"29.15","lon":"30.41667","name":"Wadi El Rayan","outputID":"00071131","output_locID":"00071131-22","precision":"4","type":"RES"},{"awardID":"00057529","focus_area":"4","focus_area_descr":"Environment & sustainable development","lat":"30.69651","lon":"33.97038","name":"Zaranik","outputID":"00071131","output_locID":"00071131-23","precision":"4","type":"RES"}],"title":"Strengthening Protected Areas Finance&Mgmt Systems"},{"id":"00050062","subnational":[{"awardID":"00050062","focus_area":"2","focus_area_descr":"Democratic governance","lat":"30.06263","lon":"31.24967","name":"Cairo","outputID":"00061621","output_locID":"00061621-1","precision":"3","type":"PPLC"}],"title":"Strengthening the Capacity of the CCCPA"},{"id":"00056788","subnational":[{"awardID":"00056788","focus_area":"2","focus_area_descr":"Democratic governance","lat":"30.06263","lon":"31.24967","name":"Cairo","outputID":"00069730","output_locID":"00069730-1","precision":"3","type":"PPLC"}],"title":"Strengthening Transparency & Integrity in Civil Service"},{"id":"00044541","subnational":[{"awardID":"00044541","focus_area":"2","focus_area_descr":"Democratic governance","lat":"30.06263","lon":"31.24967","name":"Cairo","outputID":"00072481","output_locID":"00072481-1","precision":"3","type":"PPLC"},{"awardID":"00044541","focus_area":"-","focus_area_descr":"-","lat":"29.07441","lon":"31.09785","name":"Beni Suef","outputID":"00052432","output_locID":"00052432-1","precision":"3","type":"PPLA"},{"awardID":"00044541","focus_area":"-","focus_area_descr":"-","lat":"30.06263","lon":"31.24967","name":"Cairo","outputID":"00052432","output_locID":"00052432-2","precision":"3","type":"PPLC"},{"awardID":"00044541","focus_area":"-","focus_area_descr":"-","lat":"29.97371","lon":"32.52627","name":"Suez","outputID":"00052432","output_locID":"00052432-3","precision":"3","type":"PPLA"}],"title":"Support legal Aid & Dispute settlement in Family Courts"},{"id":"00065184","subnational":[{"awardID":"00065184","focus_area":"4","focus_area_descr":"Environment & sustainable development","lat":"29.2032","lon":"25.51965","name":"Siwa","outputID":"00081800","output_locID":"00081800-1","precision":"3","type":"PPL"}],"title":"Support to Egyptian Protected Areas"},{"id":"00040473","subnational":[{"awardID":"00040473","focus_area":"2","focus_area_descr":"Democratic governance","lat":"30.06263","lon":"31.24967","name":"Cairo","outputID":"00048830","output_locID":"00048830-1","precision":"3","type":"PPLC"}],"title":"Support to modernization of Egypt Post"},{"id":"00057242","subnational":[{"awardID":"00057242","focus_area":"2","focus_area_descr":"Democratic governance","lat":"30.06263","lon":"31.24967","name":"Cairo","outputID":"00070642","output_locID":"00070642-1","precision":"3","type":"PPLC"}],"title":"Support to National Council for Human Righhts -INSAN II"},{"id":"00057704","subnational":[{"awardID":"00057704","focus_area":"1","focus_area_descr":"Poverty reduction & MDG achievement","lat":"30.06263","lon":"31.24967","name":"Cairo","outputID":"00071399","output_locID":"00071399-1","precision":"3","type":"PPLC"}],"title":"Support to Pension Fund and Fiscal Policy Reform"},{"id":"00071852","subnational":[{"awardID":"00071852","focus_area":"-","focus_area_descr":"-","lat":"30.06263","lon":"31.24967","name":"Cairo","outputID":"00085106","output_locID":"00085106-1","precision":"3","type":"PPLC"},{"awardID":"00071852","focus_area":"-","focus_area_descr":"-","lat":"30.06263","lon":"31.24967","name":"Cairo","outputID":"00085107","output_locID":"00085107-1","precision":"3","type":"PPLC"},{"awardID":"00071852","focus_area":"-","focus_area_descr":"-","lat":"30.06263","lon":"31.24967","name":"Cairo","outputID":"00085108","output_locID":"00085108-1","precision":"3","type":"PPLC"}],"title":"Support to the Modern. of the Egyptian POST Ph. II"},{"id":"00072087","subnational":[{"awardID":"00072087","focus_area":"2","focus_area_descr":"Democratic governance","lat":"30.06263","lon":"31.24967","name":"Egypt","outputID":"00085307","output_locID":"00085307-1","precision":"9","type":"PCL"}],"title":"Support to the NCCCC"},{"id":"00032144","subnational":[],"title":"Support to UN Coordination"},{"id":"00045519","subnational":[{"awardID":"00045519","focus_area":"1","focus_area_descr":"Poverty reduction & MDG achievement","lat":"30.07203","lon":"31.0219","name":"Smart Village, Cairo","outputID":"00053786","output_locID":"00053786-1","precision":"3","type":"PPL"}],"title":"Support2Egyptian Education Initiative"},{"id":"00045437","subnational":[{"awardID":"00045437","focus_area":"2","focus_area_descr":"Democratic governance","lat":"30.83007","lon":"28.95502","name":"Alamein","outputID":"00053680","output_locID":"00053680-1","precision":"3","type":"PPL"},{"awardID":"00045437","focus_area":"2","focus_area_descr":"Democratic governance","lat":"31.61245","lon":"25.92554","name":"Barrani","outputID":"00053680","output_locID":"00053680-2","precision":"3","type":"PPL"},{"awardID":"00045437","focus_area":"2","focus_area_descr":"Democratic governance","lat":"31.08563","lon":"28.43464","name":"Dabaa","outputID":"00053680","output_locID":"00053680-3","precision":"3","type":"PPL"},{"awardID":"00045437","focus_area":"2","focus_area_descr":"Democratic governance","lat":"31.35254","lon":"27.24528","name":"Matruh","outputID":"00053680","output_locID":"00053680-4","precision":"3","type":"PPLA"},{"awardID":"00045437","focus_area":"2","focus_area_descr":"Democratic governance","lat":"29.18952","lon":"32.97395","name":"Hammam","outputID":"00053680","output_locID":"00053680-5","precision":"4","type":"RES"}],"title":"Support2North-West Coast Development&Mine Action Plan"},{"id":"00041562","subnational":[{"awardID":"00041562","focus_area":"-","focus_area_descr":"-","lat":"30.06263","lon":"31.24967","name":"Egypt","outputID":"00047460","output_locID":"00047460-1","precision":"9","type":"PCL"}],"title":"Supporting ITI Activities"},{"id":"00060666","subnational":[{"awardID":"00060666","focus_area":"1","focus_area_descr":"Poverty reduction & MDG achievement","lat":"30.06263","lon":"31.24967","name":"Cairo","outputID":"00076490","output_locID":"00076490-1","precision":"3","type":"PPLC"}],"title":"Supporting ITI Activities- Phase II"},{"id":"00045618","subnational":[{"awardID":"00045618","focus_area":"2","focus_area_descr":"Democratic governance","lat":"30.07203","lon":"31.0219","name":"Smart Village, Cairo","outputID":"00053916","output_locID":"00053916-1","precision":"3","type":"PPL"}],"title":"Supporting NTRA"},{"id":"00050031","subnational":[{"awardID":"00050031","focus_area":"1","focus_area_descr":"Poverty reduction & MDG achievement","lat":"30.06263","lon":"31.24967","name":"Cairo","outputID":"00061560","output_locID":"00061560-1","precision":"3","type":"PPLC"}],"title":"Supporting participation & collaboration with Int'l Fora"},{"id":"00060612","subnational":[{"awardID":"00060612","focus_area":"1","focus_area_descr":"Poverty reduction & MDG achievement","lat":"30.06263","lon":"31.24967","name":"Cairo","outputID":"00076388","output_locID":"00076388-1","precision":"3","type":"PPLC"}],"title":"Supporting the Activities of TIEC"},{"id":"00034204","subnational":[{"awardID":"00034204","focus_area":"-","focus_area_descr":"-","lat":"30.06263","lon":"31.24967","name":"Egypt","outputID":"00036186","output_locID":"00036186-1","precision":"9","type":"PCL"},{"awardID":"00034204","focus_area":"-","focus_area_descr":"-","lat":"29.2","lon":"30.63333","name":"Madinet Madi","outputID":"00036187","output_locID":"00036187-1","precision":"3","type":"PPL"},{"awardID":"00034204","focus_area":"-","focus_area_descr":"-","lat":"29.15","lon":"30.41667","name":"Wadi Rayan","outputID":"00036187","output_locID":"00036187-2","precision":"3","type":"PPL"}],"title":"Supreme Council for Antiquities - ITY"},{"id":"00045900","subnational":[{"awardID":"00045900","focus_area":"4","focus_area_descr":"Environment & sustainable development","lat":"30.06263","lon":"31.24967","name":"Cairo","outputID":"00054348","output_locID":"00054348-1","precision":"3","type":"PPLC"}],"title":"Sustainable Transport: Full Sized Project"},{"id":"00036732","subnational":[{"awardID":"00036732","focus_area":"2","focus_area_descr":"Democratic governance","lat":"30.06263","lon":"31.24967","name":"Egypt","outputID":"00048600","output_locID":"00048600-1","precision":"9","type":"PCL"},{"awardID":"00036732","focus_area":"2","focus_area_descr":"Democratic governance","lat":"26.55695","lon":"31.69478","name":"Sohag","outputID":"00058036","output_locID":"00058036-1","precision":"3","type":"PPLA"},{"awardID":"00036732","focus_area":"2","focus_area_descr":"Democratic governance","lat":"29.30995","lon":"30.8418","name":"Fayoum","outputID":"00058036","output_locID":"00058036-2","precision":"3","type":"PPLA"},{"awardID":"00036732","focus_area":"2","focus_area_descr":"Democratic governance","lat":"30.06263","lon":"31.24967","name":"Egypt","outputID":"00058037","output_locID":"00058037-1","precision":"9","type":"PCL"},{"awardID":"00036732","focus_area":"1","focus_area_descr":"Poverty reduction & MDG achievement","lat":"26.16418","lon":"32.72671","name":"Qena","outputID":"00081832","output_locID":"00081832-1","precision":"3","type":"PPLA"},{"awardID":"00036732","focus_area":"-","focus_area_descr":"-","lat":"30.06263","lon":"31.24967","name":"Egypt","outputID":"00058035","output_locID":"00058035-1","precision":"9","type":"PCL"}],"title":"Technical Support to MOLD in support to Local Developmen"},{"id":"00049719","subnational":[{"awardID":"00049719","focus_area":"1","focus_area_descr":"Poverty reduction & MDG achievement","lat":"30.00808","lon":"31.21093","name":"Giza","outputID":"00060858","output_locID":"00060858-1","precision":"3","type":"PPLA"},{"awardID":"00049719","focus_area":"-","focus_area_descr":"-","lat":"30.00808","lon":"31.21093","name":"Giza","outputID":"00082595","output_locID":"00082595-1","precision":"3","type":"PPLA"}],"title":"Technology to Foster Human Development in Egypt: PhaseII"},{"id":"00059810","subnational":[{"awardID":"00059810","focus_area":"4","focus_area_descr":"Environment & sustainable development","lat":"30.06263","lon":"31.24967","name":"Egypt","outputID":"00074967","output_locID":"00074967-1","precision":"9","type":"PCL"}],"title":"Third National Communication"},{"id":"00061973","subnational":[{"awardID":"00061973","focus_area":"-","focus_area_descr":"-","lat":"30.06263","lon":"31.24967","name":"Cairo","outputID":"00079144","output_locID":"00079144-1","precision":"3","type":"PPLC"}],"title":"UNDP-EU National CC Capacity Building Programme"},{"id":"00045510","subnational":[],"title":"Adaptation to CC in the Nile Delta through ICZM: PPG"},{"id":"00058678","subnational":[],"title":"Cairo Agenda on Action for Aid Effectiveness"},{"id":"00012329","subnational":[],"title":"CAPACITY BUILDING IN HUMAN RIGHTS"},{"id":"00057372","subnational":[],"title":"Energy Efficiency Phase II Preparation Grant"},{"id":"00040525","subnational":[{"awardID":"00040525","focus_area":"-","focus_area_descr":"-","lat":"30.06263","lon":"31.24967","name":"Egypt","outputID":"00045883","output_locID":"00045883-1","precision":"9","type":"PCL"}],"title":"Human Rights Capacity Building Project in Egypt \"BENAA\""},{"id":"00033953","subnational":[],"title":"Nature Conservation Sector Capacity Building"},{"id":"00037105","subnational":[{"awardID":"00037105","focus_area":"-","focus_area_descr":"-","lat":"30.06263","lon":"31.24967","name":"Egypt","outputID":"00040568","output_locID":"00040568-1","precision":"9","type":"PCL"}],"title":"Second National Communication"},{"id":"00049603","subnational":[{"awardID":"00049603","focus_area":"-","focus_area_descr":"-","lat":"30.06263","lon":"31.24967","name":"Egypt","outputID":"00060596","output_locID":"00060596-1","precision":"9","type":"PCL"}],"title":"Strengthening Capacity for AHI Coordination in Egypt"},{"id":"00049417","subnational":[],"title":"Support BRIDGE Training for Electoral Proces Stakeholder"},{"id":"00045038","subnational":[{"awardID":"00045038","focus_area":"-","focus_area_descr":"-","lat":"30.06263","lon":"31.24967","name":"Egypt","outputID":"00053138","output_locID":"00053138-1","precision":"9","type":"PCL"}],"title":"Support MOI in Enhancing Transparency & Fight Corruption"},{"id":"00037332","subnational":[],"title":"Support to the National Council for Human Rights (INSAN)"},{"id":"00049918","subnational":[],"title":"Supporting PWD Initiation Plan"},{"id":"00059709","subnational":[{"awardID":"00059709","focus_area":"-","focus_area_descr":"-","lat":"30.06263","lon":"31.24967","name":"Cairo","outputID":"00074801","output_locID":"00074801-1","precision":"3","type":"PPLC"},{"awardID":"00059709","focus_area":"-","focus_area_descr":"-","lat":"30.06263","lon":"31.24967","name":"Cairo","outputID":"00074804","output_locID":"00074804-1","precision":"3","type":"PPLC"},{"awardID":"00059709","focus_area":"-","focus_area_descr":"-","lat":"30.06263","lon":"31.24967","name":"Cairo","outputID":"00074807","output_locID":"00074807-1","precision":"3","type":"PPLC"}],"title":"Supporting the Modern. of the Ministry of Transport"},{"id":"00012360","subnational":[{"awardID":"00012360","focus_area":"-","focus_area_descr":"-","lat":"30.60427","lon":"32.27225","name":"Ismailia","outputID":"00012360","output_locID":"00012360-1","precision":"3","type":"PPLA"}],"title":"Upgrading of El Hallous and El Bahtini"},{"id":"00040525","subnational":[{"awardID":"00040525","focus_area":"-","focus_area_descr":"-","lat":"30.06263","lon":"31.24967","name":"Egypt","outputID":"00045883","output_locID":"00045883-1","precision":"9","type":"PCL"}],"title":"Human Rights Capacity Building Project in Egypt \"BENAA\""},{"id":"00067453","subnational":[],"title":"JP Safe Cities Free of Violence for Women and Girls"},{"id":"00033953","subnational":[],"title":"Nature Conservation Sector Capacity Building"},{"id":"00034989","subnational":[],"title":"Operational Unit for Development Assistance"},{"id":"00042122","subnational":[],"title":"Second National Communication"},{"id":"00037105","subnational":[{"awardID":"00037105","focus_area":"-","focus_area_descr":"-","lat":"30.06263","lon":"31.24967","name":"Egypt","outputID":"00040568","output_locID":"00040568-1","precision":"9","type":"PCL"}],"title":"Second National Communication"},{"id":"00049603","subnational":[{"awardID":"00049603","focus_area":"-","focus_area_descr":"-","lat":"30.06263","lon":"31.24967","name":"Egypt","outputID":"00060596","output_locID":"00060596-1","precision":"9","type":"PCL"}],"title":"Strengthening Capacity for AHI Coordination in Egypt"},{"id":"00045038","subnational":[{"awardID":"00045038","focus_area":"-","focus_area_descr":"-","lat":"30.06263","lon":"31.24967","name":"Egypt","outputID":"00053138","output_locID":"00053138-1","precision":"9","type":"PCL"}],"title":"Support MOI in Enhancing Transparency & Fight Corruption"},{"id":"00045938","subnational":[],"title":"Support to the General Federation for NGOs & Foundations"},{"id":"00059709","subnational":[{"awardID":"00059709","focus_area":"-","focus_area_descr":"-","lat":"30.06263","lon":"31.24967","name":"Cairo","outputID":"00074801","output_locID":"00074801-1","precision":"3","type":"PPLC"},{"awardID":"00059709","focus_area":"-","focus_area_descr":"-","lat":"30.06263","lon":"31.24967","name":"Cairo","outputID":"00074804","output_locID":"00074804-1","precision":"3","type":"PPLC"},{"awardID":"00059709","focus_area":"-","focus_area_descr":"-","lat":"30.06263","lon":"31.24967","name":"Cairo","outputID":"00074807","output_locID":"00074807-1","precision":"3","type":"PPLC"}],"title":"Supporting the Modern. of the Ministry of Transport"},{"id":"00012360","subnational":[{"awardID":"00012360","focus_area":"-","focus_area_descr":"-","lat":"30.60427","lon":"32.27225","name":"Ismailia","outputID":"00012360","output_locID":"00012360-1","precision":"3","type":"PPLA"}],"title":"Upgrading of El Hallous and El Bahtini"},{"id":"00044540","subnational":[],"title":"Women MPs"}]}