{"iso_num":"818","op_unit":"EGY","projects":[{"id":"00058179","subnational":[{"awardID":"00058179","focus_area":"-","focus_area_descr":"-","lat":"30.06263","lon":"31.24967","name":"Cairo","outputID":"00072158","precision":"3","type":"PPLC"},{"awardID":"00058179","focus_area":"-","focus_area_descr":"-","lat":"30.06263","lon":"31.24967","name":"Cairo","outputID":"00080857","precision":"3","type":"PPLC"}],"title":"Abandon Female Genital Mutilation & Empower Families"},{"id":"00057676","subnational":[{"awardID":"00057676","focus_area":"4","focus_area_descr":"Environment & sustainable development","lat":"31.21564","lon":"29.95527","name":"Alexandria","outputID":"00071359","precision":"3","type":"PPLA"}],"title":"Adaptation to Climate Change in the Nile Delta"},{"id":"00045899","subnational":[{"awardID":"00045899","focus_area":"4","focus_area_descr":"Environment & sustainable development","lat":"31.21564","lon":"29.95527","name":"Alexandria","outputID":"00054347","precision":"3","type":"PPLA"}],"title":"BioEnergy for Sustainable Rural Development: FSP"},{"id":"00057142","subnational":[{"awardID":"00057142","focus_area":"-","focus_area_descr":"-","lat":"30.06263","lon":"31.24967","name":"Cairo","outputID":"00070488","precision":"3","type":"PPLC"}],"title":"Capacity Building for Crisis, Disaster&Risk Management"},{"id":"00048176","subnational":[{"awardID":"00048176","focus_area":"-","focus_area_descr":"-","lat":"30.06263","lon":"31.24967","name":"Egypt","outputID":"00058197","precision":"9","type":"PCL"}],"title":"Climate Change Risk Management Programme in Egypt"},{"id":"00031368","subnational":[{"awardID":"00031368","focus_area":"-","focus_area_descr":"-","lat":"30.06263","lon":"31.24967","name":"Egypt","outputID":"00031457","precision":"9","type":"PCL"}],"title":"Consolidation of Oper.Unit for Dev Assist Secretariat"},{"id":"00076444","subnational":[{"awardID":"00076444","focus_area":"-","focus_area_descr":"-","lat":"26.16418","lon":"32.72671","name":"Qena","outputID":"00087829","precision":"3","type":"PPLA"}],"title":"Egypt Network for Integrated Development (ENID)"},{"id":"00066194","subnational":[{"awardID":"00066194","focus_area":"1","focus_area_descr":"Poverty reduction & MDG achievement","lat":"29.30995","lon":"30.8418","name":"Fayoum","outputID":"00082406","precision":"3","type":"PPLA"}],"title":"Employment Creation in innovative public work programs"},{"id":"00045558","subnational":[{"awardID":"00045558","focus_area":"-","focus_area_descr":"-","lat":"30.07203","lon":"31.0219","name":"Smart Village, Cairo","outputID":"00053834","precision":"3","type":"PPL"}],"title":"Empowering &Connecting the Community through Technology"},{"id":"00060083","subnational":[{"awardID":"00060083","focus_area":"-","focus_area_descr":"-","lat":"30.06263","lon":"31.24967","name":"Cairo","outputID":"00075466","precision":"3","type":"PPLC"}],"title":"Enhance Efficiency &Accountability of the Public Sector"},{"id":"00069984","subnational":[{"awardID":"00069984","focus_area":"-","focus_area_descr":"-","lat":"30.06263","lon":"31.24967","name":"Egypt","outputID":"00084234","precision":"9","type":"PCL"}],"title":"Enhancing Access to Knowledge for Development"},{"id":"00072826","subnational":[{"awardID":"00072826","focus_area":"-","focus_area_descr":"-","lat":"30.06263","lon":"31.24967","name":"Egypt","outputID":"00085852","precision":"9","type":"PCL"}],"title":"Grid-Connected Small-Scale Photovoltaic Systems"},{"id":"00048455","subnational":[{"awardID":"00048455","focus_area":"-","focus_area_descr":"-","lat":"30.06263","lon":"31.24967","name":"Egypt","outputID":"00058627","precision":"9","type":"PCL"}],"title":"Groundwater in Nile Countries"},{"id":"00056483","subnational":[{"awardID":"00056483","focus_area":"-","focus_area_descr":"-","lat":"30.06263","lon":"31.24967","name":"Egypt","outputID":"00069144","precision":"9","type":"PCL"}],"title":"Growing Sustainable Business for Poverty Reduction"},{"id":"00069985","subnational":[{"awardID":"00069985","focus_area":"-","focus_area_descr":"-","lat":"30.06263","lon":"31.24967","name":"Cairo","outputID":"00085937","precision":"3","type":"PPLC"},{"awardID":"00069985","focus_area":"-","focus_area_descr":"-","lat":"30.06263","lon":"31.24967","name":"Cairo","outputID":"00084235","precision":"3","type":"PPLC"},{"awardID":"00069985","focus_area":"-","focus_area_descr":"-","lat":"30.06263","lon":"31.24967","name":"Cairo","outputID":"00085935","precision":"3","type":"PPLC"},{"awardID":"00069985","focus_area":"-","focus_area_descr":"-","lat":"30.06263","lon":"31.24967","name":"Cairo","outputID":"00085936","precision":"3","type":"PPLC"}],"title":"ICT for Comprehensive Community Development"},{"id":"00012326","subnational":[{"awardID":"00012326","focus_area":"-","focus_area_descr":"-","lat":"30.06263","lon":"31.24967","name":"Egypt","outputID":"00012326","precision":"9","type":"PCL"}],"title":"Improving Energy Efficiency and Greenhouse Gas Reduction"},{"id":"00060162","subnational":[{"awardID":"00060162","focus_area":"-","focus_area_descr":"-","lat":"30.06263","lon":"31.24967","name":"Egypt","outputID":"00075645","precision":"9","type":"PCL"}],"title":"ImprovingEnergyEfficiency ofLighting&Building Appliances"},{"id":"00045170","subnational":[{"awardID":"00045170","focus_area":"-","focus_area_descr":"-","lat":"30.06263","lon":"31.24967","name":"Egypt","outputID":"00053303","precision":"9","type":"PCL"}],"title":"Information&Communication Technology in Small Businesses"},{"id":"00042056","subnational":[{"awardID":"00042056","focus_area":"-","focus_area_descr":"-","lat":"30.06263","lon":"31.24967","name":"Egypt","outputID":"00048136","precision":"9","type":"PCL"}],"title":"Integrated Management of Shared Nubian Aquifer"},{"id":"00067246","subnational":[{"awardID":"00067246","focus_area":"-","focus_area_descr":"-","lat":"30.06263","lon":"31.24967","name":"Cairo","outputID":"00083131","precision":"3","type":"PPLC"}],"title":"Integrating Human Rights in Higher Education"},{"id":"00073186","subnational":[{"awardID":"00073186","focus_area":"-","focus_area_descr":"-","lat":"30.06263","lon":"31.24967","name":"Egypt","outputID":"00086139","precision":"9","type":"PCL"}],"title":"Mainstream Biodiversity into Tourism"},{"id":"00050281","subnational":[{"awardID":"00050281","focus_area":"-","focus_area_descr":"-","lat":"30.06263","lon":"31.24967","name":"Egypt","outputID":"00062038","precision":"9","type":"PCL"}],"title":"Mainstreaming Environment into National Plans"},{"id":"00057799","subnational":[{"awardID":"00057799","focus_area":"-","focus_area_descr":"-","lat":"30.06263","lon":"31.24967","name":"Cairo","outputID":"00071534","precision":"3","type":"PPLC"}],"title":"MDG Awareness & Research Initivative - Cairo University"},{"id":"00012347","subnational":[{"awardID":"00012347","focus_area":"-","focus_area_descr":"-","lat":"28.51","lon":"33.95463","name":"Saint Katherine","outputID":"00012347","precision":"4","type":"RES"}],"title":"Medicinal Plants Conservation Project"},{"id":"00048469","subnational":[{"awardID":"00048469","focus_area":"1","focus_area_descr":"Poverty reduction & MDG achievement","lat":"29.75","lon":"31.23333","name":"Dahshur","outputID":"00058644","precision":"3","type":"PPL"}],"title":"Mobilization of the Dahs World Heritage Site for Com dev"},{"id":"00067080","subnational":[{"awardID":"00067080","focus_area":"4","focus_area_descr":"Environment & sustainable development","lat":"30.06263","lon":"31.24967","name":"Egypt","outputID":"00083008","precision":"9","type":"PCL"}],"title":"National Biodiversity Strategy and Action Plan"},{"id":"00049649","subnational":[{"awardID":"00049649","focus_area":"-","focus_area_descr":"-","lat":"30.06263","lon":"31.24967","name":"Cairo","outputID":"00060701","precision":"3","type":"PPLC"}],"title":"National CSR and Global Compact Center"},{"id":"00012375","subnational":[{"awardID":"00012375","focus_area":"-","focus_area_descr":"-","lat":"30.06263","lon":"31.24967","name":"Egypt","outputID":"00012375","precision":"9","type":"PCL"}],"title":"National Human Dev. Report Project"},{"id":"00047913","subnational":[{"awardID":"00047913","focus_area":"-","focus_area_descr":"-","lat":"30.00808","lon":"31.21093","name":"Giza","outputID":"00057830","precision":"3","type":"PPLA"}],"title":"Outreach Support to National Telecommunication Institute"},{"id":"00058215","subnational":[{"awardID":"00058215","focus_area":"-","focus_area_descr":"-","lat":"30.06263","lon":"31.24967","name":"Cairo","outputID":"00072223","precision":"3","type":"PPLC"}],"title":"Ozone Depleting Subtances"},{"id":"00044434","subnational":[{"awardID":"00044434","focus_area":"-","focus_area_descr":"-","lat":"25.65","lon":"30.63333","name":"El Sahel","outputID":"00052243","precision":"4","type":"RES"}],"title":"Participaotry & Intrgated Health & Urban Development"},{"id":"00061637","subnational":[{"awardID":"00061637","focus_area":"-","focus_area_descr":"-","lat":"30.06263","lon":"31.24967","name":"Cairo","outputID":"00078164","precision":"3","type":"PPLC"}],"title":"Phase-out of HydroChloroFluoroCarbons in Egypt Foam Sect"},{"id":"00057097","subnational":[{"awardID":"00057097","focus_area":"1","focus_area_descr":"Poverty reduction & MDG achievement","lat":"27.18096","lon":"31.18368","name":"Assiut","outputID":"00070412","precision":"3","type":"PPLA"}],"title":"Pro-Poor Horticulture Value Chains in Upper Egypt"},{"id":"00031641","subnational":[{"awardID":"00031641","focus_area":"-","focus_area_descr":"-","lat":"30.06263","lon":"31.24967","name":"Egypt","outputID":"00031817","precision":"9","type":"PCL"}],"title":"Project Implementation Services by Opert.Unit for Dev.As"},{"id":"00073119","subnational":[{"awardID":"00073119","focus_area":"-","focus_area_descr":"-","lat":"30.06263","lon":"31.24967","name":"Egypt","outputID":"00086076","precision":"9","type":"PCL"}],"title":"Protecting Human Health and the Env from POPs"},{"id":"00064373","subnational":[{"awardID":"00064373","focus_area":"-","focus_area_descr":"-","lat":"30.06263","lon":"31.24967","name":"Cairo","outputID":"00081213","precision":"3","type":"PPLC"}],"title":"Regional Basel Convention Center"},{"id":"00056761","subnational":[{"awardID":"00056761","focus_area":"2","focus_area_descr":"Democratic governance","lat":"31.21564","lon":"29.95527","name":"Alexandria","outputID":"00069670","precision":"3","type":"PPLA"}],"title":"Regional, National & Governorate Strategic Planning SPAD"},{"id":"00049298","subnational":[{"awardID":"00049298","focus_area":"-","focus_area_descr":"-","lat":"30.06263","lon":"31.24967","name":"Egypt","outputID":"00060021","precision":"9","type":"PCL"}],"title":"SOARING BIRDS FSP (Egypt Component)"},{"id":"00045653","subnational":[{"awardID":"00045653","focus_area":"-","focus_area_descr":"-","lat":"30.06263","lon":"31.24967","name":"Cairo","outputID":"00053972","precision":"3","type":"PPLC"},{"awardID":"00045653","focus_area":"-","focus_area_descr":"-","lat":"30.06263","lon":"31.24967","name":"Egypt","outputID":"00070132","precision":"9","type":"PCL"}],"title":"Social Contract Advisory, Monitoring and Coord. Center"},{"id":"00049150","subnational":[{"awardID":"00049150","focus_area":"-","focus_area_descr":"-","lat":"30.06263","lon":"31.24967","name":"Egypt","outputID":"00059735","precision":"9","type":"PCL"}],"title":"Social Fund for Development - Phase IV"},{"id":"00060199","subnational":[{"awardID":"00060199","focus_area":"-","focus_area_descr":"-","lat":"28.10988","lon":"30.7503","name":"Minya","outputID":"00075697","precision":"3","type":"PPLA"}],"title":"Solid Waste Management in Minya - Phase II"},{"id":"00012357","subnational":[{"awardID":"00012357","focus_area":"-","focus_area_descr":"-","lat":"25.69893","lon":"32.6421","name":"Luxor","outputID":"00048331","precision":"3","type":"PPLA"}],"title":"Strategic Dev. Plan of Southern Egypt (New Valley)"},{"id":"00047162","subnational":[{"awardID":"00047162","focus_area":"2","focus_area_descr":"Democratic governance","lat":"30.06263","lon":"31.24967","name":"Cairo","outputID":"00056471","precision":"3","type":"PPLC"}],"title":"Strategic Urban Dev. Plan for Greater Cairo Region"},{"id":"00058428","subnational":[{"awardID":"00058428","focus_area":"-","focus_area_descr":"-","lat":"31.21564","lon":"29.95527","name":"Alexandria","outputID":"00072587","precision":"3","type":"PPLA"}],"title":"Strategic Urban Planning for Alexandria City till 2032"},{"id":"00060771","subnational":[{"awardID":"00060771","focus_area":"-","focus_area_descr":"-","lat":"30.06263","lon":"31.24967","name":"Cairo","outputID":"00076659","precision":"3","type":"PPLC"}],"title":"Strengthening Capacities for Results Based Management"},{"id":"00044225","subnational":[{"awardID":"00044225","focus_area":"-","focus_area_descr":"-","lat":"30.06263","lon":"31.24967","name":"Egypt","outputID":"00051879","precision":"9","type":"PCL"}],"title":"Strengthening capacity of Ministry of Social Solidarity"},{"id":"00062430","subnational":[{"awardID":"00062430","focus_area":"-","focus_area_descr":"-","lat":"30.06263","lon":"31.24967","name":"Egypt","outputID":"00079914","precision":"9","type":"PCL"},{"awardID":"00062430","focus_area":"-","focus_area_descr":"-","lat":"30.06263","lon":"31.24967","name":"Egypt","outputID":"00083566","precision":"9","type":"PCL"}],"title":"Strengthening of the Democratic Process in Egypt"},{"id":"00057529","subnational":[{"awardID":"00057529","focus_area":"4","focus_area_descr":"Environment & sustainable development","lat":"30.69651","lon":"33.97038","name":"Zaranik","outputID":"00071131","precision":"4","type":"RES"}],"title":"Strengthening Protected Areas Finance&Mgmt Systems"},{"id":"00050062","subnational":[{"awardID":"00050062","focus_area":"-","focus_area_descr":"-","lat":"30.06263","lon":"31.24967","name":"Cairo","outputID":"00061621","precision":"3","type":"PPLC"}],"title":"Strengthening the Capacity of the CCCPA"},{"id":"00056788","subnational":[{"awardID":"00056788","focus_area":"-","focus_area_descr":"-","lat":"30.06263","lon":"31.24967","name":"Cairo","outputID":"00069730","precision":"3","type":"PPLC"}],"title":"Strengthening Transparency & Integrity in Civil Service"},{"id":"00044541","subnational":[{"awardID":"00044541","focus_area":"-","focus_area_descr":"-","lat":"30.06263","lon":"31.24967","name":"Cairo","outputID":"00072481","precision":"3","type":"PPLC"},{"awardID":"00044541","focus_area":"-","focus_area_descr":"-","lat":"29.07441","lon":"31.09785","name":"Beni Suef","outputID":"00052432","precision":"3","type":"PPLA"}],"title":"Support legal Aid & Dispute settlement in Family Courts"},{"id":"00065184","subnational":[{"awardID":"00065184","focus_area":"-","focus_area_descr":"-","lat":"29.2032","lon":"25.51965","name":"Siwa","outputID":"00081800","precision":"3","type":"PPL"}],"title":"Support to Egyptian Protected Areas"},{"id":"00040473","subnational":[{"awardID":"00040473","focus_area":"-","focus_area_descr":"-","lat":"30.06263","lon":"31.24967","name":"Cairo","outputID":"00048830","precision":"3","type":"PPLC"}],"title":"Support to modernization of Egypt Post"},{"id":"00057242","subnational":[{"awardID":"00057242","focus_area":"-","focus_area_descr":"-","lat":"30.06263","lon":"31.24967","name":"Cairo","outputID":"00070642","precision":"3","type":"PPLC"}],"title":"Support to National Council for Human Righhts -INSAN II"},{"id":"00057704","subnational":[{"awardID":"00057704","focus_area":"-","focus_area_descr":"-","lat":"30.06263","lon":"31.24967","name":"Cairo","outputID":"00071399","precision":"3","type":"PPLC"}],"title":"Support to Pension Fund and Fiscal Policy Reform"},{"id":"00071852","subnational":[{"awardID":"00071852","focus_area":"-","focus_area_descr":"-","lat":"30.06263","lon":"31.24967","name":"Cairo","outputID":"00085106","precision":"3","type":"PPLC"},{"awardID":"00071852","focus_area":"-","focus_area_descr":"-","lat":"30.06263","lon":"31.24967","name":"Cairo","outputID":"00085107","precision":"3","type":"PPLC"},{"awardID":"00071852","focus_area":"-","focus_area_descr":"-","lat":"30.06263","lon":"31.24967","name":"Cairo","outputID":"00085108","precision":"3","type":"PPLC"}],"title":"Support to the Modern. of the Egyptian POST Ph. II"},{"id":"00072087","subnational":[{"awardID":"00072087","focus_area":"2","focus_area_descr":"Democratic governance","lat":"30.06263","lon":"31.24967","name":"Egypt","outputID":"00085307","precision":"9","type":"PCL"}],"title":"Support to the NCCCC"},{"id":"00045519","subnational":[{"awardID":"00045519","focus_area":"-","focus_area_descr":"-","lat":"30.07203","lon":"31.0219","name":"Smart Village, Cairo","outputID":"00053786","precision":"3","type":"PPL"}],"title":"Support2Egyptian Education Initiative"},{"id":"00045437","subnational":[{"awardID":"00045437","focus_area":"2","focus_area_descr":"Democratic governance","lat":"30.83007","lon":"28.95502","name":"Alamein","outputID":"00053680","precision":"3","type":"PPL"}],"title":"Support2North-West Coast Development&Mine Action Plan"},{"id":"00041562","subnational":[{"awardID":"00041562","focus_area":"-","focus_area_descr":"-","lat":"30.06263","lon":"31.24967","name":"Egypt","outputID":"00047460","precision":"9","type":"PCL"}],"title":"Supporting ITI Activities"},{"id":"00060666","subnational":[{"awardID":"00060666","focus_area":"-","focus_area_descr":"-","lat":"30.06263","lon":"31.24967","name":"Cairo","outputID":"00076490","precision":"3","type":"PPLC"}],"title":"Supporting ITI Activities- Phase II"},{"id":"00045618","subnational":[{"awardID":"00045618","focus_area":"-","focus_area_descr":"-","lat":"30.07203","lon":"31.0219","name":"Smart Village, Cairo","outputID":"00053916","precision":"3","type":"PPL"}],"title":"Supporting NTRA"},{"id":"00050031","subnational":[{"awardID":"00050031","focus_area":"-","focus_area_descr":"-","lat":"30.06263","lon":"31.24967","name":"Cairo","outputID":"00061560","precision":"3","type":"PPLC"}],"title":"Supporting participation & collaboration with Int'l Fora"},{"id":"00060612","subnational":[{"awardID":"00060612","focus_area":"-","focus_area_descr":"-","lat":"30.06263","lon":"31.24967","name":"Cairo","outputID":"00076388","precision":"3","type":"PPLC"}],"title":"Supporting the Activities of TIEC"},{"id":"00034204","subnational":[{"awardID":"00034204","focus_area":"-","focus_area_descr":"-","lat":"30.06263","lon":"31.24967","name":"Egypt","outputID":"00036186","precision":"9","type":"PCL"},{"awardID":"00034204","focus_area":"-","focus_area_descr":"-","lat":"29.15","lon":"30.41667","name":"Wadi Rayan","outputID":"00036187","precision":"3","type":"PPL"}],"title":"Supreme Council for Antiquities - ITY"},{"id":"00045900","subnational":[{"awardID":"00045900","focus_area":"-","focus_area_descr":"-","lat":"30.06263","lon":"31.24967","name":"Cairo","outputID":"00054348","precision":"3","type":"PPLC"}],"title":"Sustainable Transport: Full Sized Project"},{"id":"00036732","subnational":[{"awardID":"00036732","focus_area":"-","focus_area_descr":"-","lat":"30.06263","lon":"31.24967","name":"Egypt","outputID":"00048600","precision":"9","type":"PCL"},{"awardID":"00036732","focus_area":"-","focus_area_descr":"-","lat":"30.06263","lon":"31.24967","name":"Egypt","outputID":"00058035","precision":"9","type":"PCL"},{"awardID":"00036732","focus_area":"-","focus_area_descr":"-","lat":"30.06263","lon":"31.24967","name":"Egypt","outputID":"00058037","precision":"9","type":"PCL"},{"awardID":"00036732","focus_area":"-","focus_area_descr":"-","lat":"26.16418","lon":"32.72671","name":"Qena","outputID":"00081832","precision":"3","type":"PPLA"},{"awardID":"00036732","focus_area":"2","focus_area_descr":"Democratic governance","lat":"26.55695","lon":"31.69478","name":"Sohag","outputID":"00058036","precision":"3","type":"PPLA"}],"title":"Technical Support to MOLD in support to Local Developmen"},{"id":"00049719","subnational":[{"awardID":"00049719","focus_area":"-","focus_area_descr":"-","lat":"30.00808","lon":"31.21093","name":"Giza","outputID":"00060858","precision":"3","type":"PPLA"},{"awardID":"00049719","focus_area":"-","focus_area_descr":"-","lat":"30.00808","lon":"31.21093","name":"Giza","outputID":"00082595","precision":"3","type":"PPLA"}],"title":"Technology to Foster Human Development in Egypt: PhaseII"},{"id":"00059810","subnational":[{"awardID":"00059810","focus_area":"-","focus_area_descr":"-","lat":"30.06263","lon":"31.24967","name":"Egypt","outputID":"00074967","precision":"9","type":"PCL"}],"title":"Third National Communication"},{"id":"00061973","subnational":[{"awardID":"00061973","focus_area":"-","focus_area_descr":"-","lat":"30.06263","lon":"31.24967","name":"Cairo","outputID":"00079144","precision":"3","type":"PPLC"}],"title":"UNDP-EU National CC Capacity Building Programme"},{"id":"00045510","subnational":[],"title":"Adaptation to CC in the Nile Delta through ICZM: PPG"},{"id":"00058678","subnational":[],"title":"Cairo Agenda on Action for Aid Effectiveness"},{"id":"00012329","subnational":[],"title":"CAPACITY BUILDING IN HUMAN RIGHTS"},{"id":"00057372","subnational":[],"title":"Energy Efficiency Phase II Preparation Grant"},{"id":"00040525","subnational":[{"awardID":"00040525","focus_area":"-","focus_area_descr":"-","lat":"30.06263","lon":"31.24967","name":"Egypt","outputID":"00045883","precision":"9","type":"PCL"}],"title":"Human Rights Capacity Building Project in Egypt \"BENAA\""},{"id":"00033953","subnational":[],"title":"Nature Conservation Sector Capacity Building"},{"id":"00037105","subnational":[{"awardID":"00037105","focus_area":"-","focus_area_descr":"-","lat":"30.06263","lon":"31.24967","name":"Egypt","outputID":"00040568","precision":"9","type":"PCL"}],"title":"Second National Communication"},{"id":"00049603","subnational":[{"awardID":"00049603","focus_area":"-","focus_area_descr":"-","lat":"30.06263","lon":"31.24967","name":"Egypt","outputID":"00060596","precision":"9","type":"PCL"}],"title":"Strengthening Capacity for AHI Coordination in Egypt"},{"id":"00049417","subnational":[],"title":"Support BRIDGE Training for Electoral Proces Stakeholder"},{"id":"00045038","subnational":[{"awardID":"00045038","focus_area":"-","focus_area_descr":"-","lat":"30.06263","lon":"31.24967","name":"Egypt","outputID":"00053138","precision":"9","type":"PCL"}],"title":"Support MOI in Enhancing Transparency & Fight Corruption"},{"id":"00037332","subnational":[],"title":"Support to the National Council for Human Rights (INSAN)"},{"id":"00049918","subnational":[],"title":"Supporting PWD Initiation Plan"},{"id":"00059709","subnational":[{"awardID":"00059709","focus_area":"-","focus_area_descr":"-","lat":"30.06263","lon":"31.24967","name":"Cairo","outputID":"00074801","precision":"3","type":"PPLC"},{"awardID":"00059709","focus_area":"-","focus_area_descr":"-","lat":"30.06263","lon":"31.24967","name":"Cairo","outputID":"00074804","precision":"3","type":"PPLC"},{"awardID":"00059709","focus_area":"-","focus_area_descr":"-","lat":"30.06263","lon":"31.24967","name":"Cairo","outputID":"00074807","precision":"3","type":"PPLC"}],"title":"Supporting the Modern. of the Ministry of Transport"},{"id":"00012360","subnational":[{"awardID":"00012360","focus_area":"-","focus_area_descr":"-","lat":"30.60427","lon":"32.27225","name":"Ismailia","outputID":"00012360","precision":"3","type":"PPLA"}],"title":"Upgrading of El Hallous and El Bahtini"},{"id":"00040525","subnational":[{"awardID":"00040525","focus_area":"-","focus_area_descr":"-","lat":"30.06263","lon":"31.24967","name":"Egypt","outputID":"00045883","precision":"9","type":"PCL"}],"title":"Human Rights Capacity Building Project in Egypt \"BENAA\""},{"id":"00067453","subnational":[],"title":"JP Safe Cities Free of Violence for Women and Girls"},{"id":"00033953","subnational":[],"title":"Nature Conservation Sector Capacity Building"},{"id":"00034989","subnational":[],"title":"Operational Unit for Development Assistance"},{"id":"00037105","subnational":[{"awardID":"00037105","focus_area":"-","focus_area_descr":"-","lat":"30.06263","lon":"31.24967","name":"Egypt","outputID":"00040568","precision":"9","type":"PCL"}],"title":"Second National Communication"},{"id":"00042122","subnational":[],"title":"Second National Communication"},{"id":"00049603","subnational":[{"awardID":"00049603","focus_area":"-","focus_area_descr":"-","lat":"30.06263","lon":"31.24967","name":"Egypt","outputID":"00060596","precision":"9","type":"PCL"}],"title":"Strengthening Capacity for AHI Coordination in Egypt"},{"id":"00045038","subnational":[{"awardID":"00045038","focus_area":"-","focus_area_descr":"-","lat":"30.06263","lon":"31.24967","name":"Egypt","outputID":"00053138","precision":"9","type":"PCL"}],"title":"Support MOI in Enhancing Transparency & Fight Corruption"},{"id":"00045938","subnational":[],"title":"Support to the General Federation for NGOs & Foundations"},{"id":"00032144","subnational":[],"title":"Support to UN Coordination"},{"id":"00059709","subnational":[{"awardID":"00059709","focus_area":"-","focus_area_descr":"-","lat":"30.06263","lon":"31.24967","name":"Cairo","outputID":"00074801","precision":"3","type":"PPLC"},{"awardID":"00059709","focus_area":"-","focus_area_descr":"-","lat":"30.06263","lon":"31.24967","name":"Cairo","outputID":"00074804","precision":"3","type":"PPLC"},{"awardID":"00059709","focus_area":"-","focus_area_descr":"-","lat":"30.06263","lon":"31.24967","name":"Cairo","outputID":"00074807","precision":"3","type":"PPLC"}],"title":"Supporting the Modern. of the Ministry of Transport"},{"id":"00012360","subnational":[{"awardID":"00012360","focus_area":"-","focus_area_descr":"-","lat":"30.60427","lon":"32.27225","name":"Ismailia","outputID":"00012360","precision":"3","type":"PPLA"}],"title":"Upgrading of El Hallous and El Bahtini"},{"id":"00044540","subnational":[],"title":"Women MPs"}]}