{"iso_num":"818","op_unit":"EGY","projects":[{"id":"00058179","subnational":[{"awardID":"00058179","focus_area":"2","focus_area_descr":"Democratic governance","lat":"30.06263","lon":"31.24967","name":"Egypt","outputID":"00072158","precision":"9","type":"PCL"}],"title":"Abandon Female Genital Mutilation & Empower Families"},{"id":"00057676","subnational":[{"awardID":"00057676","focus_area":"4","focus_area_descr":"Environment & sustainable development","lat":"31.21564","lon":"29.95527","name":"Alexandria","outputID":"00071359","precision":"3","type":"PPLA"},{"awardID":"00057676","focus_area":"4","focus_area_descr":"Environment & sustainable development","lat":"30.6","lon":"30.2","name":"Behaira","outputID":"00071359","precision":"4","type":"ADM1"},{"awardID":"00057676","focus_area":"4","focus_area_descr":"Environment & sustainable development","lat":"31.25654","lon":"32.28412","name":"Port Said","outputID":"00071359","precision":"3","type":"PPLA"},{"awardID":"00057676","focus_area":"4","focus_area_descr":"Environment & sustainable development","lat":"31.41648","lon":"31.81332","name":"Damietta","outputID":"00071359","precision":"3","type":"PPLA"},{"awardID":"00057676","focus_area":"4","focus_area_descr":"Environment & sustainable development","lat":"31.40444","lon":"30.41639","name":"Rosetta","outputID":"00071359","precision":"3","type":"PPL"}],"title":"Adaptation to Climate Change in the Nile Delta"},{"id":"00045899","subnational":[{"awardID":"00045899","focus_area":"4","focus_area_descr":"Environment & sustainable development","lat":"27.18096","lon":"31.18368","name":"Assuit","outputID":"00054347","precision":"3","type":"PPLA"},{"awardID":"00045899","focus_area":"4","focus_area_descr":"Environment & sustainable development","lat":"29.30995","lon":"30.8418","name":"Fayoum","outputID":"00054347","precision":"3","type":"PPLA"},{"awardID":"00045899","focus_area":"4","focus_area_descr":"Environment & sustainable development","lat":"30.00808","lon":"31.21093","name":"Giza","outputID":"00054347","precision":"3","type":"PPLA"},{"awardID":"00045899","focus_area":"4","focus_area_descr":"Environment & sustainable development","lat":"30.3","lon":"31.25","name":"Kalyubia","outputID":"00054347","precision":"3","type":"ADM1"},{"awardID":"00045899","focus_area":"4","focus_area_descr":"Environment & sustainable development","lat":"31.21564","lon":"29.95527","name":"Alexandria","outputID":"00054347","precision":"3","type":"PPLA"}],"title":"BioEnergy for Sustainable Rural Development: FSP"},{"id":"00057142","subnational":[{"awardID":"00057142","focus_area":"2","focus_area_descr":"Democratic governance","lat":"30.06263","lon":"31.24967","name":"Cairo","outputID":"00070488","precision":"3","type":"PPLC"}],"title":"Capacity Building for Crisis, Disaster&Risk Management"},{"id":"00048176","subnational":[{"awardID":"00048176","focus_area":"4","focus_area_descr":"Environment & sustainable development","lat":"30.06263","lon":"31.24967","name":"Egypt","outputID":"00058197","precision":"9","type":"PCL"}],"title":"Climate Change Risk Management Programme in Egypt"},{"id":"00031368","subnational":[{"awardID":"00031368","focus_area":"-","focus_area_descr":"-","lat":"30.06263","lon":"31.24967","name":"Egypt","outputID":"00031457","precision":"9","type":"PCL"}],"title":"Consolidation of Oper.Unit for Dev Assist Secretariat"},{"id":"00066194","subnational":[],"title":"Employment Creation in innovative public work programs"},{"id":"00045558","subnational":[{"awardID":"00045558","focus_area":"-","focus_area_descr":"-","lat":"30.06263","lon":"31.24967","name":"Egypt","outputID":"00053834","precision":"9","type":"PCL"}],"title":"Empowering &Connecting the Community through Technology"},{"id":"00060083","subnational":[{"awardID":"00060083","focus_area":"2","focus_area_descr":"Democratic governance","lat":"30.06263","lon":"31.24967","name":"Egypt","outputID":"00075466","precision":"9","type":"PCL"}],"title":"Enhance Efficiency &Accountability of the Public Sector"},{"id":"00072826","subnational":[],"title":"Grid-Connected Small-Scale Photovoltaic Systems"},{"id":"00048455","subnational":[{"awardID":"00048455","focus_area":"-","focus_area_descr":"-","lat":"30.06263","lon":"31.24967","name":"Egypt","outputID":"00058627","precision":"9","type":"PCL"}],"title":"Groundwater in Nile Countries"},{"id":"00056483","subnational":[{"awardID":"00056483","focus_area":"1","focus_area_descr":"Poverty reduction & MDG achievement","lat":"30.06263","lon":"31.24967","name":"Egypt","outputID":"00069144","precision":"9","type":"PCL"}],"title":"Growing Sustainable Business for Poverty Reduction"},{"id":"00069985","subnational":[],"title":"ICT for Comprehensive Community Development"},{"id":"00012326","subnational":[{"awardID":"00012326","focus_area":"-","focus_area_descr":"-","lat":"30.06263","lon":"31.24967","name":"Egypt","outputID":"00012326","precision":"9","type":"PCL"}],"title":"Improving Energy Efficiency and Greenhouse Gas Reduction"},{"id":"00060162","subnational":[{"awardID":"00060162","focus_area":"4","focus_area_descr":"Environment & sustainable development","lat":"30.06263","lon":"31.24967","name":"Egypt","outputID":"00075645","precision":"9","type":"PCL"}],"title":"ImprovingEnergyEfficiency ofLighting&Building Appliances"},{"id":"00045170","subnational":[{"awardID":"00045170","focus_area":"1","focus_area_descr":"Poverty reduction & MDG achievement","lat":"30.06263","lon":"31.24967","name":"Egypt","outputID":"00053303","precision":"9","type":"PCL"}],"title":"Information&Communication Technology in Small Businesses"},{"id":"00042056","subnational":[{"awardID":"00042056","focus_area":"-","focus_area_descr":"-","lat":"30.06263","lon":"31.24967","name":"Egypt","outputID":"00048136","precision":"9","type":"PCL"}],"title":"Integrated Management of Shared Nubian Aquifer"},{"id":"00067246","subnational":[],"title":"Integrating Human Rights in Higher Education"},{"id":"00073186","subnational":[],"title":"Mainstream Biodiversity into Tourism"},{"id":"00050281","subnational":[{"awardID":"00050281","focus_area":"4","focus_area_descr":"Environment & sustainable development","lat":"30.06263","lon":"31.24967","name":"Egypt","outputID":"00062038","precision":"9","type":"PCL"}],"title":"Mainstreaming Environment into National Plans"},{"id":"00057799","subnational":[{"awardID":"00057799","focus_area":"1","focus_area_descr":"Poverty reduction & MDG achievement","lat":"30.06263","lon":"31.24967","name":"Cairo","outputID":"00071534","precision":"3","type":"PPLC"}],"title":"MDG Awareness & Research Initivative - Cairo University"},{"id":"00012347","subnational":[{"awardID":"00012347","focus_area":"4","focus_area_descr":"Environment & sustainable development","lat":"30.06263","lon":"31.24967","name":"Egypt","outputID":"00012347","precision":"9","type":"PCL"}],"title":"Medicinal Plants Conservation Project"},{"id":"00048469","subnational":[{"awardID":"00048469","focus_area":"1","focus_area_descr":"Poverty reduction & MDG achievement","lat":"29.75","lon":"31.23333","name":"Dahshur","outputID":"00058644","precision":"3","type":"PPL"},{"awardID":"00048469","focus_area":"1","focus_area_descr":"Poverty reduction & MDG achievement","lat":"29.86667","lon":"31.25","name":"Memphis","outputID":"00058644","precision":"3","type":"PPL"},{"awardID":"00048469","focus_area":"1","focus_area_descr":"Poverty reduction & MDG achievement","lat":"25.73333","lon":"32.6","name":"Necropolis","outputID":"00058644","precision":"3","type":"PPL"}],"title":"Mobilization of the Dahs World Heritage Site for Com dev"},{"id":"00067080","subnational":[],"title":"National Biodiversity Strategy and Action Plan"},{"id":"00049649","subnational":[{"awardID":"00049649","focus_area":"1","focus_area_descr":"Poverty reduction & MDG achievement","lat":"30.06263","lon":"31.24967","name":"Cairo","outputID":"00060701","precision":"3","type":"PPLC"}],"title":"National CSR and Global Compact Center"},{"id":"00012375","subnational":[{"awardID":"00012375","focus_area":"1","focus_area_descr":"Poverty reduction & MDG achievement","lat":"30.06263","lon":"31.24967","name":"Egypt","outputID":"00012375","precision":"9","type":"PCL"}],"title":"National Human Dev. Report Project"},{"id":"00047913","subnational":[{"awardID":"00047913","focus_area":"1","focus_area_descr":"Poverty reduction & MDG achievement","lat":"30.06263","lon":"31.24967","name":"Egypt","outputID":"00057830","precision":"9","type":"PCL"}],"title":"Outreach Support to National Telecommunication Institute"},{"id":"00058215","subnational":[{"awardID":"00058215","focus_area":"4","focus_area_descr":"Environment & sustainable development","lat":"30.06263","lon":"31.24967","name":"Egypt","outputID":"00072223","precision":"9","type":"PCL"}],"title":"Ozone Depleting Subtances"},{"id":"00044434","subnational":[{"awardID":"00044434","focus_area":"-","focus_area_descr":"-","lat":"25.65","lon":"30.63333","name":"El Sahel","outputID":"00052243","precision":"4","type":"RES"}],"title":"Participaotry & Intrgated Health & Urban Development"},{"id":"00061637","subnational":[{"awardID":"00061637","focus_area":"4","focus_area_descr":"Environment & sustainable development","lat":"30.06263","lon":"31.24967","name":"Egypt","outputID":"00078164","precision":"9","type":"PCL"}],"title":"Phase-out of HydroChloroFluoroCarbons in Egypt Foam Sect"},{"id":"00057097","subnational":[{"awardID":"00057097","focus_area":"1","focus_area_descr":"Poverty reduction & MDG achievement","lat":"27.18096","lon":"31.18368","name":"Assiut","outputID":"00070412","precision":"3","type":"PPLA"},{"awardID":"00057097","focus_area":"1","focus_area_descr":"Poverty reduction & MDG achievement","lat":"26.55695","lon":"31.69478","name":"Sohag","outputID":"00070412","precision":"3","type":"PPLA"},{"awardID":"00057097","focus_area":"1","focus_area_descr":"Poverty reduction & MDG achievement","lat":"28.10988","lon":"30.7503","name":"Minya","outputID":"00070412","precision":"3","type":"PPLA"},{"awardID":"00057097","focus_area":"1","focus_area_descr":"Poverty reduction & MDG achievement","lat":"29.07441","lon":"31.09785","name":"Beni Suef","outputID":"00070412","precision":"3","type":"PPLA"},{"awardID":"00057097","focus_area":"1","focus_area_descr":"Poverty reduction & MDG achievement","lat":"26.16418","lon":"32.72671","name":"Qena","outputID":"00070412","precision":"3","type":"PPLA"}],"title":"Pro-Poor Horticulture Value Chains in Upper Egypt"},{"id":"00031641","subnational":[{"awardID":"00031641","focus_area":"-","focus_area_descr":"-","lat":"30.06263","lon":"31.24967","name":"Egypt","outputID":"00031817","precision":"9","type":"PCL"}],"title":"Project Implementation Services by Opert.Unit for Dev.As"},{"id":"00073119","subnational":[],"title":"Protecting Human Health and the Env from POPs"},{"id":"00064373","subnational":[],"title":"Regional Basel Convention Center"},{"id":"00056761","subnational":[{"awardID":"00056761","focus_area":"2","focus_area_descr":"Democratic governance","lat":"30.93055","lon":"31.69864","name":"Awlad Saqr","outputID":"00069670","precision":"3","type":"PPL"},{"awardID":"00056761","focus_area":"2","focus_area_descr":"Democratic governance","lat":"30.7142","lon":"31.24425","name":"Zifta","outputID":"00069670","precision":"3","type":"PPL"},{"awardID":"00056761","focus_area":"2","focus_area_descr":"Democratic governance","lat":"29.30995","lon":"30.8418","name":"Fayoum","outputID":"00069670","precision":"3","type":"PPLA"},{"awardID":"00056761","focus_area":"2","focus_area_descr":"Democratic governance","lat":"31.21564","lon":"29.95527","name":"Alexandria","outputID":"00069670","precision":"3","type":"PPLA"},{"awardID":"00056761","focus_area":"2","focus_area_descr":"Democratic governance","lat":"27.18096","lon":"31.18368","name":"Assiout","outputID":"00069670","precision":"3","type":"PPLA"},{"awardID":"00056761","focus_area":"2","focus_area_descr":"Democratic governance","lat":"24.09343","lon":"32.90704","name":"Aswan","outputID":"00069670","precision":"3","type":"PPLA"},{"awardID":"00056761","focus_area":"2","focus_area_descr":"Democratic governance","lat":"29.07441","lon":"31.09785","name":"Beni Suef","outputID":"00069670","precision":"3","type":"PPLA"},{"awardID":"00056761","focus_area":"2","focus_area_descr":"Democratic governance","lat":"30.7","lon":"31.8","name":"Sharkia","outputID":"00069670","precision":"4","type":"ADM1"},{"awardID":"00056761","focus_area":"2","focus_area_descr":"Democratic governance","lat":"31.25654","lon":"32.28412","name":"Port Said","outputID":"00069670","precision":"3","type":"PPLA"},{"awardID":"00056761","focus_area":"2","focus_area_descr":"Democratic governance","lat":"29.97371","lon":"32.52627","name":"Suez","outputID":"00069670","precision":"3","type":"PPLA"},{"awardID":"00056761","focus_area":"2","focus_area_descr":"Democratic governance","lat":"28.53914","lon":"33.97496","name":"Sinai","outputID":"00069670","precision":"4","type":"RES"},{"awardID":"00056761","focus_area":"2","focus_area_descr":"Democratic governance","lat":"28.10988","lon":"30.7503","name":"Minia","outputID":"00069670","precision":"3","type":"PPLA"}],"title":"Regional, National & Governorate Strategic Planning SPAD"},{"id":"00049298","subnational":[{"awardID":"00049298","focus_area":"4","focus_area_descr":"Environment & sustainable development","lat":"30.06263","lon":"31.24967","name":"Egypt","outputID":"00060021","precision":"9","type":"PCL"}],"title":"SOARING BIRDS FSP (Egypt Component)"},{"id":"00045653","subnational":[{"awardID":"00045653","focus_area":"1","focus_area_descr":"Poverty reduction & MDG achievement","lat":"30.06263","lon":"31.24967","name":"Cairo","outputID":"00053972","precision":"3","type":"PPLC"},{"awardID":"00045653","focus_area":"1","focus_area_descr":"Poverty reduction & MDG achievement","lat":"30.06263","lon":"31.24967","name":"Egypt","outputID":"00070132","precision":"9","type":"PCL"}],"title":"Social Contract Advisory, Monitoring and Coord. Center"},{"id":"00049150","subnational":[{"awardID":"00049150","focus_area":"1","focus_area_descr":"Poverty reduction & MDG achievement","lat":"30.06263","lon":"31.24967","name":"Egypt","outputID":"00059735","precision":"9","type":"PCL"}],"title":"Social Fund for Development - Phase IV"},{"id":"00060199","subnational":[],"title":"Solid Waste Management in Minya - Phase II"},{"id":"00012357","subnational":[{"awardID":"00012357","focus_area":"2","focus_area_descr":"Democratic governance","lat":"30.06263","lon":"31.24967","name":"Cairo","outputID":"00048331","precision":"3","type":"PPLC"}],"title":"Strategic Dev. Plan of Southern Egypt (New Valley)"},{"id":"00047162","subnational":[{"awardID":"00047162","focus_area":"2","focus_area_descr":"Democratic governance","lat":"30.06263","lon":"31.24967","name":"Cairo","outputID":"00056471","precision":"3","type":"PPLC"},{"awardID":"00047162","focus_area":"2","focus_area_descr":"Democratic governance","lat":"30.00808","lon":"31.21093","name":"Giza","outputID":"00056471","precision":"3","type":"PPLA"},{"awardID":"00047162","focus_area":"2","focus_area_descr":"Democratic governance","lat":"30.12511","lon":"31.25053","name":"Shubra El Kheima","outputID":"00056471","precision":"3","type":"PPL"}],"title":"Strategic Urban Dev. Plan for Greater Cairo Region"},{"id":"00058428","subnational":[{"awardID":"00058428","focus_area":"2","focus_area_descr":"Democratic governance","lat":"31.21564","lon":"29.95527","name":"Alexandria","outputID":"00072587","precision":"3","type":"PPLA"}],"title":"Strategic Urban Planning for Alexandria City till 2032"},{"id":"00060771","subnational":[],"title":"Strengthening Capacities for Results Based Management"},{"id":"00044225","subnational":[{"awardID":"00044225","focus_area":"1","focus_area_descr":"Poverty reduction & MDG achievement","lat":"30.06263","lon":"31.24967","name":"Egypt","outputID":"00051879","precision":"9","type":"PCL"}],"title":"Strengthening capacity of Ministry of Social Solidarity"},{"id":"00062430","subnational":[{"awardID":"00062430","focus_area":"2","focus_area_descr":"Democratic governance","lat":"30.06263","lon":"31.24967","name":"Egypt","outputID":"00079914","precision":"9","type":"PCL"}],"title":"Strengthening of the Democratic Process in Egypt"},{"id":"00057529","subnational":[{"awardID":"00057529","focus_area":"4","focus_area_descr":"Environment & sustainable development","lat":"27.8","lon":"30.83333","name":"Sidi Muhammad al Ahrash","outputID":"00071131","precision":"3","type":"PPL"},{"awardID":"00057529","focus_area":"4","focus_area_descr":"Environment & sustainable development","lat":"27.73251","lon":"34.25904","name":"Ras Mohammad","outputID":"00071131","precision":"3","type":"PPL"},{"awardID":"00057529","focus_area":"4","focus_area_descr":"Environment & sustainable development","lat":"28.06958","lon":"34.42654","name":"Nabq","outputID":"00071131","precision":"3","type":"PPL"},{"awardID":"00057529","focus_area":"4","focus_area_descr":"Environment & sustainable development","lat":"28.51","lon":"33.95463","name":"St. Katherine","outputID":"00071131","precision":"4","type":"RES"},{"awardID":"00057529","focus_area":"4","focus_area_descr":"Environment & sustainable development","lat":"27.18624","lon":"33.78845","name":"Red Sea","outputID":"00071131","precision":"4","type":"ADM1"},{"awardID":"00057529","focus_area":"4","focus_area_descr":"Environment & sustainable development","lat":"31.47722","lon":"30.85228","name":"Burullus","outputID":"00071131","precision":"4","type":"RES"},{"awardID":"00057529","focus_area":"4","focus_area_descr":"Environment & sustainable development","lat":"30.69651","lon":"33.97038","name":"Zaranik","outputID":"00071131","precision":"4","type":"RES"},{"awardID":"00057529","focus_area":"4","focus_area_descr":"Environment & sustainable development","lat":"27.0568","lon":"27.96979","name":"Farafra","outputID":"00071131","precision":"3","type":"PPL"},{"awardID":"00057529","focus_area":"4","focus_area_descr":"Environment & sustainable development","lat":"22.2","lon":"36.33333","name":"Elba","outputID":"00071131","precision":"4","type":"RES"},{"awardID":"00057529","focus_area":"4","focus_area_descr":"Environment & sustainable development","lat":"24.0724","lon":"32.86565","name":"Saluga","outputID":"00071131","precision":"4","type":"RES"},{"awardID":"00057529","focus_area":"4","focus_area_descr":"Environment & sustainable development","lat":"30.72304","lon":"31.04846","name":"Ghazal","outputID":"00071131","precision":"3","type":"PPL"},{"awardID":"00057529","focus_area":"4","focus_area_descr":"Environment & sustainable development","lat":"31.28528","lon":"32.19167","name":"Ashtum El Gamil","outputID":"00071131","precision":"4","type":"RES"},{"awardID":"00057529","focus_area":"4","focus_area_descr":"Environment & sustainable development","lat":"30.5218","lon":"33.79145","name":"Hassana","outputID":"00071131","precision":"4","type":"RES"},{"awardID":"00057529","focus_area":"4","focus_area_descr":"Environment & sustainable development","lat":"29.15","lon":"30.41667","name":"Wadi El Rayan","outputID":"00071131","precision":"4","type":"RES"},{"awardID":"00057529","focus_area":"4","focus_area_descr":"Environment & sustainable development","lat":"30.9","lon":"29.38333","name":"Maadi","outputID":"00071131","precision":"4","type":"RES"},{"awardID":"00057529","focus_area":"4","focus_area_descr":"Environment & sustainable development","lat":"22.96667","lon":"32.9","name":"Wadi Allaqi","outputID":"00071131","precision":"4","type":"RES"},{"awardID":"00057529","focus_area":"4","focus_area_descr":"Environment & sustainable development","lat":"28.98224","lon":"31.04981","name":"Sannur","outputID":"00071131","precision":"3","type":"PPL"},{"awardID":"00057529","focus_area":"4","focus_area_descr":"Environment & sustainable development","lat":"28.62478","lon":"34.57443","name":"Abu Galum","outputID":"00071131","precision":"4","type":"RES"},{"awardID":"00057529","focus_area":"4","focus_area_descr":"Environment & sustainable development","lat":"28","lon":"32","name":"Arabian Desert","outputID":"00071131","precision":"3","type":"RES"},{"awardID":"00057529","focus_area":"4","focus_area_descr":"Environment & sustainable development","lat":"29.49199","lon":"34.89572","name":"Taba","outputID":"00071131","precision":"3","type":"PPL"},{"awardID":"00057529","focus_area":"4","focus_area_descr":"Environment & sustainable development","lat":"29.9782","lon":"31.2332","name":"Maadi Cornish","outputID":"00071131","precision":"3","type":"PPL"},{"awardID":"00057529","focus_area":"4","focus_area_descr":"Environment & sustainable development","lat":"29.19226","lon":"25.52753","name":"Siwa","outputID":"00071131","precision":"4","type":"RES"},{"awardID":"00057529","focus_area":"4","focus_area_descr":"Environment & sustainable development","lat":"27.25738","lon":"33.81291","name":"Hurghada","outputID":"00071131","precision":"3","type":"PPLA"}],"title":"Strengthening Protected Areas Finance&Mgmt Systems"},{"id":"00050062","subnational":[{"awardID":"00050062","focus_area":"2","focus_area_descr":"Democratic governance","lat":"30.06263","lon":"31.24967","name":"Egypt","outputID":"00061621","precision":"9","type":"PCL"}],"title":"Strengthening the Capacity of the CCCPA"},{"id":"00056788","subnational":[{"awardID":"00056788","focus_area":"2","focus_area_descr":"Democratic governance","lat":"30.06263","lon":"31.24967","name":"Cairo","outputID":"00069730","precision":"3","type":"PPLC"}],"title":"Strengthening Transparency & Integrity in Civil Service"},{"id":"00044541","subnational":[{"awardID":"00044541","focus_area":"-","focus_area_descr":"-","lat":"29.97371","lon":"32.52627","name":"Suez","outputID":"00052432","precision":"3","type":"PPLA"},{"awardID":"00044541","focus_area":"-","focus_area_descr":"-","lat":"29.07441","lon":"31.09785","name":"Beni Suef","outputID":"00052432","precision":"3","type":"PPLA"},{"awardID":"00044541","focus_area":"-","focus_area_descr":"-","lat":"30.06263","lon":"31.24967","name":"Cairo","outputID":"00052432","precision":"3","type":"PPLC"},{"awardID":"00044541","focus_area":"2","focus_area_descr":"Democratic governance","lat":"30.06263","lon":"31.24967","name":"Egypt","outputID":"00072481","precision":"9","type":"PCL"}],"title":"Support legal Aid & Dispute settlement in Family Courts"},{"id":"00065184","subnational":[],"title":"Support to Egyptian Protected Areas"},{"id":"00040473","subnational":[{"awardID":"00040473","focus_area":"2","focus_area_descr":"Democratic governance","lat":"30.06263","lon":"31.24967","name":"Egypt","outputID":"00048830","precision":"9","type":"PCL"}],"title":"Support to modernization of Egypt Post"},{"id":"00057242","subnational":[{"awardID":"00057242","focus_area":"2","focus_area_descr":"Democratic governance","lat":"30.06263","lon":"31.24967","name":"Egypt","outputID":"00070642","precision":"9","type":"PCL"}],"title":"Support to National Council for Human Righhts -INSAN II"},{"id":"00057704","subnational":[{"awardID":"00057704","focus_area":"1","focus_area_descr":"Poverty reduction & MDG achievement","lat":"30.06263","lon":"31.24967","name":"Cairo","outputID":"00071399","precision":"3","type":"PPLC"}],"title":"Support to Pension Fund and Fiscal Policy Reform"},{"id":"00071852","subnational":[],"title":"Support to the Modern. of the Egyptian POST Ph. II"},{"id":"00072087","subnational":[],"title":"Support to the NCCCC"},{"id":"00045519","subnational":[{"awardID":"00045519","focus_area":"1","focus_area_descr":"Poverty reduction & MDG achievement","lat":"30.06263","lon":"31.24967","name":"Egypt","outputID":"00053786","precision":"9","type":"PCL"}],"title":"Support2Egyptian Education Initiative"},{"id":"00045437","subnational":[{"awardID":"00045437","focus_area":"2","focus_area_descr":"Democratic governance","lat":"30.83007","lon":"28.95502","name":"Alamein","outputID":"00053680","precision":"3","type":"PPL"},{"awardID":"00045437","focus_area":"2","focus_area_descr":"Democratic governance","lat":"31.35254","lon":"27.24528","name":"Matruh","outputID":"00053680","precision":"3","type":"PPLA"},{"awardID":"00045437","focus_area":"2","focus_area_descr":"Democratic governance","lat":"29.18952","lon":"32.97395","name":"Hammam","outputID":"00053680","precision":"4","type":"RES"},{"awardID":"00045437","focus_area":"2","focus_area_descr":"Democratic governance","lat":"31.08563","lon":"28.43464","name":"Dabaa","outputID":"00053680","precision":"3","type":"PPL"},{"awardID":"00045437","focus_area":"2","focus_area_descr":"Democratic governance","lat":"31.61245","lon":"25.92554","name":"Barrani","outputID":"00053680","precision":"3","type":"PPL"}],"title":"Support2North-West Coast Development&Mine Action Plan"},{"id":"00060666","subnational":[{"awardID":"00060666","focus_area":"1","focus_area_descr":"Poverty reduction & MDG achievement","lat":"30.06263","lon":"31.24967","name":"Egypt","outputID":"00076490","precision":"9","type":"PCL"}],"title":"Supporting ITI Activities- Phase II"},{"id":"00045618","subnational":[{"awardID":"00045618","focus_area":"2","focus_area_descr":"Democratic governance","lat":"30.06263","lon":"31.24967","name":"Egypt","outputID":"00053916","precision":"9","type":"PCL"}],"title":"Supporting NTRA"},{"id":"00050031","subnational":[{"awardID":"00050031","focus_area":"1","focus_area_descr":"Poverty reduction & MDG achievement","lat":"30.06263","lon":"31.24967","name":"Egypt","outputID":"00061560","precision":"9","type":"PCL"}],"title":"Supporting participation & collaboration with Int'l Fora"},{"id":"00060612","subnational":[{"awardID":"00060612","focus_area":"1","focus_area_descr":"Poverty reduction & MDG achievement","lat":"30.06263","lon":"31.24967","name":"Egypt","outputID":"00076388","precision":"9","type":"PCL"}],"title":"Supporting the Activities of TIEC"},{"id":"00034204","subnational":[{"awardID":"00034204","focus_area":"-","focus_area_descr":"-","lat":"30.06263","lon":"31.24967","name":"Egypt","outputID":"00036186","precision":"9","type":"PCL"},{"awardID":"00034204","focus_area":"-","focus_area_descr":"-","lat":"29.2","lon":"30.63333","name":"Madinet Madi","outputID":"00036187","precision":"3","type":"PPL"},{"awardID":"00034204","focus_area":"-","focus_area_descr":"-","lat":"29.15","lon":"30.41667","name":"Wadi Rayan","outputID":"00036187","precision":"3","type":"PPL"}],"title":"Supreme Council for Antiquities - ITY"},{"id":"00045900","subnational":[{"awardID":"00045900","focus_area":"4","focus_area_descr":"Environment & sustainable development","lat":"30.06263","lon":"31.24967","name":"Egypt","outputID":"00054348","precision":"9","type":"PCL"}],"title":"Sustainable Transport: Full Sized Project"},{"id":"00036732","subnational":[{"awardID":"00036732","focus_area":"2","focus_area_descr":"Democratic governance","lat":"30.06263","lon":"31.24967","name":"Egypt","outputID":"00048600","precision":"9","type":"PCL"},{"awardID":"00036732","focus_area":"2","focus_area_descr":"Democratic governance","lat":"30.06263","lon":"31.24967","name":"Egypt","outputID":"00058035","precision":"9","type":"PCL"},{"awardID":"00036732","focus_area":"2","focus_area_descr":"Democratic governance","lat":"30.06263","lon":"31.24967","name":"Egypt","outputID":"00058036","precision":"9","type":"PCL"},{"awardID":"00036732","focus_area":"2","focus_area_descr":"Democratic governance","lat":"30.06263","lon":"31.24967","name":"Egypt","outputID":"00058037","precision":"9","type":"PCL"}],"title":"Technical Support to MOLD in support to Local Developmen"},{"id":"00049719","subnational":[{"awardID":"00049719","focus_area":"1","focus_area_descr":"Poverty reduction & MDG achievement","lat":"30.06263","lon":"31.24967","name":"Egypt","outputID":"00060858","precision":"9","type":"PCL"}],"title":"Technology to Foster Human Development in Egypt: PhaseII"},{"id":"00059810","subnational":[{"awardID":"00059810","focus_area":"4","focus_area_descr":"Environment & sustainable development","lat":"30.06263","lon":"31.24967","name":"Egypt","outputID":"00074967","precision":"9","type":"PCL"}],"title":"Third National Communication"},{"id":"00061973","subnational":[{"awardID":"00061973","focus_area":"-","focus_area_descr":"-","lat":"30.06263","lon":"31.24967","name":"Egypt","outputID":"00079144","precision":"9","type":"PCL"}],"title":"UNDP-EU National CC Capacity Building Programme"}]}