{"iso_num": null, "projects": [{"title": "strategic dev. plan of southern egypt (new valley)", "id": "00012357", "subnational": [{"outputID": "00048331", "output_locID": "00048331-1", "name": "Luxor", "focus_area": "7", "lat": "25.698930", "type": "PPLA", "awardID": "00012357", "lon": "32.642100", "precision": "1", "focus_area_descr": "Development Impact & Effectiveness"}]}, {"title": "consolidation of oper.unit for dev assist secretariat", "id": "00031368", "subnational": [{"outputID": "00031457", "output_locID": "00031457-1", "name": "Egypt", "focus_area": "8", "lat": "27.000000", "type": "PCLI", "awardID": "00031368", "lon": "30.000000", "precision": "1", "focus_area_descr": "Organizational Results Area 1"}]}, {"title": "project implementation services by opert.unit for dev.as", "id": "00031641", "subnational": [{"outputID": "00031817", "output_locID": "00031817-1", "name": "Egypt", "focus_area": "8", "lat": "27.000000", "type": "PCLI", "awardID": "00031641", "lon": "30.000000", "precision": "1", "focus_area_descr": "Organizational Results Area 1"}]}, {"title": "support to un coordination", "id": "00032144", "subnational": []}, {"title": "supreme council for antiquities - ity", "id": "00034204", "subnational": [{"outputID": "00036187", "output_locID": "00036187-1", "name": "Wadi ar Rayyan", "focus_area": "2", "lat": "29.150000", "type": "DPR", "awardID": "00034204", "lon": "30.416670", "precision": "1", "focus_area_descr": "Democratic Governance"}, {"outputID": "00036187", "output_locID": "00036187-2", "name": "Kawm Madinat Ma?i", "focus_area": "2", "lat": "29.200000", "type": "MND", "awardID": "00034204", "lon": "30.633330", "precision": "1", "focus_area_descr": "Democratic Governance"}, {"outputID": "00036186", "output_locID": "00036186-1", "name": "Egypt", "focus_area": "2", "lat": "27.000000", "type": "PCLI", "awardID": "00034204", "lon": "30.000000", "precision": "1", "focus_area_descr": "Democratic Governance"}]}, {"title": "support legal aid & dispute settlement in family courts", "id": "00044541", "subnational": [{"outputID": "00072481", "output_locID": "00072481-1", "name": "Cairo", "focus_area": "3", "lat": "30.062630", "type": "PPLC", "awardID": "00044541", "lon": "31.249670", "precision": "1", "focus_area_descr": "Responsive Institutions"}, {"outputID": "00052432", "output_locID": "00052432-1", "name": "Bani Suwayf", "focus_area": "3", "lat": "29.074410", "type": "PPLA", "awardID": "00044541", "lon": "31.097850", "precision": "1", "focus_area_descr": "Responsive Institutions"}, {"outputID": "00052432", "output_locID": "00052432-2", "name": "Suez", "focus_area": "3", "lat": "29.973710", "type": "PPLA", "awardID": "00044541", "lon": "32.526270", "precision": "1", "focus_area_descr": "Responsive Institutions"}, {"outputID": "00052432", "output_locID": "00052432-3", "name": "Cairo", "focus_area": "3", "lat": "30.062630", "type": "PPLC", "awardID": "00044541", "lon": "31.249670", "precision": "1", "focus_area_descr": "Responsive Institutions"}]}, {"title": "bioenergy for sustainable rural development: fsp", "id": "00045899", "subnational": [{"outputID": "00054347", "output_locID": "00054347-1", "name": "Asyut", "focus_area": "1", "lat": "27.180960", "type": "PPLA", "awardID": "00045899", "lon": "31.183680", "precision": "1", "focus_area_descr": "Inclusive & Sustainable Growth"}, {"outputID": "00054347", "output_locID": "00054347-2", "name": "Mu?afaz\u00b8at al Qalyubiyah", "focus_area": "1", "lat": "30.300000", "type": "ADM1", "awardID": "00045899", "lon": "31.250000", "precision": "1", "focus_area_descr": "Inclusive & Sustainable Growth"}, {"outputID": "00054347", "output_locID": "00054347-3", "name": "Al Jizah", "focus_area": "1", "lat": "30.008080", "type": "PPLA", "awardID": "00045899", "lon": "31.210930", "precision": "1", "focus_area_descr": "Inclusive & Sustainable Growth"}, {"outputID": "00054347", "output_locID": "00054347-4", "name": "Alexandria", "focus_area": "1", "lat": "31.215640", "type": "PPLA", "awardID": "00045899", "lon": "29.955270", "precision": "1", "focus_area_descr": "Inclusive & Sustainable Growth"}, {"outputID": "00054347", "output_locID": "00054347-5", "name": "Al Fayyum", "focus_area": "1", "lat": "29.309950", "type": "PPLA", "awardID": "00045899", "lon": "30.841800", "precision": "1", "focus_area_descr": "Inclusive & Sustainable Growth"}]}, {"title": "sustainable transport: full sized project", "id": "00045900", "subnational": [{"outputID": "00054348", "output_locID": "00054348-1", "name": "Cairo", "focus_area": "1", "lat": "30.062630", "type": "PPLC", "awardID": "00045900", "lon": "31.249670", "precision": "1", "focus_area_descr": "Inclusive & Sustainable Growth"}]}, {"title": "groundwater in nile countries", "id": "00048455", "subnational": [{"outputID": "00058627", "output_locID": "00058627-1", "name": "Egypt", "focus_area": "2", "lat": "27.000000", "type": "PCLI", "awardID": "00048455", "lon": "30.000000", "precision": "1", "focus_area_descr": "Democratic Governance"}]}, {"title": "social fund for development - phase iv", "id": "00049150", "subnational": [{"outputID": "00059735", "output_locID": "00059735-1", "name": "Egypt", "focus_area": "1", "lat": "27.000000", "type": "PCLI", "awardID": "00049150", "lon": "30.000000", "precision": "1", "focus_area_descr": "Inclusive & Sustainable Growth"}]}, {"title": "soaring birds fsp (egypt component)", "id": "00049298", "subnational": [{"outputID": "00060021", "output_locID": "00060021-1", "name": "Egypt", "focus_area": "2", "lat": "27.000000", "type": "PCLI", "awardID": "00049298", "lon": "30.000000", "precision": "1", "focus_area_descr": "Democratic Governance"}]}, {"title": "national csr and global compact center", "id": "00049649", "subnational": [{"outputID": "00060701", "output_locID": "00060701-1", "name": "Cairo", "focus_area": "7", "lat": "30.062630", "type": "PPLC", "awardID": "00049649", "lon": "31.249670", "precision": "1", "focus_area_descr": "Development Impact & Effectiveness"}]}, {"title": "regional, national & governorate strategic planning spad", "id": "00056761", "subnational": [{"outputID": "00069670", "output_locID": "00069670-1", "name": "Zift\u00e1", "focus_area": "7", "lat": "30.714200", "type": "PPL", "awardID": "00056761", "lon": "31.244250", "precision": "1", "focus_area_descr": "Development Impact & Effectiveness"}, {"outputID": "00069670", "output_locID": "00069670-2", "name": "Sinai Peninsula", "focus_area": "7", "lat": "29.500000", "type": "DSRT", "awardID": "00056761", "lon": "34.000000", "precision": "1", "focus_area_descr": "Development Impact & Effectiveness"}, {"outputID": "00069670", "output_locID": "00069670-3", "name": "Port Said", "focus_area": "7", "lat": "31.256540", "type": "PPLA", "awardID": "00056761", "lon": "32.284120", "precision": "1", "focus_area_descr": "Development Impact & Effectiveness"}, {"outputID": "00069670", "output_locID": "00069670-4", "name": "Bani Suwayf", "focus_area": "7", "lat": "29.074410", "type": "PPLA", "awardID": "00056761", "lon": "31.097850", "precision": "1", "focus_area_descr": "Development Impact & Effectiveness"}, {"outputID": "00069670", "output_locID": "00069670-5", "name": "Asyut", "focus_area": "7", "lat": "27.180960", "type": "PPLA", "awardID": "00056761", "lon": "31.183680", "precision": "1", "focus_area_descr": "Development Impact & Effectiveness"}, {"outputID": "00069670", "output_locID": "00069670-6", "name": "Aswan", "focus_area": "7", "lat": "24.090820", "type": "PPLA", "awardID": "00056761", "lon": "32.899420", "precision": "1", "focus_area_descr": "Development Impact & Effectiveness"}, {"outputID": "00069670", "output_locID": "00069670-7", "name": "Suez", "focus_area": "7", "lat": "29.973710", "type": "PPLA", "awardID": "00056761", "lon": "32.526270", "precision": "1", "focus_area_descr": "Development Impact & Effectiveness"}, {"outputID": "00069670", "output_locID": "00069670-8", "name": "Mu?afaz\u00b8at ash Sharqiyah", "focus_area": "7", "lat": "30.700000", "type": "ADM1", "awardID": "00056761", "lon": "31.800000", "precision": "1", "focus_area_descr": "Development Impact & Effectiveness"}, {"outputID": "00069670", "output_locID": "00069670-9", "name": "Al Minya", "focus_area": "7", "lat": "28.109880", "type": "PPLA", "awardID": "00056761", "lon": "30.750300", "precision": "1", "focus_area_descr": "Development Impact & Effectiveness"}, {"outputID": "00069670", "output_locID": "00069670-10", "name": "Alexandria", "focus_area": "7", "lat": "31.215640", "type": "PPLA", "awardID": "00056761", "lon": "29.955270", "precision": "1", "focus_area_descr": "Development Impact & Effectiveness"}, {"outputID": "00069670", "output_locID": "00069670-11", "name": "Al Fayyum", "focus_area": "7", "lat": "29.309950", "type": "PPLA", "awardID": "00056761", "lon": "30.841800", "precision": "1", "focus_area_descr": "Development Impact & Effectiveness"}, {"outputID": "00069670", "output_locID": "00069670-12", "name": "Awlad Saqr", "focus_area": "7", "lat": "30.930550", "type": "PPL", "awardID": "00056761", "lon": "31.698640", "precision": "1", "focus_area_descr": "Development Impact & Effectiveness"}]}, {"title": "strengthening transparency & integrity in civil service", "id": "00056788", "subnational": [{"outputID": "00069730", "output_locID": "00069730-1", "name": "Cairo", "focus_area": "2", "lat": "30.062630", "type": "PPLC", "awardID": "00056788", "lon": "31.249670", "precision": "1", "focus_area_descr": "Democratic Governance"}]}, {"title": "support to national council for human righhts -insan ii", "id": "00057242", "subnational": [{"outputID": "00070642", "output_locID": "00070642-1", "name": "Cairo", "focus_area": "2", "lat": "30.062630", "type": "PPLC", "awardID": "00057242", "lon": "31.249670", "precision": "1", "focus_area_descr": "Democratic Governance"}]}, {"title": "strengthening protected areas finance&mgmt systems", "id": "00057529", "subnational": [{"outputID": "00071131", "output_locID": "00071131-1", "name": "Wadi Umm Zaranik", "focus_area": "2", "lat": "30.798250", "type": "WAD", "awardID": "00057529", "lon": "33.900020", "precision": "1", "focus_area_descr": "Democratic Governance"}, {"outputID": "00071131", "output_locID": "00071131-2", "name": "Taba", "focus_area": "2", "lat": "29.491990", "type": "PPL", "awardID": "00057529", "lon": "34.895720", "precision": "1", "focus_area_descr": "Democratic Governance"}, {"outputID": "00071131", "output_locID": "00071131-3", "name": "Siwa Oasis", "focus_area": "2", "lat": "29.192260", "type": "OAS", "awardID": "00057529", "lon": "25.527530", "precision": "1", "focus_area_descr": "Democratic Governance"}, {"outputID": "00071131", "output_locID": "00071131-4", "name": "Sidi Mu?ammad al A?rash", "focus_area": "2", "lat": "27.800000", "type": "TMB", "awardID": "00057529", "lon": "30.833330", "precision": "1", "focus_area_descr": "Democratic Governance"}, {"outputID": "00071131", "output_locID": "00071131-5", "name": "Arabian Desert", "focus_area": "2", "lat": "28.000000", "type": "DSRT", "awardID": "00057529", "lon": "32.000000", "precision": "1", "focus_area_descr": "Democratic Governance"}, {"outputID": "00071131", "output_locID": "00071131-6", "name": "Sannur", "focus_area": "2", "lat": "28.982240", "type": "PPL", "awardID": "00057529", "lon": "31.049810", "precision": "1", "focus_area_descr": "Democratic Governance"}, {"outputID": "00071131", "output_locID": "00071131-7", "name": "Jazirat Salujah", "focus_area": "2", "lat": "24.072400", "type": "ISL", "awardID": "00057529", "lon": "32.865650", "precision": "1", "focus_area_descr": "Democratic Governance"}, {"outputID": "00071131", "output_locID": "00071131-8", "name": "Wadi ar Rayyan", "focus_area": "2", "lat": "29.150000", "type": "DPR", "awardID": "00057529", "lon": "30.416670", "precision": "1", "focus_area_descr": "Democratic Governance"}, {"outputID": "00071131", "output_locID": "00071131-9", "name": "Qasr al Farafirah", "focus_area": "2", "lat": "27.056800", "type": "PPL", "awardID": "00057529", "lon": "27.969790", "precision": "1", "focus_area_descr": "Democratic Governance"}, {"outputID": "00071131", "output_locID": "00071131-10", "name": "Nag\u2018 Ghazali", "focus_area": "2", "lat": "26.083330", "type": "PPL", "awardID": "00057529", "lon": "32.750000", "precision": "1", "focus_area_descr": "Democratic Governance"}, {"outputID": "00071131", "output_locID": "00071131-11", "name": "Nabq Bay", "focus_area": "2", "lat": "28.040700", "type": "BAY", "awardID": "00057529", "lon": "34.432610", "precision": "1", "focus_area_descr": "Democratic Governance"}, {"outputID": "00071131", "output_locID": "00071131-12", "name": "Ra\u2019s Mu?ammad", "focus_area": "2", "lat": "27.732510", "type": "PT", "awardID": "00057529", "lon": "34.259040", "precision": "1", "focus_area_descr": "Democratic Governance"}, {"outputID": "00071131", "output_locID": "00071131-13", "name": "Jabal \u2018Ilbah", "focus_area": "2", "lat": "22.200000", "type": "MT", "awardID": "00057529", "lon": "36.333330", "precision": "1", "focus_area_descr": "Democratic Governance"}, {"outputID": "00071131", "output_locID": "00071131-14", "name": "Wadi al ?asanah", "focus_area": "2", "lat": "30.521800", "type": "WAD", "awardID": "00057529", "lon": "33.791450", "precision": "1", "focus_area_descr": "Democratic Governance"}, {"outputID": "00071131", "output_locID": "00071131-15", "name": "Maadi Cornish", "focus_area": "2", "lat": "29.978200", "type": "PPL", "awardID": "00057529", "lon": "31.233200", "precision": "1", "focus_area_descr": "Democratic Governance"}, {"outputID": "00071131", "output_locID": "00071131-16", "name": "Bu?ayrat al Burullus", "focus_area": "2", "lat": "31.477220", "type": "LK", "awardID": "00057529", "lon": "30.852280", "precision": "1", "focus_area_descr": "Democratic Governance"}, {"outputID": "00071131", "output_locID": "00071131-17", "name": "Bughaz Ashtum al Jamil", "focus_area": "2", "lat": "31.285280", "type": "CHN", "awardID": "00057529", "lon": "32.191670", "precision": "1", "focus_area_descr": "Democratic Governance"}, {"outputID": "00071131", "output_locID": "00071131-18", "name": "Al Ma\u2018adi", "focus_area": "2", "lat": "29.966670", "type": "PPL", "awardID": "00057529", "lon": "31.250000", "precision": "1", "focus_area_descr": "Democratic Governance"}, {"outputID": "00071131", "output_locID": "00071131-19", "name": "Wadi al \u2018Allaqi", "focus_area": "2", "lat": "22.966670", "type": "WAD", "awardID": "00057529", "lon": "32.900000", "precision": "1", "focus_area_descr": "Democratic Governance"}, {"outputID": "00071131", "output_locID": "00071131-20", "name": "Hurghada", "focus_area": "2", "lat": "27.257380", "type": "PPLA", "awardID": "00057529", "lon": "33.812910", "precision": "1", "focus_area_descr": "Democratic Governance"}, {"outputID": "00071131", "output_locID": "00071131-21", "name": "Red Sea Governorate", "focus_area": "2", "lat": "27.186240", "type": "ADM1", "awardID": "00057529", "lon": "33.788450", "precision": "1", "focus_area_descr": "Democratic Governance"}, {"outputID": "00071131", "output_locID": "00071131-22", "name": "Ra\u2018s Abu Qalum", "focus_area": "2", "lat": "28.624780", "type": "PT", "awardID": "00057529", "lon": "34.574430", "precision": "1", "focus_area_descr": "Democratic Governance"}, {"outputID": "00071131", "output_locID": "00071131-23", "name": "Saint Catherine", "focus_area": "2", "lat": "28.561910", "type": "PPL", "awardID": "00057529", "lon": "33.949340", "precision": "1", "focus_area_descr": "Democratic Governance"}]}, {"title": "adaptation to climate change in the nile delta", "id": "00057676", "subnational": [{"outputID": "00071359", "output_locID": "00071359-1", "name": "Rosetta", "focus_area": "1", "lat": "31.404440", "type": "PPL", "awardID": "00057676", "lon": "30.416390", "precision": "1", "focus_area_descr": "Inclusive & Sustainable Growth"}, {"outputID": "00071359", "output_locID": "00071359-2", "name": "Damietta", "focus_area": "1", "lat": "31.416480", "type": "PPLA", "awardID": "00057676", "lon": "31.813320", "precision": "1", "focus_area_descr": "Inclusive & Sustainable Growth"}, {"outputID": "00071359", "output_locID": "00071359-3", "name": "Port Said", "focus_area": "1", "lat": "31.256540", "type": "PPLA", "awardID": "00057676", "lon": "32.284120", "precision": "1", "focus_area_descr": "Inclusive & Sustainable Growth"}, {"outputID": "00071359", "output_locID": "00071359-4", "name": "Alexandria", "focus_area": "1", "lat": "31.215640", "type": "PPLA", "awardID": "00057676", "lon": "29.955270", "precision": "1", "focus_area_descr": "Inclusive & Sustainable Growth"}, {"outputID": "00071359", "output_locID": "00071359-5", "name": "Beheira Governorate", "focus_area": "1", "lat": "30.600000", "type": "ADM1", "awardID": "00057676", "lon": "30.200000", "precision": "1", "focus_area_descr": "Inclusive & Sustainable Growth"}]}, {"title": "support to pension fund and fiscal policy reform", "id": "00057704", "subnational": [{"outputID": "00071399", "output_locID": "00071399-1", "name": "Cairo", "focus_area": "1", "lat": "30.062630", "type": "PPLC", "awardID": "00057704", "lon": "31.249670", "precision": "1", "focus_area_descr": "Inclusive & Sustainable Growth"}]}, {"title": "abandon female genital mutilation & empower families", "id": "00058179", "subnational": [{"outputID": "00072158", "output_locID": "00072158-1", "name": "Cairo", "focus_area": "4", "lat": "30.062630", "type": "PPLC", "awardID": "00058179", "lon": "31.249670", "precision": "1", "focus_area_descr": "Gender Equality"}, {"outputID": "00080857", "output_locID": "00080857-1", "name": "Cairo", "focus_area": "4", "lat": "30.062630", "type": "PPLC", "awardID": "00058179", "lon": "31.249670", "precision": "1", "focus_area_descr": "Gender Equality"}]}, {"title": "strategic urban planning for alexandria city till 2032", "id": "00058428", "subnational": [{"outputID": "00072587", "output_locID": "00072587-1", "name": "Alexandria", "focus_area": "7", "lat": "31.215640", "type": "PPLA", "awardID": "00058428", "lon": "29.955270", "precision": "1", "focus_area_descr": "Development Impact & Effectiveness"}]}, {"title": "third national communication", "id": "00059810", "subnational": [{"outputID": "00074967", "output_locID": "00074967-1", "name": "Egypt", "focus_area": "1", "lat": "27.000000", "type": "PCLI", "awardID": "00059810", "lon": "30.000000", "precision": "1", "focus_area_descr": "Inclusive & Sustainable Growth"}]}, {"title": "enhance efficiency &accountability of the public sector", "id": "00060083", "subnational": [{"outputID": "00075466", "output_locID": "00075466-1", "name": "Cairo", "focus_area": "7", "lat": "30.062630", "type": "PPLC", "awardID": "00060083", "lon": "31.249670", "precision": "1", "focus_area_descr": "Development Impact & Effectiveness"}]}, {"title": "improvingenergyefficiency oflighting&building appliances", "id": "00060162", "subnational": [{"outputID": "00075645", "output_locID": "00075645-1", "name": "Egypt", "focus_area": "1", "lat": "27.000000", "type": "PCLI", "awardID": "00060162", "lon": "30.000000", "precision": "1", "focus_area_descr": "Inclusive & Sustainable Growth"}]}, {"title": "solid waste management in minya - phase ii", "id": "00060199", "subnational": [{"outputID": "00075697", "output_locID": "00075697-1", "name": "Al Minya", "focus_area": "1", "lat": "28.109880", "type": "PPLA", "awardID": "00060199", "lon": "30.750300", "precision": "1", "focus_area_descr": "Inclusive & Sustainable Growth"}]}, {"title": "supporting the activities of tiec", "id": "00060612", "subnational": [{"outputID": "00076388", "output_locID": "00076388-1", "name": "Cairo", "focus_area": "7", "lat": "30.062630", "type": "PPLC", "awardID": "00060612", "lon": "31.249670", "precision": "1", "focus_area_descr": "Development Impact & Effectiveness"}]}, {"title": "supporting iti activities- phase ii", "id": "00060666", "subnational": [{"outputID": "00076490", "output_locID": "00076490-1", "name": "Cairo", "focus_area": "1", "lat": "30.062630", "type": "PPLC", "awardID": "00060666", "lon": "31.249670", "precision": "1", "focus_area_descr": "Inclusive & Sustainable Growth"}]}, {"title": "strengthening results management capacities", "id": "00060771", "subnational": [{"outputID": "00076659", "output_locID": "00076659-1", "name": "Cairo", "focus_area": "3", "lat": "30.062630", "type": "PPLC", "awardID": "00060771", "lon": "31.249670", "precision": "1", "focus_area_descr": "Responsive Institutions"}]}, {"title": "phase-out of hydrochlorofluorocarbons in egypt foam sect", "id": "00061637", "subnational": [{"outputID": "00078164", "output_locID": "00078164-1", "name": "Cairo", "focus_area": "1", "lat": "30.062630", "type": "PPLC", "awardID": "00061637", "lon": "31.249670", "precision": "1", "focus_area_descr": "Inclusive & Sustainable Growth"}]}, {"title": "undp-eu low emissions capacity building programme", "id": "00061973", "subnational": [{"outputID": "00079144", "output_locID": "00079144-1", "name": "Cairo", "focus_area": "1", "lat": "30.062630", "type": "PPLC", "awardID": "00061973", "lon": "31.249670", "precision": "1", "focus_area_descr": "Inclusive & Sustainable Growth"}]}, {"title": "strengthening of the democratic process in egypt", "id": "00062430", "subnational": [{"outputID": "00079914", "output_locID": "00079914-1", "name": "Egypt", "focus_area": "2", "lat": "27.000000", "type": "PCLI", "awardID": "00062430", "lon": "30.000000", "precision": "1", "focus_area_descr": "Democratic Governance"}, {"outputID": "00083566", "output_locID": "00083566-1", "name": "Egypt", "focus_area": "2", "lat": "27.000000", "type": "PCLI", "awardID": "00062430", "lon": "30.000000", "precision": "1", "focus_area_descr": "Democratic Governance"}]}, {"title": "regional basel convention center", "id": "00064373", "subnational": [{"outputID": "00081213", "output_locID": "00081213-1", "name": "Cairo", "focus_area": "1", "lat": "30.062630", "type": "PPLC", "awardID": "00064373", "lon": "31.249670", "precision": "1", "focus_area_descr": "Inclusive & Sustainable Growth"}]}, {"title": "support to egyptian protected areas", "id": "00065184", "subnational": [{"outputID": "00081800", "output_locID": "00081800-1", "name": "Siwa Oasis", "focus_area": "2", "lat": "29.203200", "type": "PPL", "awardID": "00065184", "lon": "25.519650", "precision": "1", "focus_area_descr": "Democratic Governance"}]}, {"title": "enhancing access to knowledge for development", "id": "00069984", "subnational": [{"outputID": "00084234", "output_locID": "00084234-1", "name": "Egypt", "focus_area": "7", "lat": "27.000000", "type": "PCLI", "awardID": "00069984", "lon": "30.000000", "precision": "1", "focus_area_descr": "Development Impact & Effectiveness"}]}, {"title": "ict for comprehensive community development", "id": "00069985", "subnational": [{"outputID": "00085935", "output_locID": "00085935-1", "name": "Cairo", "focus_area": "7", "lat": "30.062630", "type": "PPLC", "awardID": "00069985", "lon": "31.249670", "precision": "1", "focus_area_descr": "Development Impact & Effectiveness"}, {"outputID": "00084235", "output_locID": "00084235-1", "name": "Cairo", "focus_area": "7", "lat": "30.062630", "type": "PPLC", "awardID": "00069985", "lon": "31.249670", "precision": "1", "focus_area_descr": "Development Impact & Effectiveness"}]}, {"title": "support to the modern. of the egyptian post ph. ii", "id": "00071852", "subnational": [{"outputID": "00085106", "output_locID": "00085106-1", "name": "Cairo", "focus_area": "7", "lat": "30.062630", "type": "PPLC", "awardID": "00071852", "lon": "31.249670", "precision": "1", "focus_area_descr": "Development Impact & Effectiveness"}, {"outputID": "00085107", "output_locID": "00085107-1", "name": "Cairo", "focus_area": "7", "lat": "30.062630", "type": "PPLC", "awardID": "00071852", "lon": "31.249670", "precision": "1", "focus_area_descr": "Development Impact & Effectiveness"}, {"outputID": "00085108", "output_locID": "00085108-1", "name": "Cairo", "focus_area": "7", "lat": "30.062630", "type": "PPLC", "awardID": "00071852", "lon": "31.249670", "precision": "1", "focus_area_descr": "Development Impact & Effectiveness"}]}, {"title": "support to the ncccc", "id": "00072087", "subnational": [{"outputID": "00085307", "output_locID": "00085307-1", "name": "Egypt", "focus_area": "2", "lat": "27.000000", "type": "PCLI", "awardID": "00072087", "lon": "30.000000", "precision": "1", "focus_area_descr": "Democratic Governance"}]}, {"title": "egypt network for integrated development (enid)", "id": "00076444", "subnational": [{"outputID": "00087829", "output_locID": "00087829-1", "name": "Qina", "focus_area": "1", "lat": "26.164180", "type": "PPLA", "awardID": "00076444", "lon": "32.726710", "precision": "1", "focus_area_descr": "Inclusive & Sustainable Growth"}]}, {"title": "supporting egyptian south-south cooperation", "id": "00080284", "subnational": []}, {"title": "cccpa phase ii", "id": "00080290", "subnational": [{"outputID": "00090042", "output_locID": "00090042-1", "name": "Cairo", "focus_area": "5", "lat": "30.062630", "type": "PPLC", "awardID": "00080290", "lon": "31.249670", "precision": "1", "focus_area_descr": "Climate Change & Disaster Resilience"}, {"outputID": "00094636", "output_locID": "00094636-1", "name": "Cairo", "focus_area": "5", "lat": "30.062630", "type": "PPLC", "awardID": "00080290", "lon": "31.249670", "precision": "1", "focus_area_descr": "Climate Change & Disaster Resilience"}]}, {"title": "grid-connected small-scale photovoltaic systems (pvs)", "id": "00080742", "subnational": []}, {"title": "sustainable development solutions (sds)", "id": "00081557", "subnational": []}, {"title": "supporting ntra phase ii", "id": "00082423", "subnational": []}, {"title": "egyptian italian environmental cooperation phase three", "id": "00083523", "subnational": []}, {"title": "protect health & environment from pops", "id": "00083771", "subnational": []}, {"title": "egypt's first biennial update report bur", "id": "00084766", "subnational": []}, {"title": "support to nwc development plan & mine action: phase ii", "id": "00085482", "subnational": []}, {"title": "sixth operational phase of the gef small grants programm", "id": "00089272", "subnational": []}, {"title": "strength develop. planning in gc", "id": "00093544", "subnational": []}, {"title": "strengthening inst.&hum. resources capacities of moss", "id": "00094577", "subnational": []}, {"title": "enhancing national capacities for improved public partic", "id": "00097298", "subnational": []}, {"title": "vsu pilot project", "id": "00098237", "subnational": []}, {"title": "sgp - small grants programme - fsp", "id": "00098847", "subnational": []}, {"title": "national human dev. report project", "id": "00012375", "subnational": [{"outputID": "00012375", "output_locID": "00012375-1", "name": "Egypt", "focus_area": "1", "lat": "27.000000", "type": "PCLI", "awardID": "00012375", "lon": "30.000000", "precision": "1", "focus_area_descr": "Inclusive & Sustainable Growth"}]}, {"title": "technical support to mold in support to local developmen", "id": "00036732", "subnational": [{"outputID": "00048600", "output_locID": "00048600-1", "name": "Egypt", "focus_area": "3", "lat": "27.000000", "type": "PCLI", "awardID": "00036732", "lon": "30.000000", "precision": "1", "focus_area_descr": "Responsive Institutions"}, {"outputID": "00058035", "output_locID": "00058035-1", "name": "Egypt", "focus_area": "3", "lat": "27.000000", "type": "PCLI", "awardID": "00036732", "lon": "30.000000", "precision": "1", "focus_area_descr": "Responsive Institutions"}, {"outputID": "00058036", "output_locID": "00058036-1", "name": "Sohag", "focus_area": "3", "lat": "26.556950", "type": "PPLA", "awardID": "00036732", "lon": "31.694780", "precision": "1", "focus_area_descr": "Responsive Institutions"}, {"outputID": "00058036", "output_locID": "00058036-2", "name": "Al Fayyum", "focus_area": "3", "lat": "29.309950", "type": "PPLA", "awardID": "00036732", "lon": "30.841800", "precision": "1", "focus_area_descr": "Responsive Institutions"}, {"outputID": "00058037", "output_locID": "00058037-1", "name": "Egypt", "focus_area": "3", "lat": "27.000000", "type": "PCLI", "awardID": "00036732", "lon": "30.000000", "precision": "1", "focus_area_descr": "Responsive Institutions"}, {"outputID": "00081832", "output_locID": "00081832-1", "name": "Qina", "focus_area": "1", "lat": "26.164180", "type": "PPLA", "awardID": "00036732", "lon": "32.726710", "precision": "1", "focus_area_descr": "Inclusive & Sustainable Growth"}]}, {"title": "information&communication technology in small businesses", "id": "00045170", "subnational": [{"outputID": "00053303", "output_locID": "00053303-1", "name": "Egypt", "focus_area": "7", "lat": "27.000000", "type": "PCLI", "awardID": "00045170", "lon": "30.000000", "precision": "1", "focus_area_descr": "Development Impact & Effectiveness"}]}, {"title": "strategic urban dev. plan for greater cairo region", "id": "00047162", "subnational": [{"outputID": "00056471", "output_locID": "00056471-1", "name": "Shubra al Khaymah", "focus_area": "7", "lat": "30.125110", "type": "PPL", "awardID": "00047162", "lon": "31.250530", "precision": "1", "focus_area_descr": "Development Impact & Effectiveness"}, {"outputID": "00056471", "output_locID": "00056471-2", "name": "Cairo", "focus_area": "7", "lat": "30.062630", "type": "PPLC", "awardID": "00047162", "lon": "31.249670", "precision": "1", "focus_area_descr": "Development Impact & Effectiveness"}, {"outputID": "00056471", "output_locID": "00056471-3", "name": "Al Jizah", "focus_area": "7", "lat": "30.008080", "type": "PPLA", "awardID": "00047162", "lon": "31.210930", "precision": "1", "focus_area_descr": "Development Impact & Effectiveness"}]}, {"title": "pims 3668 bd ppg : strength pa fin&mgmt syst.", "id": "00050426", "subnational": []}, {"title": "capacity building for crisis, disaster&risk management", "id": "00057142", "subnational": [{"outputID": "00070488", "output_locID": "00070488-1", "name": "Cairo", "focus_area": "5", "lat": "30.062630", "type": "PPLC", "awardID": "00057142", "lon": "31.249670", "precision": "1", "focus_area_descr": "Climate Change & Disaster Resilience"}]}, {"title": "ozone depleting subtances", "id": "00058215", "subnational": [{"outputID": "00072223", "output_locID": "00072223-1", "name": "Cairo", "focus_area": "1", "lat": "30.062630", "type": "PPLC", "awardID": "00058215", "lon": "31.249670", "precision": "1", "focus_area_descr": "Inclusive & Sustainable Growth"}]}, {"title": "national biodiversity strategy and action plan", "id": "00067080", "subnational": [{"outputID": "00083008", "output_locID": "00083008-1", "name": "Egypt", "focus_area": "2", "lat": "27.000000", "type": "PCLI", "awardID": "00067080", "lon": "30.000000", "precision": "1", "focus_area_descr": "Democratic Governance"}]}, {"title": "grid-connected small-scale photovoltaic systems", "id": "00072826", "subnational": [{"outputID": "00085852", "output_locID": "00085852-1", "name": "Egypt", "focus_area": "1", "lat": "27.000000", "type": "PCLI", "awardID": "00072826", "lon": "30.000000", "precision": "1", "focus_area_descr": "Inclusive & Sustainable Growth"}]}, {"title": "protecting human health and the env from pops (ppg)", "id": "00073119", "subnational": [{"outputID": "00086076", "output_locID": "00086076-1", "name": "Egypt", "focus_area": "1", "lat": "27.000000", "type": "PCLI", "awardID": "00073119", "lon": "30.000000", "precision": "1", "focus_area_descr": "Inclusive & Sustainable Growth"}]}, {"title": "support2north-west coast development&mine action plan", "id": "00045437", "subnational": [{"outputID": "00053680", "output_locID": "00053680-1", "name": "Sidi Barrani", "focus_area": "0", "lat": "31.612450", "type": "PPL", "awardID": "00045437", "lon": "25.925540", "precision": "1", "focus_area_descr": "SP_NONE_APPLIES"}, {"outputID": "00053680", "output_locID": "00053680-2", "name": "Mersa Matruh", "focus_area": "0", "lat": "31.352900", "type": "PPLA", "awardID": "00045437", "lon": "27.237250", "precision": "1", "focus_area_descr": "SP_NONE_APPLIES"}, {"outputID": "00053680", "output_locID": "00053680-3", "name": "Jabal ?ammam Fir\u2018awn", "focus_area": "0", "lat": "29.189520", "type": "MT", "awardID": "00045437", "lon": "32.973950", "precision": "1", "focus_area_descr": "SP_NONE_APPLIES"}, {"outputID": "00053680", "output_locID": "00053680-4", "name": "Al \u2018Alamayn", "focus_area": "0", "lat": "30.830070", "type": "PPL", "awardID": "00045437", "lon": "28.955020", "precision": "1", "focus_area_descr": "SP_NONE_APPLIES"}, {"outputID": "00053680", "output_locID": "00053680-5", "name": "A? ?ab\u2018ah", "focus_area": "0", "lat": "31.028190", "type": "PPL", "awardID": "00045437", "lon": "28.444980", "precision": "1", "focus_area_descr": "SP_NONE_APPLIES"}]}, {"title": "social contract advisory, monitoring and coord. center", "id": "00045653", "subnational": [{"outputID": "00053972", "output_locID": "00053972-1", "name": "Cairo", "focus_area": "2", "lat": "30.062630", "type": "PPLC", "awardID": "00045653", "lon": "31.249670", "precision": "1", "focus_area_descr": "Democratic Governance"}, {"outputID": "00070132", "output_locID": "00070132-1", "name": "Arab Republic of Egypt", "focus_area": "1", "lat": "27.000000", "type": "PCLI", "awardID": "00045653", "lon": "30.000000", "precision": "1", "focus_area_descr": "Inclusive & Sustainable Growth"}]}, {"title": "climate change risk management programme in egypt", "id": "00048176", "subnational": [{"outputID": "00058197", "output_locID": "00058197-1", "name": "Arab Republic of Egypt", "focus_area": "1", "lat": "27.000000", "type": "PCLI", "awardID": "00048176", "lon": "30.000000", "precision": "1", "focus_area_descr": "Inclusive & Sustainable Growth"}]}, {"title": "supporting the modern. of the ministry of transport", "id": "00059709", "subnational": [{"outputID": "00074805", "output_locID": "00074805-1", "name": "Cairo", "focus_area": "7", "lat": "30.062630", "type": "PPLC", "awardID": "00059709", "lon": "31.249670", "precision": "1", "focus_area_descr": "Development Impact & Effectiveness"}, {"outputID": "00074807", "output_locID": "00074807-1", "name": "Cairo", "focus_area": "7", "lat": "30.062630", "type": "PPLC", "awardID": "00059709", "lon": "31.249670", "precision": "1", "focus_area_descr": "Development Impact & Effectiveness"}, {"outputID": "00074801", "output_locID": "00074801-1", "name": "Cairo", "focus_area": "7", "lat": "30.062630", "type": "PPLC", "awardID": "00059709", "lon": "31.249670", "precision": "1", "focus_area_descr": "Development Impact & Effectiveness"}, {"outputID": "00074804", "output_locID": "00074804-1", "name": "Cairo", "focus_area": "7", "lat": "30.062630", "type": "PPLC", "awardID": "00059709", "lon": "31.249670", "precision": "1", "focus_area_descr": "Development Impact & Effectiveness"}]}, {"title": "mainstream biodiversity into tourism", "id": "00073186", "subnational": [{"outputID": "00086139", "output_locID": "00086139-1", "name": "Arab Republic of Egypt", "focus_area": "2", "lat": "27.000000", "type": "PCLI", "awardID": "00073186", "lon": "30.000000", "precision": "1", "focus_area_descr": "Democratic Governance"}]}, {"title": "support to modernization of egypt post", "id": "00040473", "subnational": [{"outputID": "00048830", "output_locID": "00048830-1", "name": "Cairo", "focus_area": "7", "lat": "30.062630", "type": "PPLC", "awardID": "00040473", "lon": "31.249670", "precision": "1", "focus_area_descr": "Development Impact & Effectiveness"}]}, {"title": "strengthening capacity of ministry of social solidarity", "id": "00044225", "subnational": [{"outputID": "00051879", "output_locID": "00051879-1", "name": "Arab Republic of Egypt", "focus_area": "1", "lat": "27.000000", "type": "PCLI", "awardID": "00044225", "lon": "30.000000", "precision": "1", "focus_area_descr": "Inclusive & Sustainable Growth"}]}, {"title": "participaotry & intrgated health & urban development", "id": "00044434", "subnational": [{"outputID": "00052243", "output_locID": "00052243-1", "name": "Shubra", "focus_area": "3", "lat": "30.085050", "type": "PPLX", "awardID": "00044434", "lon": "31.238660", "precision": "1", "focus_area_descr": "Responsive Institutions"}]}, {"title": "support2egyptian education initiative", "id": "00045519", "subnational": [{"outputID": "00053786", "output_locID": "00053786-1", "name": "National Telecommunications Institute, Smart Village Facility", "focus_area": "7", "lat": "30.072030", "type": "BLDO", "awardID": "00045519", "lon": "31.021900", "precision": "1", "focus_area_descr": "Development Impact & Effectiveness"}]}, {"title": "empowering &connecting the community through technology", "id": "00045558", "subnational": [{"outputID": "00053834", "output_locID": "00053834-1", "name": "National Telecommunications Institute, Smart Village Facility", "focus_area": "7", "lat": "30.072030", "type": "BLDO", "awardID": "00045558", "lon": "31.021900", "precision": "1", "focus_area_descr": "Development Impact & Effectiveness"}]}, {"title": "supporting ntra", "id": "00045618", "subnational": [{"outputID": "00053916", "output_locID": "00053916-1", "name": "National Telecommunications Institute, Smart Village Facility", "focus_area": "7", "lat": "30.072030", "type": "BLDO", "awardID": "00045618", "lon": "31.021900", "precision": "1", "focus_area_descr": "Development Impact & Effectiveness"}]}, {"title": "technology to foster human development in egypt -phaseii", "id": "00049719", "subnational": [{"outputID": "00060858", "output_locID": "00060858-1", "name": "Al Jizah", "focus_area": "7", "lat": "30.008080", "type": "PPLA", "awardID": "00049719", "lon": "31.210930", "precision": "1", "focus_area_descr": "Development Impact & Effectiveness"}, {"outputID": "00082595", "output_locID": "00082595-1", "name": "Al Jizah", "focus_area": "7", "lat": "30.008080", "type": "PPLA", "awardID": "00049719", "lon": "31.210930", "precision": "1", "focus_area_descr": "Development Impact & Effectiveness"}]}, {"title": "supporting participation & collaboration with int'l fora", "id": "00050031", "subnational": [{"outputID": "00061560", "output_locID": "00061560-1", "name": "Cairo", "focus_area": "7", "lat": "30.062630", "type": "PPLC", "awardID": "00050031", "lon": "31.249670", "precision": "1", "focus_area_descr": "Development Impact & Effectiveness"}]}, {"title": "strengthening the capacity of the cccpa", "id": "00050062", "subnational": [{"outputID": "00061621", "output_locID": "00061621-1", "name": "Cairo", "focus_area": "5", "lat": "30.062630", "type": "PPLC", "awardID": "00050062", "lon": "31.249670", "precision": "1", "focus_area_descr": "Climate Change & Disaster Resilience"}]}, {"title": "mainstreaming environment into national plans", "id": "00050281", "subnational": [{"outputID": "00062038", "output_locID": "00062038-1", "name": "Arab Republic of Egypt", "focus_area": "1", "lat": "27.000000", "type": "PCLI", "awardID": "00050281", "lon": "30.000000", "precision": "1", "focus_area_descr": "Inclusive & Sustainable Growth"}]}, {"title": "pro-poor horticulture value chains in upper egypt", "id": "00057097", "subnational": [{"outputID": "00070412", "output_locID": "00070412-1", "name": "Sohag", "focus_area": "1", "lat": "26.556950", "type": "PPLA", "awardID": "00057097", "lon": "31.694780", "precision": "1", "focus_area_descr": "Inclusive & Sustainable Growth"}, {"outputID": "00070412", "output_locID": "00070412-2", "name": "Qina", "focus_area": "1", "lat": "26.164180", "type": "PPLA", "awardID": "00057097", "lon": "32.726710", "precision": "1", "focus_area_descr": "Inclusive & Sustainable Growth"}, {"outputID": "00070412", "output_locID": "00070412-3", "name": "Bani Suwayf", "focus_area": "1", "lat": "29.074410", "type": "PPLA", "awardID": "00057097", "lon": "31.097850", "precision": "1", "focus_area_descr": "Inclusive & Sustainable Growth"}, {"outputID": "00070412", "output_locID": "00070412-4", "name": "Asyut", "focus_area": "1", "lat": "27.180960", "type": "PPLA", "awardID": "00057097", "lon": "31.183680", "precision": "1", "focus_area_descr": "Inclusive & Sustainable Growth"}, {"outputID": "00070412", "output_locID": "00070412-5", "name": "Al Minya", "focus_area": "1", "lat": "28.109880", "type": "PPLA", "awardID": "00057097", "lon": "30.750300", "precision": "1", "focus_area_descr": "Inclusive & Sustainable Growth"}]}, {"title": "employment creation in innovative public work programs", "id": "00066194", "subnational": [{"outputID": "00082406", "output_locID": "00082406-1", "name": "Sohag", "focus_area": "6", "lat": "26.556950", "type": "PPLA", "awardID": "00066194", "lon": "31.694780", "precision": "1", "focus_area_descr": "Crisis Prevention & Recovery"}, {"outputID": "00082406", "output_locID": "00082406-2", "name": "Qina", "focus_area": "6", "lat": "26.164180", "type": "PPLA", "awardID": "00066194", "lon": "32.726710", "precision": "1", "focus_area_descr": "Crisis Prevention & Recovery"}, {"outputID": "00082406", "output_locID": "00082406-3", "name": "Zagazig", "focus_area": "6", "lat": "30.587680", "type": "PPLA", "awardID": "00066194", "lon": "31.502000", "precision": "1", "focus_area_descr": "Crisis Prevention & Recovery"}, {"outputID": "00082406", "output_locID": "00082406-4", "name": "Luxor", "focus_area": "6", "lat": "25.698930", "type": "PPLA", "awardID": "00066194", "lon": "32.642100", "precision": "1", "focus_area_descr": "Crisis Prevention & Recovery"}, {"outputID": "00082406", "output_locID": "00082406-5", "name": "Al Minya", "focus_area": "6", "lat": "28.109880", "type": "PPLA", "awardID": "00066194", "lon": "30.750300", "precision": "1", "focus_area_descr": "Crisis Prevention & Recovery"}, {"outputID": "00082406", "output_locID": "00082406-6", "name": "Al Fayyum", "focus_area": "6", "lat": "29.309950", "type": "PPLA", "awardID": "00066194", "lon": "30.841800", "precision": "1", "focus_area_descr": "Crisis Prevention & Recovery"}]}, {"title": "medicinal plants conservation project", "id": "00012347", "subnational": [{"outputID": "00012347", "output_locID": "00012347-1", "name": "Saint Catherine", "focus_area": "2", "lat": "28.561910", "type": "PPL", "awardID": "00012347", "lon": "33.949340", "precision": "1", "focus_area_descr": "Democratic Governance"}]}, {"title": "supporting iti activities", "id": "00041562", "subnational": [{"outputID": "00047460", "output_locID": "00047460-1", "name": "Arab Republic of Egypt", "focus_area": "-", "lat": "27.000000", "type": "PCLI", "awardID": "00041562", "lon": "30.000000", "precision": "1", "focus_area_descr": "-"}]}, {"title": "integrated management of shared nubian aquifer", "id": "00042056", "subnational": [{"outputID": "00048136", "output_locID": "00048136-1", "name": "Arab Republic of Egypt", "focus_area": "2", "lat": "27.000000", "type": "PCLI", "awardID": "00042056", "lon": "30.000000", "precision": "1", "focus_area_descr": "Democratic Governance"}]}, {"title": "mobilization of the dahs world heritage site for com dev", "id": "00048469", "subnational": [{"outputID": "00058644", "output_locID": "00058644-1", "name": "Necropolis of Thebes", "focus_area": "1", "lat": "25.733330", "type": "ANS", "awardID": "00048469", "lon": "32.600000", "precision": "1", "focus_area_descr": "Inclusive & Sustainable Growth"}, {"outputID": "00058644", "output_locID": "00058644-2", "name": "Memphis", "focus_area": "1", "lat": "29.866670", "type": "ANS", "awardID": "00048469", "lon": "31.250000", "precision": "1", "focus_area_descr": "Inclusive & Sustainable Growth"}, {"outputID": "00058644", "output_locID": "00058644-3", "name": "Dahshur", "focus_area": "1", "lat": "29.750000", "type": "PPL", "awardID": "00048469", "lon": "31.233330", "precision": "1", "focus_area_descr": "Inclusive & Sustainable Growth"}]}, {"title": "growing sustainable business for poverty reduction", "id": "00056483", "subnational": [{"outputID": "00069144", "output_locID": "00069144-1", "name": "Arab Republic of Egypt", "focus_area": "1", "lat": "27.000000", "type": "PCLI", "awardID": "00056483", "lon": "30.000000", "precision": "1", "focus_area_descr": "Inclusive & Sustainable Growth"}]}, {"title": "mdg awareness & research initivative - cairo university", "id": "00057799", "subnational": [{"outputID": "00071534", "output_locID": "00071534-1", "name": "Cairo", "focus_area": "7", "lat": "30.062630", "type": "PPLC", "awardID": "00057799", "lon": "31.249670", "precision": "1", "focus_area_descr": "Development Impact & Effectiveness"}]}, {"title": "integrating human rights in higher education", "id": "00067246", "subnational": [{"outputID": "00083131", "output_locID": "00083131-1", "name": "Cairo", "focus_area": "2", "lat": "30.062630", "type": "PPLC", "awardID": "00067246", "lon": "31.249670", "precision": "1", "focus_area_descr": "Democratic Governance"}]}, {"title": "upgrading of el hallous and el bahtini", "id": "00012360", "subnational": [{"outputID": "00012360", "output_locID": "00012360-1", "name": "Ismailia", "focus_area": "3", "lat": "30.604270", "type": "PPLA", "awardID": "00012360", "lon": "32.272250", "precision": "1", "focus_area_descr": "Responsive Institutions"}]}, {"title": "nature conservation sector capacity building", "id": "00033953", "subnational": [{"outputID": "00074348", "output_locID": "00074348-1", "name": "Wadi Umm Zaranik", "focus_area": "-", "lat": "30.798250", "type": "WAD", "awardID": "00033953", "lon": "33.900020", "precision": "1", "focus_area_descr": "-"}, {"outputID": "00074348", "output_locID": "00074348-2", "name": "Taba", "focus_area": "-", "lat": "29.491990", "type": "PPL", "awardID": "00033953", "lon": "34.895720", "precision": "1", "focus_area_descr": "-"}, {"outputID": "00074348", "output_locID": "00074348-3", "name": "Siwa Oasis", "focus_area": "-", "lat": "29.192260", "type": "OAS", "awardID": "00033953", "lon": "25.527530", "precision": "1", "focus_area_descr": "-"}, {"outputID": "00074348", "output_locID": "00074348-4", "name": "Arabian Desert", "focus_area": "-", "lat": "28.000000", "type": "DSRT", "awardID": "00033953", "lon": "32.000000", "precision": "1", "focus_area_descr": "-"}, {"outputID": "00074348", "output_locID": "00074348-5", "name": "Sannur", "focus_area": "-", "lat": "28.982240", "type": "PPL", "awardID": "00033953", "lon": "31.049810", "precision": "1", "focus_area_descr": "-"}, {"outputID": "00074348", "output_locID": "00074348-6", "name": "Jazirat Salujah", "focus_area": "-", "lat": "24.072400", "type": "ISL", "awardID": "00033953", "lon": "32.865650", "precision": "1", "focus_area_descr": "-"}, {"outputID": "00074348", "output_locID": "00074348-7", "name": "Wadi ar Rayyan", "focus_area": "-", "lat": "29.150000", "type": "DPR", "awardID": "00033953", "lon": "30.416670", "precision": "1", "focus_area_descr": "-"}, {"outputID": "00074348", "output_locID": "00074348-8", "name": "Wadi ar Rayyan", "focus_area": "-", "lat": "29.150000", "type": "DPR", "awardID": "00033953", "lon": "30.416670", "precision": "1", "focus_area_descr": "-"}, {"outputID": "00074348", "output_locID": "00074348-9", "name": "Muthallath ar Raw?ah", "focus_area": "-", "lat": "27.800000", "type": "RJCT", "awardID": "00033953", "lon": "30.833330", "precision": "1", "focus_area_descr": "-"}, {"outputID": "00074348", "output_locID": "00074348-10", "name": "Qasr al Farafirah", "focus_area": "-", "lat": "27.056800", "type": "PPL", "awardID": "00033953", "lon": "27.969790", "precision": "1", "focus_area_descr": "-"}, {"outputID": "00074348", "output_locID": "00074348-11", "name": "Nag\u2018 Ghazali", "focus_area": "-", "lat": "26.083330", "type": "PPL", "awardID": "00033953", "lon": "32.750000", "precision": "1", "focus_area_descr": "-"}, {"outputID": "00074348", "output_locID": "00074348-12", "name": "Nabq Bay", "focus_area": "-", "lat": "28.040700", "type": "BAY", "awardID": "00033953", "lon": "34.432610", "precision": "1", "focus_area_descr": "-"}, {"outputID": "00074348", "output_locID": "00074348-13", "name": "Ra\u2019s Mu?ammad", "focus_area": "-", "lat": "27.732510", "type": "PT", "awardID": "00033953", "lon": "34.259040", "precision": "1", "focus_area_descr": "-"}, {"outputID": "00074348", "output_locID": "00074348-14", "name": "Mount Catherine", "focus_area": "-", "lat": "28.510000", "type": "MT", "awardID": "00033953", "lon": "33.954630", "precision": "1", "focus_area_descr": "-"}, {"outputID": "00074348", "output_locID": "00074348-15", "name": "Jabal \u2018Ilbah", "focus_area": "-", "lat": "22.200000", "type": "MT", "awardID": "00033953", "lon": "36.333330", "precision": "1", "focus_area_descr": "-"}, {"outputID": "00074348", "output_locID": "00074348-16", "name": "Wadi al ?asanah", "focus_area": "-", "lat": "30.521800", "type": "WAD", "awardID": "00033953", "lon": "33.791450", "precision": "1", "focus_area_descr": "-"}, {"outputID": "00074348", "output_locID": "00074348-17", "name": "Maadi Cornish", "focus_area": "-", "lat": "29.978200", "type": "PPL", "awardID": "00033953", "lon": "31.233200", "precision": "1", "focus_area_descr": "-"}, {"outputID": "00074348", "output_locID": "00074348-18", "name": "Bu?ayrat al Burullus", "focus_area": "-", "lat": "31.477220", "type": "LK", "awardID": "00033953", "lon": "30.852280", "precision": "1", "focus_area_descr": "-"}, {"outputID": "00074348", "output_locID": "00074348-19", "name": "Bughaz Ashtum al Jamil", "focus_area": "-", "lat": "31.285280", "type": "CHN", "awardID": "00033953", "lon": "32.191670", "precision": "1", "focus_area_descr": "-"}, {"outputID": "00074348", "output_locID": "00074348-20", "name": "Wadi al \u2018Allaqi", "focus_area": "-", "lat": "22.966670", "type": "WAD", "awardID": "00033953", "lon": "32.900000", "precision": "1", "focus_area_descr": "-"}, {"outputID": "00074348", "output_locID": "00074348-21", "name": "Hurghada", "focus_area": "-", "lat": "27.257380", "type": "PPLA", "awardID": "00033953", "lon": "33.812910", "precision": "1", "focus_area_descr": "-"}, {"outputID": "00074348", "output_locID": "00074348-22", "name": "Red Sea Governorate", "focus_area": "-", "lat": "27.186240", "type": "ADM1", "awardID": "00033953", "lon": "33.788450", "precision": "1", "focus_area_descr": "-"}, {"outputID": "00074348", "output_locID": "00074348-23", "name": "Abu Maki", "focus_area": "-", "lat": "30.900000", "type": "GASF", "awardID": "00033953", "lon": "29.383330", "precision": "1", "focus_area_descr": "-"}, {"outputID": "00074348", "output_locID": "00074348-24", "name": "Ra\u2018s Abu Qalum", "focus_area": "-", "lat": "28.624780", "type": "PT", "awardID": "00033953", "lon": "34.574430", "precision": "1", "focus_area_descr": "-"}]}, {"title": "operational unit for development assistance", "id": "00034989", "subnational": []}, {"title": "second national communication", "id": "00037105", "subnational": [{"outputID": "00040568", "output_locID": "00040568-1", "name": "Arab Republic of Egypt", "focus_area": "-", "lat": "27.000000", "type": "PCLI", "awardID": "00037105", "lon": "30.000000", "precision": "1", "focus_area_descr": "-"}]}, {"title": "human rights capacity building project in egypt \"benaa\"", "id": "00040525", "subnational": [{"outputID": "00045883", "output_locID": "00045883-1", "name": "Arab Republic of Egypt", "focus_area": "-", "lat": "27.000000", "type": "PCLI", "awardID": "00040525", "lon": "30.000000", "precision": "1", "focus_area_descr": "-"}]}, {"title": "second national communication", "id": "00042122", "subnational": []}, {"title": "women mps", "id": "00044540", "subnational": []}, {"title": "support moi in enhancing transparency & fight corruption", "id": "00045038", "subnational": [{"outputID": "00053138", "output_locID": "00053138-1", "name": "Arab Republic of Egypt", "focus_area": "-", "lat": "27.000000", "type": "PCLI", "awardID": "00045038", "lon": "30.000000", "precision": "1", "focus_area_descr": "-"}]}, {"title": "support to the general federation for ngos & foundations", "id": "00045938", "subnational": []}, {"title": "outreach support to national telecommunication institute", "id": "00047913", "subnational": [{"outputID": "00057830", "output_locID": "00057830-1", "name": "Al Jizah", "focus_area": "7", "lat": "30.008080", "type": "PPLA", "awardID": "00047913", "lon": "31.210930", "precision": "1", "focus_area_descr": "Development Impact & Effectiveness"}]}, {"title": "strengthening capacity for ahi coordination in egypt", "id": "00049603", "subnational": [{"outputID": "00060596", "output_locID": "00060596-1", "name": "Arab Republic of Egypt", "focus_area": "-", "lat": "27.000000", "type": "PCLI", "awardID": "00049603", "lon": "30.000000", "precision": "1", "focus_area_descr": "-"}]}, {"title": "jp safe cities free of violence for women and girls", "id": "00067453", "subnational": []}, {"title": "adaptation to cc in the nile delta through iczm: ppg", "id": "00045510", "subnational": []}, {"title": "cairo agenda on action for aid effectiveness", "id": "00058678", "subnational": []}, {"title": "capacity building in human rights", "id": "00012329", "subnational": []}, {"title": "energy efficiency phase ii preparation grant", "id": "00057372", "subnational": []}, {"title": "improving energy efficiency and greenhouse gas reduction", "id": "00012326", "subnational": []}, {"title": "support bridge training for electoral proces stakeholder", "id": "00049417", "subnational": []}, {"title": "support to the national council for human rights (insan)", "id": "00037332", "subnational": []}, {"title": "supporting pwd initiation plan", "id": "00049918", "subnational": []}], "op_unit": "EGY"}