{"iso_num":"232","op_unit":"ERI","projects":[{"id":"00012446","subnational":[{"awardID":"00012446","lat":"15","lon":"39","name":"Eritrea","precision":"9","type":"PCL"}],"title":"Anseba Local Developmnet Project"},{"id":"00061576","subnational":[],"title":"Anseba Water and Agriculture Adaptation"},{"id":"00041919","subnational":[{"awardID":"00041919","lat":"15.33805","lon":"38.93184","name":"Asmara","precision":"3","type":"PPLC"}],"title":"Capacity Building in the Ministry of Foreign Affairs"},{"id":"00049226","subnational":[{"awardID":"00049226","lat":"15","lon":"39","name":"Eritrea","precision":"9","type":"PCL"}],"title":"Capacity Building in the Ministry of Justice"},{"id":"00050222","subnational":[],"title":"Data for Development (D4D)"},{"id":"00072516","subnational":[],"title":"Disaster Risk Reduction"},{"id":"00074354","subnational":[],"title":"Food Security and Sustainable Livelihoods"},{"id":"00049975","subnational":[{"awardID":"00049975","lat":"15","lon":"39","name":"Eritrea","precision":"9","type":"PCL"}],"title":"Improving Fishing Communities Livelihoods"},{"id":"00068526","subnational":[],"title":"Integrated Semenawi and Debubawi Bahri-Buri-Irrori- Hawa"},{"id":"00047320","subnational":[{"awardID":"00047320","lat":"15","lon":"39","name":"Eritrea","precision":"9","type":"PCL"}],"title":"JOINT PROGRAMME ON GENDER EQUITY IN ERITREA"},{"id":"00042398","subnational":[{"awardID":"00042398","lat":"15","lon":"39","name":"Eritrea","precision":"9","type":"PCL"}],"title":"Management Plan"},{"id":"00057592","subnational":[{"awardID":"00057592","lat":"15.33333","lon":"38.91667","name":"Zoba Maekel","precision":"4","type":"ADM1"}],"title":"Microdam Based Water Scheme in Zoba Maekel"},{"id":"00012448","subnational":[{"awardID":"00012448","lat":"15","lon":"39","name":"Eritrea","precision":"9","type":"PCL"}],"title":"Mine Action Capacity Building Programme"},{"id":"00050956","subnational":[{"awardID":"00050956","lat":"15.48719","lon":"38.85956","name":"Serejeka Sub Region","precision":"3","type":"PPL"},{"awardID":"00050956","lat":"15.33333","lon":"38.91667","name":"Central Region","precision":"4","type":"ADM1"}],"title":"PIMS 2979 Sustainable Land Management Pilot Project"},{"id":"00072554","subnational":[],"title":"Solar Energy for Rural Electrification Project"},{"id":"00062488","subnational":[],"title":"Strengthening Capacity of Water Resources Department"},{"id":"00065015","subnational":[],"title":"Strengthening the Capacity of MoH"},{"id":"00072514","subnational":[],"title":"Support to Higher Education in Technical Institutions"},{"id":"00037750","subnational":[{"awardID":"00037750","lat":"14.66528","lon":"38.81389","name":"Adi Keshi","precision":"3","type":"PPL"},{"awardID":"00037750","lat":"15.33333","lon":"38.91667","name":"Adi Shegala","precision":"4","type":"ADM1"},{"awardID":"00037750","lat":"14.83333","lon":"38.83333","name":"Debub","precision":"4","type":"ADM1"},{"awardID":"00037750","lat":"15.25","lon":"37.5","name":"Gash Barka Region","precision":"4","type":"ADM1"},{"awardID":"00037750","lat":"15.33333","lon":"38.91667","name":"Ambesete Geleba","precision":"4","type":"ADM1"},{"awardID":"00037750","lat":"14.66528","lon":"38.81389","name":"Adi Keshi","precision":"3","type":"PPL"},{"awardID":"00037750","lat":"15.33333","lon":"38.91667","name":"Adi Shegala","precision":"4","type":"ADM1"},{"awardID":"00037750","lat":"14.83333","lon":"38.83333","name":"Debub","precision":"4","type":"ADM1"},{"awardID":"00037750","lat":"15.25","lon":"37.5","name":"Gash Barka Region","precision":"4","type":"ADM1"},{"awardID":"00037750","lat":"15.33333","lon":"38.91667","name":"Ambesete Geleba","precision":"4","type":"ADM1"},{"awardID":"00037750","lat":"14.66528","lon":"38.81389","name":"Adi Keshi","precision":"3","type":"PPL"},{"awardID":"00037750","lat":"15.33333","lon":"38.91667","name":"Adi Shegala","precision":"4","type":"ADM1"},{"awardID":"00037750","lat":"14.83333","lon":"38.83333","name":"Debub","precision":"4","type":"ADM1"},{"awardID":"00037750","lat":"15.25","lon":"37.5","name":"Gash Barka Region","precision":"4","type":"ADM1"},{"awardID":"00037750","lat":"15.33333","lon":"38.91667","name":"Ambesete Geleba","precision":"4","type":"ADM1"}],"title":"Transition and Early Recovery"}]}