{"iso_num": null, "projects": [{"title": "joint programme on gender equity in eritrea", "id": "00047320", "subnational": [{"outputID": "00056800", "output_locID": "00056800-1", "name": "Asmara", "focus_area": "3", "lat": "15.338050", "type": "PPLC", "awardID": "00047320", "lon": "38.931840", "precision": "1", "focus_area_descr": "Basic Services"}, {"outputID": "00056800", "output_locID": "00056800-2", "name": "Asmara", "focus_area": "3", "lat": "15.338050", "type": "PPLC", "awardID": "00047320", "lon": "38.931840", "precision": "1", "focus_area_descr": "Basic Services"}, {"outputID": "00056800", "output_locID": "00056800-3", "name": "Anseba", "focus_area": "3", "lat": "16.500000", "type": "ADM1", "awardID": "00047320", "lon": "37.500000", "precision": "1", "focus_area_descr": "Basic Services"}, {"outputID": "00056800", "output_locID": "00056800-4", "name": "Gash Barka", "focus_area": "3", "lat": "15.250000", "type": "ADM1", "awardID": "00047320", "lon": "37.500000", "precision": "1", "focus_area_descr": "Basic Services"}]}, {"title": "undp/global fund for aids tb and malaria", "id": "00047944", "subnational": []}, {"title": "data for development (d4d)", "id": "00050222", "subnational": [{"outputID": "00061922", "output_locID": "00061922-1", "name": "Asmara", "focus_area": "3", "lat": "15.338050", "type": "PPLC", "awardID": "00050222", "lon": "38.931840", "precision": "1", "focus_area_descr": "Basic Services"}, {"outputID": "00061922", "output_locID": "00061922-2", "name": "Asmara", "focus_area": "3", "lat": "15.338050", "type": "PPLC", "awardID": "00050222", "lon": "38.931840", "precision": "1", "focus_area_descr": "Basic Services"}]}, {"title": "pims 2979 sustainable land management pilot project", "id": "00050956", "subnational": [{"outputID": "00063220", "output_locID": "00063220-1", "name": "Serejeka", "focus_area": "1", "lat": "15.487190", "type": "PPL", "awardID": "00050956", "lon": "38.859560", "precision": "1", "focus_area_descr": "Inclusive Growth"}, {"outputID": "00063220", "output_locID": "00063220-2", "name": "Maekel Region", "focus_area": "1", "lat": "15.333330", "type": "ADM1", "awardID": "00050956", "lon": "38.916670", "precision": "1", "focus_area_descr": "Inclusive Growth"}]}, {"title": "climate change adaptation programme in water and agricul", "id": "00061576", "subnational": [{"outputID": "00078054", "output_locID": "00078054-1", "name": "Anseba", "focus_area": "1", "lat": "16.500000", "type": "ADM1", "awardID": "00061576", "lon": "37.500000", "precision": "1", "focus_area_descr": "Inclusive Growth"}]}, {"title": "development effectiveness eritrea co", "id": "00065009", "subnational": [{"outputID": "00081649", "output_locID": "00081649-1", "name": "Asmara", "focus_area": "-", "lat": "15.338050", "type": "PPLC", "awardID": "00065009", "lon": "38.931840", "precision": "1", "focus_area_descr": "-"}]}, {"title": "public sector management programme", "id": "00072514", "subnational": [{"outputID": "00085581", "output_locID": "00085581-1", "name": "Asmara", "focus_area": "3", "lat": "15.338050", "type": "PPLC", "awardID": "00072514", "lon": "38.931840", "precision": "1", "focus_area_descr": "Basic Services"}, {"outputID": "00085581", "output_locID": "00085581-2", "name": "Asmara", "focus_area": "3", "lat": "15.338050", "type": "PPLC", "awardID": "00072514", "lon": "38.931840", "precision": "1", "focus_area_descr": "Basic Services"}, {"outputID": "00100601", "output_locID": "00100601-1", "name": "Asmara", "focus_area": "3", "lat": "15.338050", "type": "PPLC", "awardID": "00072514", "lon": "38.931840", "precision": "1", "focus_area_descr": "Basic Services"}, {"outputID": "00100602", "output_locID": "00100602-1", "name": "Asmara", "focus_area": "3", "lat": "15.338050", "type": "PPLC", "awardID": "00072514", "lon": "38.931840", "precision": "1", "focus_area_descr": "Basic Services"}, {"outputID": "00100603", "output_locID": "00100603-1", "name": "Asmara", "focus_area": "3", "lat": "15.338050", "type": "PPLC", "awardID": "00072514", "lon": "38.931840", "precision": "1", "focus_area_descr": "Basic Services"}, {"outputID": "00101270", "output_locID": "00101270-1", "name": "Asmara", "focus_area": "3", "lat": "15.338050", "type": "PPLC", "awardID": "00072514", "lon": "38.931840", "precision": "1", "focus_area_descr": "Basic Services"}]}, {"title": "support to national and local resilience building", "id": "00072516", "subnational": [{"outputID": "00085583", "output_locID": "00085583-1", "name": "Southern Red Sea Region", "focus_area": "5", "lat": "13.750000", "type": "ADM1", "awardID": "00072516", "lon": "41.500000", "precision": "1", "focus_area_descr": "Risk Reduction"}, {"outputID": "00085583", "output_locID": "00085583-2", "name": "Northern Red Sea Region", "focus_area": "5", "lat": "16.000000", "type": "ADM1", "awardID": "00072516", "lon": "39.000000", "precision": "1", "focus_area_descr": "Risk Reduction"}, {"outputID": "00105385", "output_locID": "00105385-1", "name": "Asmara", "focus_area": "-", "lat": "15.338050", "type": "PPLC", "awardID": "00072516", "lon": "38.931840", "precision": "1", "focus_area_descr": "-"}]}, {"title": "food security and sustainable livelihoods", "id": "00074354", "subnational": [{"outputID": "00086801", "output_locID": "00086801-1", "name": "Debub", "focus_area": "1", "lat": "14.833330", "type": "ADM1", "awardID": "00074354", "lon": "38.833330", "precision": "1", "focus_area_descr": "Inclusive Growth"}, {"outputID": "00086801", "output_locID": "00086801-2", "name": "Gash Barka", "focus_area": "1", "lat": "15.250000", "type": "ADM1", "awardID": "00074354", "lon": "37.500000", "precision": "1", "focus_area_descr": "Inclusive Growth"}, {"outputID": "00086801", "output_locID": "00086801-3", "name": "Maekel Region", "focus_area": "1", "lat": "15.333330", "type": "ADM1", "awardID": "00074354", "lon": "38.916670", "precision": "1", "focus_area_descr": "Inclusive Growth"}, {"outputID": "00099997", "output_locID": "00099997-1", "name": "Hamelmalo", "focus_area": "1", "lat": "15.777920", "type": "PPLA", "awardID": "00074354", "lon": "38.451070", "precision": "1", "focus_area_descr": "Inclusive Growth"}]}, {"title": "capacity building project for the ministry of finance", "id": "00078098", "subnational": [{"outputID": "00088549", "output_locID": "00088549-1", "name": "Asmara", "focus_area": "7", "lat": "15.338050", "type": "PPLC", "awardID": "00078098", "lon": "38.931840", "precision": "1", "focus_area_descr": "Thought Leadership"}]}, {"title": "integrated semenawi & debubawi protected area system", "id": "00078854", "subnational": [{"outputID": "00088940", "output_locID": "00088940-1", "name": "Southern Red Sea Region", "focus_area": "1", "lat": "13.750000", "type": "ADM1", "awardID": "00078854", "lon": "41.500000", "precision": "1", "focus_area_descr": "Inclusive Growth"}, {"outputID": "00088940", "output_locID": "00088940-2", "name": "Northern Red Sea Region", "focus_area": "1", "lat": "16.000000", "type": "ADM1", "awardID": "00078854", "lon": "39.000000", "precision": "1", "focus_area_descr": "Inclusive Growth"}]}, {"title": "youth employment and skills development", "id": "00084051", "subnational": [{"outputID": "00092244", "output_locID": "00092244-1", "name": "Asmara", "focus_area": "1", "lat": "15.338050", "type": "PPLC", "awardID": "00084051", "lon": "38.931840", "precision": "1", "focus_area_descr": "Inclusive Growth"}, {"outputID": "00099713", "output_locID": "00099713-1", "name": "Debub", "focus_area": "1", "lat": "14.833330", "type": "ADM1", "awardID": "00084051", "lon": "38.833330", "precision": "1", "focus_area_descr": "Inclusive Growth"}]}, {"title": "solar energy for rural electrification", "id": "00086487", "subnational": [{"outputID": "00093743", "output_locID": "00093743-1", "name": "Aresa", "focus_area": "8", "lat": "14.926940", "type": "PPL", "awardID": "00086487", "lon": "38.565830", "precision": "1", "focus_area_descr": "Organizational Results Area 1"}]}, {"title": "mainstreaming human rights", "id": "00091871", "subnational": [{"outputID": "00096869", "output_locID": "00096869-1", "name": "Asmara", "focus_area": "3", "lat": "15.338050", "type": "PPLC", "awardID": "00091871", "lon": "38.931840", "precision": "1", "focus_area_descr": "Basic Services"}]}, {"title": ":  mainstreaming climate risk considerations in food sec", "id": "00100179", "subnational": []}, {"title": "restoring degraded forest landscapes and promoting commu", "id": "00101049", "subnational": []}, {"title": "transition and early recovery", "id": "00037750", "subnational": [{"outputID": "00041360", "output_locID": "00041360-1", "name": "Adi K\u2019eshi", "focus_area": "1", "lat": "14.665280", "type": "PPL", "awardID": "00037750", "lon": "38.813890", "precision": "1", "focus_area_descr": "Inclusive Growth"}, {"outputID": "00041360", "output_locID": "00041360-2", "name": "Debub", "focus_area": "1", "lat": "14.833330", "type": "ADM1", "awardID": "00037750", "lon": "38.833330", "precision": "1", "focus_area_descr": "Inclusive Growth"}, {"outputID": "00041360", "output_locID": "00041360-3", "name": "Gash Barka", "focus_area": "1", "lat": "15.250000", "type": "ADM1", "awardID": "00037750", "lon": "37.500000", "precision": "1", "focus_area_descr": "Inclusive Growth"}, {"outputID": "00041360", "output_locID": "00041360-4", "name": "Maekel Region", "focus_area": "1", "lat": "15.333330", "type": "ADM1", "awardID": "00037750", "lon": "38.916670", "precision": "1", "focus_area_descr": "Inclusive Growth"}, {"outputID": "00059836", "output_locID": "00059836-1", "name": "Adi K\u2019eshi", "focus_area": "1", "lat": "14.665280", "type": "PPL", "awardID": "00037750", "lon": "38.813890", "precision": "1", "focus_area_descr": "Inclusive Growth"}, {"outputID": "00059836", "output_locID": "00059836-2", "name": "Debub", "focus_area": "1", "lat": "14.833330", "type": "ADM1", "awardID": "00037750", "lon": "38.833330", "precision": "1", "focus_area_descr": "Inclusive Growth"}, {"outputID": "00059836", "output_locID": "00059836-3", "name": "Gash Barka", "focus_area": "1", "lat": "15.250000", "type": "ADM1", "awardID": "00037750", "lon": "37.500000", "precision": "1", "focus_area_descr": "Inclusive Growth"}, {"outputID": "00059836", "output_locID": "00059836-4", "name": "Maekel Region", "focus_area": "1", "lat": "15.333330", "type": "ADM1", "awardID": "00037750", "lon": "38.916670", "precision": "1", "focus_area_descr": "Inclusive Growth"}]}, {"title": "department of public information", "id": "00035769", "subnational": [{"outputID": "00038580", "output_locID": "00038580-1", "name": "Asmara", "focus_area": "14", "lat": "15.338050", "type": "PPLC", "awardID": "00035769", "lon": "38.931840", "precision": "1", "focus_area_descr": "Organizational Results Area 7"}]}, {"title": "management plan", "id": "00042398", "subnational": []}, {"title": "improving fishing communities livelihoods", "id": "00049975", "subnational": [{"outputID": "00061470", "output_locID": "00061470-1", "name": "Asmara", "focus_area": "1", "lat": "15.338050", "type": "PPLC", "awardID": "00049975", "lon": "38.931840", "precision": "1", "focus_area_descr": "Inclusive Growth"}]}, {"title": "mainstreaming climate risk considerations in food securi", "id": "00085501", "subnational": [{"outputID": "00093130", "output_locID": "00093130-1", "name": "Debub", "focus_area": "8", "lat": "14.833330", "type": "ADM1", "awardID": "00085501", "lon": "38.833330", "precision": "1", "focus_area_descr": "Organizational Results Area 1"}]}, {"title": "support to promotion of sustainable livelihoods", "id": "00080573", "subnational": []}, {"title": "anseba local developmnet project", "id": "00012446", "subnational": []}, {"title": "mine action capacity building programme", "id": "00012448", "subnational": []}, {"title": "common services & premises", "id": "00033838", "subnational": []}, {"title": "capacity building in the ministry of justice", "id": "00049226", "subnational": []}, {"title": "strengthening capacity of water resources department", "id": "00062488", "subnational": []}, {"title": "strengthening the capacity of moh", "id": "00065015", "subnational": []}, {"title": "microdam based water scheme in zoba maekel", "id": "00057592", "subnational": []}, {"title": "support to capacity building of the ministry of finance", "id": "00058525", "subnational": []}, {"title": "integrated semenawi and debubawi bahri-buri-irrori- hawa", "id": "00068526", "subnational": []}, {"title": "solar energy for rural electrification project", "id": "00072554", "subnational": []}, {"title": "conservation management of eritrea's coastal. marine and", "id": "00012438", "subnational": []}, {"title": "second national communications (snc) to unfccc project", "id": "00037244", "subnational": []}, {"title": "hiv/aids intervention programmes in the workplace", "id": "00045074", "subnational": []}, {"title": "capacity building in the civil service administration", "id": "00036411", "subnational": []}, {"title": "capacity building in the ministry of foreign affairs", "id": "00041919", "subnational": []}, {"title": "capacity building of the conf of eritrean workers", "id": "00059355", "subnational": []}, {"title": "capacity building ofthe ministry of national development", "id": "00031402", "subnational": []}, {"title": "capacity dev't of department of immigration", "id": "00046166", "subnational": []}, {"title": "sgp integrated livelihood afforestation develpt program", "id": "00057355", "subnational": []}, {"title": "wind energy application pilot project in eritrea", "id": "00031369", "subnational": []}, {"title": "youth employment skills development", "id": "00049626", "subnational": []}], "op_unit": "ERI"}