{"iso_num": null, "projects": [{"title": "second national communication grd", "id": "00040128", "subnational": [{"outputID": "00045243", "output_locID": "00045243-1", "name": "Grenada", "focus_area": "1", "lat": "12.116670", "type": "PCLI", "awardID": "00040128", "lon": "-61.666670", "precision": "1", "focus_area_descr": "Inclusive & Sustainable Growth"}]}, {"title": "enabling recovery and rural development in grenada", "id": "00040138", "subnational": []}, {"title": "country programme action plan", "id": "00046280", "subnational": [{"outputID": "00055005", "output_locID": "00055005-1", "name": "Grenada", "focus_area": "-", "lat": "12.116670", "type": "PCLI", "awardID": "00046280", "lon": "-61.666670", "precision": "1", "focus_area_descr": "-"}]}, {"title": "r\u00e9duction vuln\u00e9rabilit\u00e9 populations et infrastructures", "id": "00060857", "subnational": [{"outputID": "00085351", "output_locID": "00085351-1", "name": "Republic of Haiti", "focus_area": "1", "lat": "19.000000", "type": "PCLI", "awardID": "00060857", "lon": "-72.416670", "precision": "1", "focus_area_descr": "Inclusive & Sustainable Growth"}, {"outputID": "00077007", "output_locID": "00077007-1", "name": "Port-au-Prince", "focus_area": "-", "lat": "18.539170", "type": "PPLC", "awardID": "00060857", "lon": "-72.335000", "precision": "1", "focus_area_descr": "-"}, {"outputID": "00076792", "output_locID": "00076792-1", "name": "Saint Louis du Sud", "focus_area": "5", "lat": "18.26667", "type": "PPL", "awardID": "00060857", "lon": "-73.55", "precision": "3", "focus_area_descr": "Climate Change & Disaster Resilience"}]}, {"title": "grenada ridge to reef conservation", "id": "00072570", "subnational": [{"outputID": "00085646", "output_locID": "00085646-1", "name": "Grenada", "focus_area": "2", "lat": "12.116670", "type": "PCLI", "awardID": "00072570", "lon": "-61.666670", "precision": "1", "focus_area_descr": "Democratic Governance"}]}, {"title": "a future for sids: st. lucia post 2015 consultations", "id": "00072739", "subnational": []}, {"title": "programme on integrated adaptation strategies in grenada", "id": "00073003", "subnational": [{"outputID": "00085959", "output_locID": "00085959-1", "name": "Grenada", "focus_area": "1", "lat": "12.116670", "type": "PCLI", "awardID": "00073003", "lon": "-61.666670", "precision": "1", "focus_area_descr": "Inclusive & Sustainable Growth"}]}, {"title": "mdg acceleration in grenada", "id": "00074593", "subnational": [{"outputID": "00086921", "output_locID": "00086921-1", "name": "Barbados", "focus_area": "1", "lat": "13.166670", "type": "PCLI", "awardID": "00074593", "lon": "-59.533330", "precision": "1", "focus_area_descr": "Inclusive & Sustainable Growth"}]}, {"title": "sustainable land management grd", "id": "00040959", "subnational": [{"outputID": "00046568", "output_locID": "00046568-1", "name": "Grenada", "focus_area": "-", "lat": "12.11667", "type": "PCL", "awardID": "00040959", "lon": "-61.66667", "precision": "9", "focus_area_descr": "-"}]}, {"title": "country programme action plan", "id": "00060565", "subnational": [{"outputID": "00076310", "output_locID": "00076310-1", "name": "Grenada", "focus_area": "-", "lat": "12.11667", "type": "PCL", "awardID": "00060565", "lon": "-61.66667", "precision": "9", "focus_area_descr": "-"}]}, {"title": "restoring livelihoods", "id": "00046566", "subnational": []}, {"title": "country programme action plan - grenada: governance", "id": "00044631", "subnational": []}, {"title": "phase-out management plan", "id": "00045231", "subnational": []}], "op_unit": "GRD"}