{"iso_num":"360","op_unit":"IDN","projects":[{"id":"00038597","subnational":[{"awardID":"00038597","lat":"5.5577","lon":"95.3222","name":"Banda Aceh","precision":"4","type":"PPLA"}],"title":"Aceh Emergency Programme"},{"id":"00048350","subnational":[{"awardID":"00048350","lat":"5.5577","lon":"95.3222","name":"Banda Aceh","precision":"4","type":"PPLA"},{"awardID":"00048350","lat":"5.5577","lon":"95.3222","name":"Banda Aceh","precision":"4","type":"PPLA"},{"awardID":"00048350","lat":"5.5577","lon":"95.3222","name":"Banda Aceh","precision":"4","type":"PPLA"}],"title":"Aceh Government Transformation Programme"},{"id":"00058440","subnational":[{"awardID":"00058440","lat":"-6.21462","lon":"106.84513","name":"Jakarta","precision":"3","type":"PPLC"}],"title":"Arafura and Timor Seas Ecosystem Action Programme"},{"id":"00057623","subnational":[{"awardID":"00057623","lat":"0.5412","lon":"123.0595","name":"Gorontalo","precision":"4","type":"PPLA"},{"awardID":"00057623","lat":"-10.1718","lon":"123.6075","name":"East Nusa Tenggara","precision":"4","type":"PPLA"},{"awardID":"00057623","lat":"-0.8917","lon":"119.8707","name":"Central Sulawesi","precision":"4","type":"PPLA"}],"title":"Articulating Governance and Local Development in Indones"},{"id":"00042855","subnational":[{"awardID":"00042855","lat":"-6.21462","lon":"106.84513","name":"Jakarta","precision":"3","type":"PPLC"}],"title":"Deepening Democracy in Indonesia"},{"id":"00061140","subnational":[{"awardID":"00061140","lat":"-6.21462","lon":"106.84513","name":"Jakarta","precision":"3","type":"PPLC"}],"title":"Development Advisory Services"},{"id":"00049235","subnational":[{"awardID":"00049235","lat":"5.5577","lon":"95.3222","name":"Banda Aceh","precision":"4","type":"PPLA"}],"title":"Disaster Risk Reduction - Aceh"},{"id":"00051288","subnational":[{"awardID":"00051288","lat":"-7.83333","lon":"110.25","name":"Boyolali","precision":"3","type":"ADM2"},{"awardID":"00051288","lat":"-7.47056","lon":"110.21778","name":"Magelang","precision":"3","type":"PPL"},{"awardID":"00051288","lat":"-7.71889","lon":"110.60528","name":"Klaten","precision":"3","type":"ADM2"},{"awardID":"00051288","lat":"-1.98917","lon":"99.51902","name":"Mentawai","precision":"3","type":"RES"},{"awardID":"00051288","lat":"-7.71556","lon":"110.35556","name":"Sleman","precision":"3","type":"PPL"},{"awardID":"00051288","lat":"-7.78278","lon":"110.36083","name":"Yogyakarta","precision":"4","type":"PPLA"}],"title":"Disaster Risk Reduction based Rehab.&Reconst."},{"id":"00035926","subnational":[{"awardID":"00035926","lat":"-6.21462","lon":"106.84513","name":"Jakarta","precision":"3","type":"PPLC"}],"title":"ENABLING THE PARTNERSHIP"},{"id":"00058270","subnational":[{"awardID":"00058270","lat":"-6.21462","lon":"106.84513","name":"Jakarta","precision":"3","type":"PPLC"},{"awardID":"00058270","lat":"-6.21462","lon":"106.84513","name":"Jakarta","precision":"3","type":"PPLC"}],"title":"Energy Standard and Labeling"},{"id":"00051205","subnational":[{"awardID":"00051205","lat":"-6.21462","lon":"106.84513","name":"Jakarta","precision":"3","type":"PPLC"},{"awardID":"00051205","lat":"-6.21462","lon":"106.84513","name":"Jakarta","precision":"3","type":"PPLC"},{"awardID":"00051205","lat":"-6.21462","lon":"106.84513","name":"Jakarta","precision":"3","type":"PPLC"}],"title":"Enhancing Capacity for Better Aid Management"},{"id":"00067158","subnational":[{"awardID":"00067158","lat":"-0.8917","lon":"119.8707","name":"Central Sulawesi","precision":"4","type":"PPLA"}],"title":"Enhancing Protected Area"},{"id":"00065312","subnational":[{"awardID":"00065312","lat":"-6.21462","lon":"106.84513","name":"Jakarta","precision":"3","type":"PPLC"}],"title":"Hydrochlorofluorocarbons Phase-out Management Plan"},{"id":"00062619","subnational":[{"awardID":"00062619","lat":"5.5577","lon":"95.3222","name":"Banda Aceh","precision":"4","type":"PPLA"}],"title":"ILO RURAL ROADS PHASE III"},{"id":"00059247","subnational":[{"awardID":"00059247","lat":"-6.21462","lon":"106.84513","name":"Jakarta","precision":"3","type":"PPLC"}],"title":"Indonesia Climate Change Trust Fund"},{"id":"00050241","subnational":[],"title":"INDONESIA PARTNERSHIP FUND FOR HIV 2008-2015"},{"id":"00073823","subnational":[{"awardID":"00073823","lat":"-6.21462","lon":"106.84513","name":"Jakarta","precision":"3","type":"PPLC"}],"title":"Initiatives to Combat and Adapt to CC Challenges"},{"id":"00050588","subnational":[{"awardID":"00050588","lat":"-6.21462","lon":"106.84513","name":"Jakarta","precision":"3","type":"PPLC"}],"title":"Institutional Strengthening Phase 6 - IDS/SEV/53/INV/180"},{"id":"00043800","subnational":[{"awardID":"00043800","lat":"-6.21462","lon":"106.84513","name":"Jakarta","precision":"3","type":"PPLC"}],"title":"INTEGRATED MICROHYDRO DEVELOPMENT"},{"id":"00043641","subnational":[{"awardID":"00043641","lat":"-0.8917","lon":"119.8707","name":"Central Sulawesi","precision":"4","type":"PPLA"}],"title":"Legal Empowerment and Assistance for the Disadvantaged"},{"id":"00072823","subnational":[{"awardID":"00072823","lat":"-6.21462","lon":"106.84513","name":"Jakarta","precision":"3","type":"PPLC"}],"title":"Low Emission Capacity Building Project - Indonesia"},{"id":"00044804","subnational":[],"title":"Mahakam Delta"},{"id":"00049011","subnational":[{"awardID":"00049011","lat":"-6.21462","lon":"106.84513","name":"Jakarta","precision":"3","type":"PPLC"}],"title":"Microturbine Cogeneration Technology Application Project"},{"id":"00068617","subnational":[{"awardID":"00068617","lat":"-6.21462","lon":"106.84513","name":"Jakarta","precision":"3","type":"PPLC"}],"title":"National Biodiv Planning to Support Impl CBD"},{"id":"00035419","subnational":[{"awardID":"00035419","lat":"-4.0435","lon":"137.1249","name":"Papua","precision":"4","type":"RES"}],"title":"PAPUA - CAPACITY 2015"},{"id":"00043640","subnational":[{"awardID":"00043640","lat":"-6.21462","lon":"106.84513","name":"Jakarta","precision":"3","type":"PPLC"}],"title":"PAPUA DEVELOPMENT PROGRAMME"},{"id":"00071337","subnational":[{"awardID":"00071337","lat":"-2.91673","lon":"104.7458","name":"South Sumatera","precision":"4","type":"PPLA"}],"title":"Participatory Governance Assessment"},{"id":"00039113","subnational":[{"awardID":"00039113","lat":"-3.69543","lon":"128.1814","name":"Maluku","precision":"4","type":"PPLA"}],"title":"Peace Through Development"},{"id":"00060770","subnational":[{"awardID":"00060770","lat":"-3.69543","lon":"128.1814","name":"Maluku","precision":"4","type":"PPLA"},{"awardID":"00060770","lat":"-7.29826","lon":"128.56194","name":"North Maluku","precision":"4","type":"RES"},{"awardID":"00060770","lat":"5.5577","lon":"95.3222","name":"Banda Aceh","precision":"4","type":"PPLA"}],"title":"Peace Through Development in Disadvantaged Areas (PTDDA)"},{"id":"00060467","subnational":[{"awardID":"00060467","lat":"-4.0435","lon":"137.1249","name":"Papua","precision":"4","type":"RES"},{"awardID":"00060467","lat":"-4.0435","lon":"137.1249","name":"West Papua","precision":"4","type":"RES"},{"awardID":"00060467","lat":"-4.0435","lon":"137.1249","name":"Papua","precision":"4","type":"RES"},{"awardID":"00060467","lat":"-4.0435","lon":"137.1249","name":"West Papua","precision":"4","type":"RES"},{"awardID":"00060467","lat":"-4.0435","lon":"137.1249","name":"Papua","precision":"4","type":"RES"},{"awardID":"00060467","lat":"-4.0435","lon":"137.1249","name":"West Papua","precision":"4","type":"RES"}],"title":"People-centered Development Project - Phase II"},{"id":"00072677","subnational":[{"awardID":"00072677","lat":"-6.21462","lon":"106.84513","name":"Jakarta","precision":"3","type":"PPLC"}],"title":"Promoting Energy Efficiency for Non-HCFC Refrigeration a"},{"id":"00057787","subnational":[{"awardID":"00057787","lat":"-6.21462","lon":"106.84513","name":"Jakarta","precision":"3","type":"PPLC"},{"awardID":"00057787","lat":"-2.66667","lon":"106.66667","name":"Bangka Belitung","precision":"4","type":"ADM1"},{"awardID":"00057787","lat":"0.5412","lon":"123.0595","name":"Gorontalo","precision":"4","type":"PPLA"}],"title":"Provincial Governance Strengthening Programme"},{"id":"00075619","subnational":[{"awardID":"00075619","lat":"-6.21462","lon":"106.84513","name":"Jakarta","precision":"3","type":"PPLC"},{"awardID":"00075619","lat":"-6.21462","lon":"106.84513","name":"Jakarta","precision":"3","type":"PPLC"},{"awardID":"00075619","lat":"-6.21462","lon":"106.84513","name":"Jakarta","precision":"3","type":"PPLC"},{"awardID":"00075619","lat":"-6.21462","lon":"106.84513","name":"Jakarta","precision":"3","type":"PPLC"}],"title":"REDD+ Interim Phase"},{"id":"00072772","subnational":[{"awardID":"00072772","lat":"-6.21462","lon":"106.84513","name":"Jakarta","precision":"3","type":"PPLC"}],"title":"Reducing PBDE and UPOPs"},{"id":"00047810","subnational":[{"awardID":"00047810","lat":"-10.1718","lon":"123.6075","name":"East Nusa Tenggara","precision":"4","type":"PPLA"},{"awardID":"00047810","lat":"5.5577","lon":"95.3222","name":"Banda Aceh","precision":"4","type":"PPLA"},{"awardID":"00047810","lat":"-4.0435","lon":"137.1249","name":"Papua","precision":"4","type":"RES"},{"awardID":"00047810","lat":"-6.9932","lon":"110.4203","name":"Central Java","precision":"4","type":"PPLA"},{"awardID":"00047810","lat":"-5.14","lon":"119.4221","name":"South Sulawesi","precision":"4","type":"PPLA"}],"title":"Safer Communities through Disaster Risk Reduction"},{"id":"00071676","subnational":[{"awardID":"00071676","lat":"-6.21462","lon":"106.84513","name":"Jakarta","precision":"3","type":"PPLC"},{"awardID":"00071676","lat":"-6.9932","lon":"110.4203","name":"Central Java","precision":"4","type":"PPLA"}],"title":"Safer Communities through Disaster Risk Reduction Phs II"},{"id":"00013085","subnational":[{"awardID":"00013085","lat":"-5","lon":"120","name":"Indonesia","precision":"3","type":"PCLI"}],"title":"Sector Phase-out Plan in the Refrigeration"},{"id":"00061065","subnational":[{"awardID":"00061065","lat":"-10.1718","lon":"123.6075","name":"East Nusa Tenggara","precision":"4","type":"PPLA"}],"title":"Strategic Climate Adaptation"},{"id":"00068398","subnational":[{"awardID":"00068398","lat":"-10.1718","lon":"123.6075","name":"East Nusa Tenggara","precision":"4","type":"PPLA"}],"title":"Strategic Planning and Action to Climate Resilience"},{"id":"00062271","subnational":[{"awardID":"00062271","lat":"-6.21462","lon":"106.84513","name":"Jakarta","precision":"3","type":"PPLC"}],"title":"STRENGTHEN IMPLEMENTATION OF GRANTS"},{"id":"00061763","subnational":[{"awardID":"00061763","lat":"-0.8917","lon":"119.8707","name":"Central Sulawesi","precision":"4","type":"PPLA"},{"awardID":"00061763","lat":"-7.49944","lon":"110.80611","name":"Central Kalimantan","precision":"4","type":"PPL"}],"title":"Strengthening Access to Justice in Indonesia"},{"id":"00056845","subnational":[{"awardID":"00056845","lat":"-8.6881","lon":"116.124","name":"Dodokan","precision":"3","type":"PPL"}],"title":"Strengthening Community Based Forest and Watershed"},{"id":"00061932","subnational":[{"awardID":"00061932","lat":"-6.21462","lon":"106.84513","name":"Jakarta","precision":"3","type":"PPLC"},{"awardID":"00061932","lat":"-6.21462","lon":"106.84513","name":"Jakarta","precision":"3","type":"PPLC"},{"awardID":"00061932","lat":"-6.21462","lon":"106.84513","name":"Jakarta","precision":"3","type":"PPLC"}],"title":"Strengthening Indonesia Mitigation and Adaptation"},{"id":"00067418","subnational":[{"awardID":"00067418","lat":"-6.21462","lon":"106.84513","name":"Jakarta","precision":"3","type":"PPLC"}],"title":"Strengthening Innovative Partnership for Development"},{"id":"00066891","subnational":[{"awardID":"00066891","lat":"-6.21462","lon":"106.84513","name":"Jakarta","precision":"3","type":"PPLC"}],"title":"Strengthening Women's Participation and Representation"},{"id":"00013080","subnational":[{"awardID":"00013080","lat":"-6.21462","lon":"106.84513","name":"Jakarta","precision":"3","type":"PPLC"}],"title":"Support for the the Crisis Prevention Recovery Unit"},{"id":"00060014","subnational":[{"awardID":"00060014","lat":"-6.21462","lon":"106.84513","name":"Jakarta","precision":"3","type":"PPLC"},{"awardID":"00060014","lat":"-6.21462","lon":"106.84513","name":"Jakarta","precision":"3","type":"PPLC"}],"title":"Support to Climate Change Trust Fund"},{"id":"00050243","subnational":[{"awardID":"00050243","lat":"-6.21462","lon":"106.84513","name":"Jakarta","precision":"3","type":"PPLC"},{"awardID":"00050243","lat":"-6.21462","lon":"106.84513","name":"Jakarta","precision":"3","type":"PPLC"}],"title":"Support to Indonesia's Democratic Elections"},{"id":"00061521","subnational":[{"awardID":"00061521","lat":"-6.21462","lon":"106.84513","name":"Jakarta","precision":"3","type":"PPLC"},{"awardID":"00061521","lat":"-6.21462","lon":"106.84513","name":"Jakarta","precision":"3","type":"PPLC"},{"awardID":"00061521","lat":"-6.21462","lon":"106.84513","name":"Jakarta","precision":"3","type":"PPLC"}],"title":"SUPPORT TO THE ACCELERATION OF MDG ACHIEVEMENT IN INDONE"},{"id":"00060694","subnational":[{"awardID":"00060694","lat":"-6.21462","lon":"106.84513","name":"Jakarta","precision":"3","type":"PPLC"},{"awardID":"00060694","lat":"-7.49944","lon":"110.80611","name":"Central Kalimantan","precision":"4","type":"PPL"},{"awardID":"00060694","lat":"-7.49944","lon":"110.80611","name":"Central Kalimantan","precision":"4","type":"PPL"},{"awardID":"00060694","lat":"-7.49944","lon":"110.80611","name":"Central Kalimantan","precision":"4","type":"PPL"},{"awardID":"00060694","lat":"-7.49944","lon":"110.80611","name":"Central Kalimantan","precision":"4","type":"PPL"},{"awardID":"00060694","lat":"-7.49944","lon":"110.80611","name":"Central Kalimantan","precision":"4","type":"PPL"},{"awardID":"00060694","lat":"-6.21462","lon":"106.84513","name":"Jakarta","precision":"3","type":"PPLC"},{"awardID":"00060694","lat":"-6.21462","lon":"106.84513","name":"Jakarta","precision":"3","type":"PPLC"},{"awardID":"00060694","lat":"-7.49944","lon":"110.80611","name":"Central Kalimantan","precision":"4","type":"PPL"},{"awardID":"00060694","lat":"-7.49944","lon":"110.80611","name":"Central Kalimantan","precision":"4","type":"PPL"}],"title":"Support to the Establishment of Indonesia REDD+"},{"id":"00013061","subnational":[{"awardID":"00013061","lat":"-6.21462","lon":"106.84513","name":"Jakarta","precision":"3","type":"PPLC"}],"title":"TA FOR SUSTAINED ECONOMIC RECOVERY"},{"id":"00042065","subnational":[{"awardID":"00042065","lat":"5.5577","lon":"95.3222","name":"Banda Aceh","precision":"4","type":"PPLA"},{"awardID":"00042065","lat":"3.58333","lon":"98.66667","name":"North Sumatera","precision":"4","type":"PPLA"}],"title":"TECHNICAL SUPPORT FOR RECONSTRUCTION AGENCY-ACEH&NIAS"},{"id":"00051053","subnational":[{"awardID":"00051053","lat":"1.1215","lon":"97.6181","name":"Nias","precision":"3","type":"RES"},{"awardID":"00051053","lat":"1.1963","lon":"97.5046","name":"Nias Selatan","precision":"3","type":"ADM2"},{"awardID":"00051053","lat":"1.1963","lon":"97.5046","name":"Nias Selatan","precision":"3","type":"ADM2"}],"title":"The Nias Islands Transition Project"},{"id":"00061901","subnational":[{"awardID":"00061901","lat":"-1.6","lon":"103.61667","name":"Jambi","precision":"4","type":"PPLA"}],"title":"The participatory governance assessment for REDD+"},{"id":"00068219","subnational":[{"awardID":"00068219","lat":"-6.21462","lon":"106.84513","name":"Jakarta","precision":"3","type":"PPLC"}],"title":"Third National Communication to UNFCCC"},{"id":"00057994","subnational":[{"awardID":"00057994","lat":"-6.21462","lon":"106.84513","name":"Jakarta","precision":"3","type":"PPLC"},{"awardID":"00057994","lat":"-6.21462","lon":"106.84513","name":"Jakarta","precision":"3","type":"PPLC"},{"awardID":"00057994","lat":"-6.21462","lon":"106.84513","name":"Jakarta","precision":"3","type":"PPLC"}],"title":"Transitional Multi Donor Fund for Aid for Effectiveness"},{"id":"00060044","subnational":[{"awardID":"00060044","lat":"5.5577","lon":"95.3222","name":"Kota Banda Aceh","precision":"3","type":"PPLA"},{"awardID":"00060044","lat":"5.5577","lon":"95.3222","name":"Banda Aceh","precision":"4","type":"PPLA"}],"title":"Tsunami Recovery Waste Project"},{"id":"00058897","subnational":[{"awardID":"00058897","lat":"-7.49944","lon":"110.80611","name":"Central Kalimantan","precision":"4","type":"PPL"}],"title":"UNREDD in Indonesia"},{"id":"00060776","subnational":[{"awardID":"00060776","lat":"-0.03333","lon":"109.33333","name":"West Kalimantan","precision":"4","type":"PPLA"}],"title":"Wind Hybrid Power Generation (WHyPGen) Market Dev"}]}