{"iso_num":"360","op_unit":"IDN","projects":[{"id":"00038597","subnational":[{"awardID":"00038597","focus_area":"3","focus_area_descr":"Crisis prevention & recovery","lat":"5.5577","lon":"95.3222","name":"Banda Aceh","outputID":"00042897","precision":"4","type":"ADM1"}],"title":"Aceh Emergency Programme"},{"id":"00048350","subnational":[{"awardID":"00048350","focus_area":"2","focus_area_descr":"Democratic governance","lat":"-5","lon":"120","name":"Indonesia","outputID":"00058434","precision":"9","type":"PCL"},{"awardID":"00048350","focus_area":"2","focus_area_descr":"Democratic governance","lat":"5.5577","lon":"95.3222","name":"Banda Aceh","outputID":"00063217","precision":"4","type":"ADM1"},{"awardID":"00048350","focus_area":"2","focus_area_descr":"Democratic governance","lat":"5.5577","lon":"95.3222","name":"Banda Aceh","outputID":"00063218","precision":"4","type":"ADM1"},{"awardID":"00048350","focus_area":"-","focus_area_descr":"-","lat":"5.5577","lon":"95.3222","name":"Banda Aceh","outputID":"00080309","precision":"4","type":"ADM1"}],"title":"Aceh Government Transformation Programme"},{"id":"00058440","subnational":[{"awardID":"00058440","focus_area":"4","focus_area_descr":"Environment & sustainable development","lat":"-6.21462","lon":"106.84513","name":"Jakarta","outputID":"00072601","precision":"3","type":"PPLC"}],"title":"Arafura and Timor Seas Ecosystem Action Programme"},{"id":"00057623","subnational":[{"awardID":"00057623","focus_area":"2","focus_area_descr":"Democratic governance","lat":"0.5412","lon":"123.0595","name":"Gorontalo","outputID":"00071270","precision":"4","type":"ADM1"},{"awardID":"00057623","focus_area":"2","focus_area_descr":"Democratic governance","lat":"-10.1718","lon":"123.6075","name":"East Nusa Tenggara","outputID":"00071271","precision":"4","type":"ADM1"},{"awardID":"00057623","focus_area":"2","focus_area_descr":"Democratic governance","lat":"-0.8917","lon":"119.8707","name":"Central Sulawesi","outputID":"00071272","precision":"4","type":"ADM1"}],"title":"Articulating Governance and Local Development in Indones"},{"id":"00042855","subnational":[{"awardID":"00042855","focus_area":"2","focus_area_descr":"Democratic governance","lat":"-6.21462","lon":"106.84513","name":"Jakarta","outputID":"00049773","precision":"3","type":"PPLC"}],"title":"Deepening Democracy in Indonesia"},{"id":"00061140","subnational":[{"awardID":"00061140","focus_area":"1","focus_area_descr":"Poverty reduction & MDG achievement","lat":"-6.21462","lon":"106.84513","name":"Jakarta","outputID":"00077333","precision":"3","type":"PPLC"}],"title":"Development Advisory Services"},{"id":"00049235","subnational":[{"awardID":"00049235","focus_area":"3","focus_area_descr":"Crisis prevention & recovery","lat":"5.5577","lon":"95.3222","name":"Banda Aceh","outputID":"00059890","precision":"4","type":"ADM1"}],"title":"Disaster Risk Reduction - Aceh"},{"id":"00051288","subnational":[{"awardID":"00051288","focus_area":"3","focus_area_descr":"Crisis prevention & recovery","lat":"-7.83333","lon":"110.25","name":"Boyolali","outputID":"00063802","precision":"3","type":"ADM2"},{"awardID":"00051288","focus_area":"3","focus_area_descr":"Crisis prevention & recovery","lat":"-7.47056","lon":"110.21778","name":"Magelang","outputID":"00076483","precision":"3","type":"PPL"},{"awardID":"00051288","focus_area":"3","focus_area_descr":"Crisis prevention & recovery","lat":"-7.71889","lon":"110.60528","name":"Klaten","outputID":"00076484","precision":"3","type":"ADM2"},{"awardID":"00051288","focus_area":"3","focus_area_descr":"Crisis prevention & recovery","lat":"-1.98917","lon":"99.51902","name":"Mentawai","outputID":"00076485","precision":"4","type":"RES"},{"awardID":"00051288","focus_area":"3","focus_area_descr":"Crisis prevention & recovery","lat":"-7.71556","lon":"110.35556","name":"Sleman","outputID":"00077008","precision":"3","type":"PPL"},{"awardID":"00051288","focus_area":"3","focus_area_descr":"Crisis prevention & recovery","lat":"-7.78278","lon":"110.36083","name":"Yogyakarta","outputID":"00087191","precision":"4","type":"ADM1"}],"title":"Disaster Risk Reduction based Rehab.&Reconst."},{"id":"00035926","subnational":[{"awardID":"00035926","focus_area":"-","focus_area_descr":"-","lat":"-6.21462","lon":"106.84513","name":"Jakarta","outputID":"00038792","precision":"3","type":"PPLC"}],"title":"ENABLING THE PARTNERSHIP"},{"id":"00058270","subnational":[{"awardID":"00058270","focus_area":"4","focus_area_descr":"Environment & sustainable development","lat":"-6.21462","lon":"106.84513","name":"Jakarta","outputID":"00072328","precision":"3","type":"PPLC"},{"awardID":"00058270","focus_area":"4","focus_area_descr":"Environment & sustainable development","lat":"-6.21462","lon":"106.84513","name":"Jakarta","outputID":"00078269","precision":"3","type":"PPLC"}],"title":"Energy Standard and Labeling"},{"id":"00051205","subnational":[{"awardID":"00051205","focus_area":"1","focus_area_descr":"Poverty reduction & MDG achievement","lat":"-6.21462","lon":"106.84513","name":"Jakarta","outputID":"00063643","precision":"3","type":"PPLC"},{"awardID":"00051205","focus_area":"1","focus_area_descr":"Poverty reduction & MDG achievement","lat":"-6.21462","lon":"106.84513","name":"Jakarta","outputID":"00063682","precision":"3","type":"PPLC"},{"awardID":"00051205","focus_area":"1","focus_area_descr":"Poverty reduction & MDG achievement","lat":"-6.21462","lon":"106.84513","name":"Jakarta","outputID":"00063683","precision":"3","type":"PPLC"}],"title":"Enhancing Capacity for Better Aid Management"},{"id":"00067158","subnational":[{"awardID":"00067158","focus_area":"-","focus_area_descr":"-","lat":"-0.8917","lon":"119.8707","name":"Central Sulawesi","outputID":"00083066","precision":"4","type":"ADM1"}],"title":"Enhancing Protected Area"},{"id":"00065312","subnational":[{"awardID":"00065312","focus_area":"4","focus_area_descr":"Environment & sustainable development","lat":"-6.21462","lon":"106.84513","name":"Jakarta","outputID":"00081873","precision":"3","type":"PPLC"}],"title":"Hydrochlorofluorocarbons Phase-out Management Plan"},{"id":"00062619","subnational":[{"awardID":"00062619","focus_area":"-","focus_area_descr":"-","lat":"5.5577","lon":"95.3222","name":"Banda Aceh","outputID":"00080126","precision":"4","type":"ADM1"}],"title":"ILO RURAL ROADS PHASE III"},{"id":"00059247","subnational":[{"awardID":"00059247","focus_area":"4","focus_area_descr":"Environment & sustainable development","lat":"-6.21462","lon":"106.84513","name":"Jakarta","outputID":"00074042","precision":"3","type":"PPLC"}],"title":"Indonesia Climate Change Trust Fund"},{"id":"00050241","subnational":[{"awardID":"00050241","focus_area":"1","focus_area_descr":"Poverty reduction & MDG achievement","lat":"-5","lon":"120","name":"Indonesia","outputID":"00061960","precision":"9","type":"PCL"},{"awardID":"00050241","focus_area":"1","focus_area_descr":"Poverty reduction & MDG achievement","lat":"-5","lon":"120","name":"Indonesia","outputID":"00077929","precision":"9","type":"PCL"}],"title":"INDONESIA PARTNERSHIP FUND FOR HIV 2008-2015"},{"id":"00073823","subnational":[{"awardID":"00073823","focus_area":"4","focus_area_descr":"Environment & sustainable development","lat":"-6.21462","lon":"106.84513","name":"Jakarta","outputID":"00086461","precision":"3","type":"PPLC"}],"title":"Initiatives to Combat and Adapt to CC Challenges"},{"id":"00050588","subnational":[{"awardID":"00050588","focus_area":"-","focus_area_descr":"-","lat":"-6.21462","lon":"106.84513","name":"Jakarta","outputID":"00082684","precision":"3","type":"PPLC"}],"title":"Institutional Strengthening Phase 6 - IDS/SEV/53/INV/180"},{"id":"00043800","subnational":[{"awardID":"00043800","focus_area":"4","focus_area_descr":"Environment & sustainable development","lat":"-6.21462","lon":"106.84513","name":"Jakarta","outputID":"00051240","precision":"3","type":"PPLC"}],"title":"INTEGRATED MICROHYDRO DEVELOPMENT"},{"id":"00043641","subnational":[{"awardID":"00043641","focus_area":"-","focus_area_descr":"-","lat":"-0.8917","lon":"119.8707","name":"Central Sulawesi","outputID":"00080210","precision":"4","type":"ADM1"}],"title":"Legal Empowerment and Assistance for the Disadvantaged"},{"id":"00072823","subnational":[{"awardID":"00072823","focus_area":"-","focus_area_descr":"-","lat":"-6.21462","lon":"106.84513","name":"Jakarta","outputID":"00085846","precision":"3","type":"PPLC"}],"title":"Low Emission Capacity Building Project - Indonesia"},{"id":"00044804","subnational":[{"awardID":"00044804","focus_area":"4","focus_area_descr":"Environment & sustainable development","lat":"-5","lon":"120","name":"Indonesia","outputID":"00052814","precision":"9","type":"PCL"}],"title":"Mahakam Delta"},{"id":"00049011","subnational":[{"awardID":"00049011","focus_area":"4","focus_area_descr":"Environment & sustainable development","lat":"-6.21462","lon":"106.84513","name":"Jakarta","outputID":"00059512","precision":"3","type":"PPLC"}],"title":"Microturbine Cogeneration Technology Application Project"},{"id":"00068617","subnational":[{"awardID":"00068617","focus_area":"-","focus_area_descr":"-","lat":"-6.21462","lon":"106.84513","name":"Jakarta","outputID":"00083690","precision":"3","type":"PPLC"}],"title":"National Biodiv Planning to Support Impl CBD"},{"id":"00035419","subnational":[{"awardID":"00035419","focus_area":"-","focus_area_descr":"-","lat":"-4.0435","lon":"137.1249","name":"Papua","outputID":"00038018","precision":"4","type":"RES"}],"title":"PAPUA - CAPACITY 2015"},{"id":"00043640","subnational":[{"awardID":"00043640","focus_area":"1","focus_area_descr":"Poverty reduction & MDG achievement","lat":"-6.21462","lon":"106.84513","name":"Jakarta","outputID":"00051020","precision":"3","type":"PPLC"}],"title":"PAPUA DEVELOPMENT PROGRAMME"},{"id":"00071337","subnational":[{"awardID":"00071337","focus_area":"-","focus_area_descr":"-","lat":"-2.91673","lon":"104.7458","name":"South Sumatera","outputID":"00084870","precision":"4","type":"ADM1"}],"title":"Participatory Governance Assessment"},{"id":"00039113","subnational":[{"awardID":"00039113","focus_area":"3","focus_area_descr":"Crisis prevention & recovery","lat":"-3.69543","lon":"128.1814","name":"Maluku","outputID":"00043696","precision":"4","type":"ADM1"}],"title":"Peace Through Development"},{"id":"00060770","subnational":[{"awardID":"00060770","focus_area":"3","focus_area_descr":"Crisis prevention & recovery","lat":"-3.69543","lon":"128.1814","name":"Maluku","outputID":"00076657","precision":"4","type":"ADM1"},{"awardID":"00060770","focus_area":"3","focus_area_descr":"Crisis prevention & recovery","lat":"-7.29826","lon":"128.56194","name":"North Maluku","outputID":"00076658","precision":"4","type":"RES"},{"awardID":"00060770","focus_area":"3","focus_area_descr":"Crisis prevention & recovery","lat":"5.5577","lon":"95.3222","name":"Banda Aceh","outputID":"00076660","precision":"4","type":"ADM1"}],"title":"Peace Through Development in Disadvantaged Areas (PTDDA)"},{"id":"00060467","subnational":[{"awardID":"00060467","focus_area":"1","focus_area_descr":"Poverty reduction & MDG achievement","lat":"-4.0435","lon":"137.1249","name":"Papua","outputID":"00076143","precision":"4","type":"RES"},{"awardID":"00060467","focus_area":"1","focus_area_descr":"Poverty reduction & MDG achievement","lat":"-4.0435","lon":"137.1249","name":"West Papua","outputID":"00082375","precision":"4","type":"RES"},{"awardID":"00060467","focus_area":"1","focus_area_descr":"Poverty reduction & MDG achievement","lat":"-4.0435","lon":"137.1249","name":"Papua","outputID":"00082376","precision":"4","type":"RES"},{"awardID":"00060467","focus_area":"1","focus_area_descr":"Poverty reduction & MDG achievement","lat":"-4.0435","lon":"137.1249","name":"West Papua","outputID":"00082377","precision":"4","type":"RES"},{"awardID":"00060467","focus_area":"1","focus_area_descr":"Poverty reduction & MDG achievement","lat":"-4.0435","lon":"137.1249","name":"Papua","outputID":"00082378","precision":"4","type":"RES"},{"awardID":"00060467","focus_area":"1","focus_area_descr":"Poverty reduction & MDG achievement","lat":"-4.0435","lon":"137.1249","name":"West Papua","outputID":"00082408","precision":"4","type":"RES"}],"title":"People-centered Development Project - Phase II"},{"id":"00072677","subnational":[{"awardID":"00072677","focus_area":"-","focus_area_descr":"-","lat":"-6.21462","lon":"106.84513","name":"Jakarta","outputID":"00085740","precision":"3","type":"PPLC"}],"title":"Promoting Energy Efficiency for Non-HCFC Refrigeration a"},{"id":"00057787","subnational":[{"awardID":"00057787","focus_area":"2","focus_area_descr":"Democratic governance","lat":"-6.21462","lon":"106.84513","name":"Jakarta","outputID":"00071518","precision":"3","type":"PPLC"},{"awardID":"00057787","focus_area":"2","focus_area_descr":"Democratic governance","lat":"-2.66667","lon":"106.66667","name":"Bangka Belitung","outputID":"00071519","precision":"4","type":"ADM1"},{"awardID":"00057787","focus_area":"2","focus_area_descr":"Democratic governance","lat":"0.5412","lon":"123.0595","name":"Gorontalo","outputID":"00071520","precision":"4","type":"ADM1"}],"title":"Provincial Governance Strengthening Programme"},{"id":"00075619","subnational":[{"awardID":"00075619","focus_area":"4","focus_area_descr":"Environment & sustainable development","lat":"-6.21462","lon":"106.84513","name":"Jakarta","outputID":"00087420","precision":"3","type":"PPLC"},{"awardID":"00075619","focus_area":"4","focus_area_descr":"Environment & sustainable development","lat":"-6.21462","lon":"106.84513","name":"Jakarta","outputID":"00087421","precision":"3","type":"PPLC"},{"awardID":"00075619","focus_area":"4","focus_area_descr":"Environment & sustainable development","lat":"-6.21462","lon":"106.84513","name":"Jakarta","outputID":"00087422","precision":"3","type":"PPLC"},{"awardID":"00075619","focus_area":"4","focus_area_descr":"Environment & sustainable development","lat":"-6.21462","lon":"106.84513","name":"Jakarta","outputID":"00087423","precision":"3","type":"PPLC"}],"title":"REDD+ Interim Phase"},{"id":"00072772","subnational":[{"awardID":"00072772","focus_area":"-","focus_area_descr":"-","lat":"-6.21462","lon":"106.84513","name":"Jakarta","outputID":"00085816","precision":"3","type":"PPLC"}],"title":"Reducing PBDE and UPOPs"},{"id":"00047810","subnational":[{"awardID":"00047810","focus_area":"3","focus_area_descr":"Crisis prevention & recovery","lat":"-10.1718","lon":"123.6075","name":"East Nusa Tenggara","outputID":"00057679","precision":"4","type":"ADM1"},{"awardID":"00047810","focus_area":"3","focus_area_descr":"Crisis prevention & recovery","lat":"5.5577","lon":"95.3222","name":"Banda Aceh","outputID":"00057702","precision":"4","type":"ADM1"},{"awardID":"00047810","focus_area":"3","focus_area_descr":"Crisis prevention & recovery","lat":"-4.0435","lon":"137.1249","name":"Papua","outputID":"00057703","precision":"4","type":"RES"},{"awardID":"00047810","focus_area":"3","focus_area_descr":"Crisis prevention & recovery","lat":"-6.9932","lon":"110.4203","name":"Central Java","outputID":"00057704","precision":"4","type":"ADM1"},{"awardID":"00047810","focus_area":"3","focus_area_descr":"Crisis prevention & recovery","lat":"-5.14","lon":"119.4221","name":"South Sulawesi","outputID":"00070263","precision":"4","type":"ADM1"}],"title":"Safer Communities through Disaster Risk Reduction"},{"id":"00071676","subnational":[{"awardID":"00071676","focus_area":"3","focus_area_descr":"Crisis prevention & recovery","lat":"-6.21462","lon":"106.84513","name":"Jakarta","outputID":"00085005","precision":"3","type":"PPLC"},{"awardID":"00071676","focus_area":"3","focus_area_descr":"Crisis prevention & recovery","lat":"-6.9932","lon":"110.4203","name":"Central Java","outputID":"00085006","precision":"4","type":"ADM1"}],"title":"Safer Communities through Disaster Risk Reduction Phs II"},{"id":"00013085","subnational":[{"awardID":"00013085","focus_area":"4","focus_area_descr":"Environment & sustainable development","lat":"-5","lon":"120","name":"Indonesia","outputID":"00013085","precision":"9","type":"PCL"}],"title":"Sector Phase-out Plan in the Refrigeration"},{"id":"00061065","subnational":[{"awardID":"00061065","focus_area":"4","focus_area_descr":"Environment & sustainable development","lat":"-10.1718","lon":"123.6075","name":"East Nusa Tenggara","outputID":"00077177","precision":"4","type":"ADM1"}],"title":"Strategic Climate Adaptation"},{"id":"00068398","subnational":[{"awardID":"00068398","focus_area":"4","focus_area_descr":"Environment & sustainable development","lat":"-10.1718","lon":"123.6075","name":"East Nusa Tenggara","outputID":"00083625","precision":"4","type":"ADM1"}],"title":"Strategic Planning and Action to Climate Resilience"},{"id":"00062271","subnational":[{"awardID":"00062271","focus_area":"-","focus_area_descr":"-","lat":"-6.21462","lon":"106.84513","name":"Jakarta","outputID":"00079691","precision":"3","type":"PPLC"}],"title":"STRENGTHEN IMPLEMENTATION OF GRANTS"},{"id":"00061763","subnational":[{"awardID":"00061763","focus_area":"2","focus_area_descr":"Democratic governance","lat":"-0.8917","lon":"119.8707","name":"Central Sulawesi","outputID":"00078515","precision":"4","type":"ADM1"},{"awardID":"00061763","focus_area":"2","focus_area_descr":"Democratic governance","lat":"-7.49944","lon":"110.80611","name":"Central Kalimantan","outputID":"00081783","precision":"4","type":"PPL"}],"title":"Strengthening Access to Justice in Indonesia"},{"id":"00056845","subnational":[{"awardID":"00056845","focus_area":"4","focus_area_descr":"Environment & sustainable development","lat":"-8.6881","lon":"116.124","name":"Dodokan","outputID":"00069901","precision":"3","type":"PPL"}],"title":"Strengthening Community Based Forest and Watershed"},{"id":"00061932","subnational":[{"awardID":"00061932","focus_area":"4","focus_area_descr":"Environment & sustainable development","lat":"-6.21462","lon":"106.84513","name":"Jakarta","outputID":"00079052","precision":"3","type":"PPLC"},{"awardID":"00061932","focus_area":"4","focus_area_descr":"Environment & sustainable development","lat":"-6.21462","lon":"106.84513","name":"Jakarta","outputID":"00082420","precision":"3","type":"PPLC"},{"awardID":"00061932","focus_area":"4","focus_area_descr":"Environment & sustainable development","lat":"-6.21462","lon":"106.84513","name":"Jakarta","outputID":"00084372","precision":"3","type":"PPLC"}],"title":"Strengthening Indonesia Mitigation and Adaptation"},{"id":"00067418","subnational":[{"awardID":"00067418","focus_area":"1","focus_area_descr":"Poverty reduction & MDG achievement","lat":"-6.21462","lon":"106.84513","name":"Jakarta","outputID":"00083188","precision":"3","type":"PPLC"}],"title":"Strengthening Innovative Partnership for Development"},{"id":"00066891","subnational":[{"awardID":"00066891","focus_area":"2","focus_area_descr":"Democratic governance","lat":"-6.21462","lon":"106.84513","name":"Jakarta","outputID":"00082916","precision":"3","type":"PPLC"}],"title":"Strengthening Women's Participation and Representation"},{"id":"00013080","subnational":[{"awardID":"00013080","focus_area":"-","focus_area_descr":"-","lat":"-6.21462","lon":"106.84513","name":"Jakarta","outputID":"00013080","precision":"3","type":"PPLC"}],"title":"Support for the the Crisis Prevention Recovery Unit"},{"id":"00060014","subnational":[{"awardID":"00060014","focus_area":"4","focus_area_descr":"Environment & sustainable development","lat":"-6.21462","lon":"106.84513","name":"Jakarta","outputID":"00075322","precision":"3","type":"PPLC"},{"awardID":"00060014","focus_area":"4","focus_area_descr":"Environment & sustainable development","lat":"-6.21462","lon":"106.84513","name":"Jakarta","outputID":"00075323","precision":"3","type":"PPLC"}],"title":"Support to Climate Change Trust Fund"},{"id":"00050243","subnational":[{"awardID":"00050243","focus_area":"2","focus_area_descr":"Democratic governance","lat":"-6.21462","lon":"106.84513","name":"Jakarta","outputID":"00061962","precision":"3","type":"PPLC"},{"awardID":"00050243","focus_area":"2","focus_area_descr":"Democratic governance","lat":"-6.21462","lon":"106.84513","name":"Jakarta","outputID":"00062253","precision":"3","type":"PPLC"}],"title":"Support to Indonesia's Democratic Elections"},{"id":"00061521","subnational":[{"awardID":"00061521","focus_area":"1","focus_area_descr":"Poverty reduction & MDG achievement","lat":"-6.21462","lon":"106.84513","name":"Jakarta","outputID":"00077954","precision":"3","type":"PPLC"},{"awardID":"00061521","focus_area":"1","focus_area_descr":"Poverty reduction & MDG achievement","lat":"-6.21462","lon":"106.84513","name":"Jakarta","outputID":"00086004","precision":"3","type":"PPLC"},{"awardID":"00061521","focus_area":"1","focus_area_descr":"Poverty reduction & MDG achievement","lat":"-6.21462","lon":"106.84513","name":"Jakarta","outputID":"00086006","precision":"3","type":"PPLC"}],"title":"SUPPORT TO THE ACCELERATION OF MDG ACHIEVEMENT IN INDONE"},{"id":"00060694","subnational":[{"awardID":"00060694","focus_area":"4","focus_area_descr":"Environment & sustainable development","lat":"-6.21462","lon":"106.84513","name":"Jakarta","outputID":"00076532","precision":"3","type":"PPLC"},{"awardID":"00060694","focus_area":"4","focus_area_descr":"Environment & sustainable development","lat":"-7.49944","lon":"110.80611","name":"Central Kalimantan","outputID":"00076555","precision":"4","type":"PPL"},{"awardID":"00060694","focus_area":"4","focus_area_descr":"Environment & sustainable development","lat":"-7.49944","lon":"110.80611","name":"Central Kalimantan","outputID":"00082624","precision":"4","type":"PPL"},{"awardID":"00060694","focus_area":"4","focus_area_descr":"Environment & sustainable development","lat":"-7.49944","lon":"110.80611","name":"Central Kalimantan","outputID":"00082629","precision":"4","type":"PPL"},{"awardID":"00060694","focus_area":"4","focus_area_descr":"Environment & sustainable development","lat":"-7.49944","lon":"110.80611","name":"Central Kalimantan","outputID":"00082630","precision":"4","type":"PPL"},{"awardID":"00060694","focus_area":"-","focus_area_descr":"-","lat":"-7.49944","lon":"110.80611","name":"Central Kalimantan","outputID":"00082645","precision":"4","type":"PPL"},{"awardID":"00060694","focus_area":"-","focus_area_descr":"-","lat":"-6.21462","lon":"106.84513","name":"Jakarta","outputID":"00082646","precision":"3","type":"PPLC"},{"awardID":"00060694","focus_area":"-","focus_area_descr":"-","lat":"-6.21462","lon":"106.84513","name":"Jakarta","outputID":"00082647","precision":"3","type":"PPLC"},{"awardID":"00060694","focus_area":"-","focus_area_descr":"-","lat":"-7.49944","lon":"110.80611","name":"Central Kalimantan","outputID":"00082648","precision":"4","type":"PPL"},{"awardID":"00060694","focus_area":"-","focus_area_descr":"-","lat":"-7.49944","lon":"110.80611","name":"Central Kalimantan","outputID":"00082649","precision":"4","type":"PPL"}],"title":"Support to the Establishment of Indonesia REDD+"},{"id":"00013061","subnational":[{"awardID":"00013061","focus_area":"-","focus_area_descr":"-","lat":"-6.21462","lon":"106.84513","name":"Jakarta","outputID":"00013061","precision":"3","type":"PPLC"}],"title":"TA FOR SUSTAINED ECONOMIC RECOVERY"},{"id":"00042065","subnational":[{"awardID":"00042065","focus_area":"3","focus_area_descr":"Crisis prevention & recovery","lat":"5.5577","lon":"95.3222","name":"Banda Aceh","outputID":"00061586","precision":"4","type":"ADM1"},{"awardID":"00042065","focus_area":"3","focus_area_descr":"Crisis prevention & recovery","lat":"3.58333","lon":"98.66667","name":"North Sumatera","outputID":"00074562","precision":"4","type":"ADM1"}],"title":"TECHNICAL SUPPORT FOR RECONSTRUCTION AGENCY-ACEH&NIAS"},{"id":"00051053","subnational":[{"awardID":"00051053","focus_area":"2","focus_area_descr":"Democratic governance","lat":"1.1215","lon":"97.6181","name":"Nias","outputID":"00063380","precision":"4","type":"RES"},{"awardID":"00051053","focus_area":"2","focus_area_descr":"Democratic governance","lat":"1.1963","lon":"97.5046","name":"Nias Selatan","outputID":"00063420","precision":"3","type":"ADM2"},{"awardID":"00051053","focus_area":"2","focus_area_descr":"Democratic governance","lat":"1.1963","lon":"97.5046","name":"Nias Selatan","outputID":"00071328","precision":"3","type":"ADM2"}],"title":"The Nias Islands Transition Project"},{"id":"00061901","subnational":[{"awardID":"00061901","focus_area":"2","focus_area_descr":"Democratic governance","lat":"-1.6","lon":"103.61667","name":"Jambi","outputID":"00078974","precision":"4","type":"ADM1"}],"title":"The participatory governance assessment for REDD+"},{"id":"00068219","subnational":[{"awardID":"00068219","focus_area":"4","focus_area_descr":"Environment & sustainable development","lat":"-6.21462","lon":"106.84513","name":"Jakarta","outputID":"00083541","precision":"3","type":"PPLC"}],"title":"Third National Communication to UNFCCC"},{"id":"00057994","subnational":[{"awardID":"00057994","focus_area":"1","focus_area_descr":"Poverty reduction & MDG achievement","lat":"-6.21462","lon":"106.84513","name":"Jakarta","outputID":"00072796","precision":"3","type":"PPLC"},{"awardID":"00057994","focus_area":"1","focus_area_descr":"Poverty reduction & MDG achievement","lat":"-6.21462","lon":"106.84513","name":"Jakarta","outputID":"00072798","precision":"3","type":"PPLC"},{"awardID":"00057994","focus_area":"1","focus_area_descr":"Poverty reduction & MDG achievement","lat":"-6.21462","lon":"106.84513","name":"Jakarta","outputID":"00072797","precision":"3","type":"PPLC"}],"title":"Transitional Multi Donor Fund for Aid for Effectiveness"},{"id":"00060044","subnational":[{"awardID":"00060044","focus_area":"3","focus_area_descr":"Crisis prevention & recovery","lat":"5.5577","lon":"95.3222","name":"Kota Banda Aceh","outputID":"00075384","precision":"3","type":"PPLA"},{"awardID":"00060044","focus_area":"-","focus_area_descr":"-","lat":"5.5577","lon":"95.3222","name":"Banda Aceh","outputID":"00086695","precision":"4","type":"ADM1"}],"title":"Tsunami Recovery Waste Project"},{"id":"00058897","subnational":[{"awardID":"00058897","focus_area":"4","focus_area_descr":"Environment & sustainable development","lat":"-7.49944","lon":"110.80611","name":"Central Kalimantan","outputID":"00073846","precision":"4","type":"PPL"}],"title":"UNREDD in Indonesia"},{"id":"00060776","subnational":[{"awardID":"00060776","focus_area":"4","focus_area_descr":"Environment & sustainable development","lat":"-0.03333","lon":"109.33333","name":"West Kalimantan","outputID":"00076672","precision":"4","type":"ADM1"}],"title":"Wind Hybrid Power Generation (WHyPGen) Market Dev"},{"id":"00045230","subnational":[],"title":"Avian and Human Influenza Coordination Activity"},{"id":"00060042","subnational":[],"title":"Community Development Programme West Nusa Tenggara"},{"id":"00033872","subnational":[],"title":"GOVERNANCE REFORM"},{"id":"00043685","subnational":[],"title":"ILO - Rural Roads Phase I&II"},{"id":"00042647","subnational":[],"title":"Multy Donor Trust Fund : Waste Management Project"},{"id":"00033093","subnational":[],"title":"National Capacity Self Assessment"},{"id":"00048139","subnational":[],"title":"Strengthened Capacity to Principal Recipeinin Indonesia"},{"id":"00013070","subnational":[],"title":"Support to Programme Development"},{"id":"00043973","subnational":[],"title":"To Assess,Reinforce&Gear Efforts Toward MDG in Indonesia"},{"id":"00013076","subnational":[],"title":"Trust Fund for North Maluku & Maluku Recovery Program"},{"id":"00045230","subnational":[],"title":"Avian and Human Influenza Coordination Activity"},{"id":"00051370","subnational":[],"title":"Common Services"},{"id":"00060042","subnational":[],"title":"Community Development Programme West Nusa Tenggara"},{"id":"00058521","subnational":[],"title":"Development Policy Support Project"},{"id":"00043298","subnational":[],"title":"Enhancing Com, Advoc and Pub Part Cap for Legal Reforms"},{"id":"00059208","subnational":[],"title":"Forest and Climate Change"},{"id":"00051021","subnational":[],"title":"GEP-WRI RAISING THE PROFILE (GENDER PROJECT)"},{"id":"00043685","subnational":[],"title":"ILO - Rural Roads Phase I&II"},{"id":"00043562","subnational":[],"title":"MDTF TRPRP - Port Redevelopment"},{"id":"00042647","subnational":[],"title":"Multy Donor Trust Fund : Waste Management Project"},{"id":"00013089","subnational":[],"title":"Phase-out Mngmt Plan for CFCs-Ref (Servicing)"},{"id":"00059844","subnational":[],"title":"PIP on Persistent Organic Pollutants (POPs) Mgt"},{"id":"00058376","subnational":[],"title":"Recovery Initiatives for Sumatera Earthquakes"},{"id":"00038024","subnational":[],"title":"Response to Aceh Disaster"},{"id":"00048139","subnational":[],"title":"Strengthened Capacity to Principal Recipeinin Indonesia"},{"id":"00060284","subnational":[],"title":"Study on Corporate Social Responsibility"},{"id":"00044584","subnational":[],"title":"Support to Justice for Peace and Development in Aceh"},{"id":"00042539","subnational":[],"title":"Support to Strengthen the Capacity and Role of CSO"},{"id":"00032043","subnational":[],"title":"Support to UN Coordination"},{"id":"00056995","subnational":[],"title":"Switch to Biogas: Assists Dairy Farming Communities"},{"id":"00043973","subnational":[],"title":"To Assess,Reinforce&Gear Efforts Toward MDG in Indonesia"},{"id":"00057565","subnational":[],"title":"Training Future Experts on CC & Poverty in Aceh"},{"id":"00059199","subnational":[],"title":"Wind Hybrid Power Generation"},{"id":"00061349","subnational":[],"title":"Women in Politics and Government"}]}