{"iso_num": null, "projects": [{"title": "institutional strengthening to ozone layer protection", "id": "00050588", "subnational": [{"outputID": "00099695", "output_locID": "00099695-1", "name": "Jakarta", "focus_area": "1", "lat": "-6.214620", "type": "PPLC", "awardID": "00050588", "lon": "106.845130", "precision": "1", "focus_area_descr": "Inclusive & Sustainable Growth"}, {"outputID": "00082684", "output_locID": "00082684-1", "name": "Jakarta", "focus_area": "1", "lat": "-6.214620", "type": "PPLC", "awardID": "00050588", "lon": "106.845130", "precision": "1", "focus_area_descr": "Inclusive & Sustainable Growth"}]}, {"title": "disaster risk reduction based rehabilitation and reconstruction", "id": "00051288", "subnational": [{"outputID": "00104292", "output_locID": "00104292-1", "name": "Aceh", "focus_area": "6", "lat": "4.000000", "type": "ADM1", "awardID": "00051288", "lon": "97.000000", "precision": "1", "focus_area_descr": "Crisis Prevention & Recovery"}, {"outputID": "00076483", "output_locID": "00076483-1", "name": "Magelang", "focus_area": "6", "lat": "-5.407490", "type": "PPL", "awardID": "00051288", "lon": "104.929350", "precision": "1", "focus_area_descr": "Crisis Prevention & Recovery"}, {"outputID": "00063802", "output_locID": "00063802-1", "name": "Kabupaten Boyolali", "focus_area": "6", "lat": "-7.833330", "type": "ADM2", "awardID": "00051288", "lon": "110.250000", "precision": "1", "focus_area_descr": "Crisis Prevention & Recovery"}, {"outputID": "00076484", "output_locID": "00076484-1", "name": "Kota Administratip Klaten", "focus_area": "6", "lat": "-7.718890", "type": "ADM2", "awardID": "00051288", "lon": "110.605280", "precision": "1", "focus_area_descr": "Crisis Prevention & Recovery"}, {"outputID": "00076485", "output_locID": "00076485-1", "name": "Kepulauan Mentawai", "focus_area": "6", "lat": "-1.989170", "type": "ISLS", "awardID": "00051288", "lon": "99.519020", "precision": "1", "focus_area_descr": "Crisis Prevention & Recovery"}, {"outputID": "00077008", "output_locID": "00077008-1", "name": "Sleman", "focus_area": "6", "lat": "-7.715560", "type": "PPL", "awardID": "00051288", "lon": "110.355560", "precision": "1", "focus_area_descr": "Crisis Prevention & Recovery"}, {"outputID": "00090111", "output_locID": "00090111-1", "name": "Jakarta", "focus_area": "6", "lat": "-6.214620", "type": "PPLC", "awardID": "00051288", "lon": "106.845130", "precision": "1", "focus_area_descr": "Crisis Prevention & Recovery"}, {"outputID": "00087191", "output_locID": "00087191-1", "name": "Daerah Istimewa Yogyakarta", "focus_area": "6", "lat": "-7.750000", "type": "ADM1", "awardID": "00051288", "lon": "110.500000", "precision": "1", "focus_area_descr": "Crisis Prevention & Recovery"}]}, {"title": "hydrochlorofluorocarbons phase-out management plan - manufacturing sector", "id": "00065312", "subnational": [{"outputID": "00081873", "output_locID": "00081873-1", "name": "Jakarta", "focus_area": "1", "lat": "-6.214620", "type": "PPLC", "awardID": "00065312", "lon": "106.845130", "precision": "1", "focus_area_descr": "Inclusive & Sustainable Growth"}]}, {"title": "strategic planning and action to climate resilience", "id": "00068398", "subnational": [{"outputID": "00083625", "output_locID": "00083625-1", "name": "East Nusa Tenggara", "focus_area": "1", "lat": "-8.657380", "type": "ADM1", "awardID": "00068398", "lon": "121.079370", "precision": "1", "focus_area_descr": "Inclusive & Sustainable Growth"}]}, {"title": "third national communication to the unfccc - full size", "id": "00075809", "subnational": [{"outputID": "00087506", "output_locID": "00087506-1", "name": "Jakarta", "focus_area": "1", "lat": "-6.214620", "type": "PPLC", "awardID": "00075809", "lon": "106.845130", "precision": "1", "focus_area_descr": "Inclusive & Sustainable Growth"}]}, {"title": "enhancing the protected area system in sulawesi (e-pass)", "id": "00077733", "subnational": [{"outputID": "00088356", "output_locID": "00088356-1", "name": "Palu", "focus_area": "1", "lat": "-0.908330", "type": "PPLA", "awardID": "00077733", "lon": "119.870830", "precision": "1", "focus_area_descr": "Inclusive & Sustainable Growth"}, {"outputID": "00088356", "output_locID": "00088356-2", "name": "Gorontalo", "focus_area": "1", "lat": "0.537500", "type": "PPLA", "awardID": "00077733", "lon": "123.062500", "precision": "1", "focus_area_descr": "Inclusive & Sustainable Growth"}, {"outputID": "00088356", "output_locID": "00088356-3", "name": "Bitung", "focus_area": "1", "lat": "1.456970", "type": "PPL", "awardID": "00077733", "lon": "125.189500", "precision": "1", "focus_area_descr": "Inclusive & Sustainable Growth"}]}, {"title": "support to the justice sector reform in indonesia", "id": "00082733", "subnational": [{"outputID": "00091522", "output_locID": "00091522-1", "name": "Makassar", "focus_area": "2", "lat": "-5.148610", "type": "PPLA", "awardID": "00082733", "lon": "119.431940", "precision": "1", "focus_area_descr": "Democratic Governance"}, {"outputID": "00091522", "output_locID": "00091522-2", "name": "Jakarta", "focus_area": "2", "lat": "-6.214620", "type": "PPLC", "awardID": "00082733", "lon": "106.845130", "precision": "1", "focus_area_descr": "Democratic Governance"}, {"outputID": "00091523", "output_locID": "00091523-1", "name": "Medan", "focus_area": "2", "lat": "3.583330", "type": "PPLA", "awardID": "00082733", "lon": "98.666670", "precision": "1", "focus_area_descr": "Democratic Governance"}, {"outputID": "00091523", "output_locID": "00091523-2", "name": "Banda Aceh", "focus_area": "2", "lat": "5.541670", "type": "PPLA", "awardID": "00082733", "lon": "95.333330", "precision": "1", "focus_area_descr": "Democratic Governance"}, {"outputID": "00091523", "output_locID": "00091523-3", "name": "Sorong", "focus_area": "2", "lat": "-0.879560", "type": "PPL", "awardID": "00082733", "lon": "131.261040", "precision": "1", "focus_area_descr": "Democratic Governance"}, {"outputID": "00091523", "output_locID": "00091523-4", "name": "Singkawang", "focus_area": "2", "lat": "0.909250", "type": "PPL", "awardID": "00082733", "lon": "108.984630", "precision": "1", "focus_area_descr": "Democratic Governance"}, {"outputID": "00091523", "output_locID": "00091523-5", "name": "Saumlaki", "focus_area": "2", "lat": "-7.986180", "type": "PPL", "awardID": "00082733", "lon": "131.296750", "precision": "1", "focus_area_descr": "Democratic Governance"}, {"outputID": "00091523", "output_locID": "00091523-6", "name": "Manado", "focus_area": "2", "lat": "1.482180", "type": "PPLA", "awardID": "00082733", "lon": "124.848920", "precision": "1", "focus_area_descr": "Democratic Governance"}, {"outputID": "00091523", "output_locID": "00091523-7", "name": "Jakarta", "focus_area": "2", "lat": "-6.214620", "type": "PPLC", "awardID": "00082733", "lon": "106.845130", "precision": "1", "focus_area_descr": "Democratic Governance"}, {"outputID": "00091523", "output_locID": "00091523-8", "name": "Bogor", "focus_area": "2", "lat": "-6.594440", "type": "PPL", "awardID": "00082733", "lon": "106.789170", "precision": "1", "focus_area_descr": "Democratic Governance"}, {"outputID": "00091523", "output_locID": "00091523-9", "name": "Bandung", "focus_area": "2", "lat": "-6.922220", "type": "PPLA", "awardID": "00082733", "lon": "107.606940", "precision": "1", "focus_area_descr": "Democratic Governance"}, {"outputID": "00091523", "output_locID": "00091523-10", "name": "Medan", "focus_area": "2", "lat": "-0.439980", "type": "PPL", "awardID": "00082733", "lon": "100.755420", "precision": "1", "focus_area_descr": "Democratic Governance"}, {"outputID": "00091523", "output_locID": "00091523-11", "name": "Masohi", "focus_area": "2", "lat": "-3.298330", "type": "PPLA2", "awardID": "00082733", "lon": "128.968820", "precision": "1", "focus_area_descr": "Democratic Governance"}, {"outputID": "00091524", "output_locID": "00091524-1", "name": "Jakarta", "focus_area": "3", "lat": "-6.214620", "type": "PPLC", "awardID": "00082733", "lon": "106.845130", "precision": "1", "focus_area_descr": "Responsive Institutions"}, {"outputID": "00091525", "output_locID": "00091525-1", "name": "Stabat", "focus_area": "3", "lat": "3.733350", "type": "PPL", "awardID": "00082733", "lon": "98.450250", "precision": "1", "focus_area_descr": "Responsive Institutions"}, {"outputID": "00091525", "output_locID": "00091525-2", "name": "Banda Aceh", "focus_area": "3", "lat": "5.541670", "type": "PPLA", "awardID": "00082733", "lon": "95.333330", "precision": "1", "focus_area_descr": "Responsive Institutions"}, {"outputID": "00091525", "output_locID": "00091525-3", "name": "Manado", "focus_area": "3", "lat": "1.482180", "type": "PPLA", "awardID": "00082733", "lon": "124.848920", "precision": "1", "focus_area_descr": "Responsive Institutions"}, {"outputID": "00091525", "output_locID": "00091525-4", "name": "Malang", "focus_area": "3", "lat": "-7.979700", "type": "PPL", "awardID": "00082733", "lon": "112.630400", "precision": "1", "focus_area_descr": "Responsive Institutions"}, {"outputID": "00091525", "output_locID": "00091525-5", "name": "Jakarta", "focus_area": "3", "lat": "-6.214620", "type": "PPLC", "awardID": "00082733", "lon": "106.845130", "precision": "1", "focus_area_descr": "Responsive Institutions"}, {"outputID": "00091525", "output_locID": "00091525-6", "name": "Kupang", "focus_area": "3", "lat": "-10.170830", "type": "PPLA", "awardID": "00082733", "lon": "123.606940", "precision": "1", "focus_area_descr": "Responsive Institutions"}, {"outputID": "00091526", "output_locID": "00091526-1", "name": "Jakarta", "focus_area": "3", "lat": "-6.214620", "type": "PPLC", "awardID": "00082733", "lon": "106.845130", "precision": "1", "focus_area_descr": "Responsive Institutions"}]}, {"title": "sustainable palm oil initiative", "id": "00082941", "subnational": [{"outputID": "00091615", "output_locID": "00091615-1", "name": "South Sumatra", "focus_area": "1", "lat": "-2.750000", "type": "ADM1", "awardID": "00082941", "lon": "103.833330", "precision": "1", "focus_area_descr": "Inclusive & Sustainable Growth"}, {"outputID": "00091615", "output_locID": "00091615-2", "name": "Riau", "focus_area": "1", "lat": "0.500500", "type": "ADM1", "awardID": "00082941", "lon": "101.749000", "precision": "1", "focus_area_descr": "Inclusive & Sustainable Growth"}, {"outputID": "00091615", "output_locID": "00091615-3", "name": "West Kalimantan", "focus_area": "1", "lat": "0.000000", "type": "ADM1", "awardID": "00082941", "lon": "110.500000", "precision": "1", "focus_area_descr": "Inclusive & Sustainable Growth"}]}, {"title": "reducing releases of polybromodiphenyl ethers (pbde) and unintentional persistent organic pollutants (upops)", "id": "00083160", "subnational": [{"outputID": "00091789", "output_locID": "00091789-1", "name": "Trowulan", "focus_area": "1", "lat": "-7.560900", "type": "PPL", "awardID": "00083160", "lon": "112.377700", "precision": "1", "focus_area_descr": "Inclusive & Sustainable Growth"}]}, {"title": "implementation of the arafura & timor seas programmes", "id": "00084467", "subnational": []}, {"title": "biodiversity conservation in sumatra", "id": "00085001", "subnational": [{"outputID": "00092762", "output_locID": "00092762-1", "name": "Kecamatan Gunung Kerinci", "focus_area": "1", "lat": "-1.841600", "type": "ADM3", "awardID": "00085001", "lon": "101.322100", "precision": "1", "focus_area_descr": "Inclusive & Sustainable Growth"}]}, {"title": "kalimantan forest", "id": "00085815", "subnational": []}, {"title": "market transformation", "id": "00086173", "subnational": [{"outputID": "00093506", "output_locID": "00093506-1", "name": "Riau", "focus_area": "1", "lat": "0.500500", "type": "ADM1", "awardID": "00086173", "lon": "101.749000", "precision": "1", "focus_area_descr": "Inclusive & Sustainable Growth"}]}, {"title": "strengthening chemicals management and sustainable development (scm-sd)", "id": "00086683", "subnational": [{"outputID": "00093925", "output_locID": "00093925-1", "name": "Jakarta", "focus_area": "1", "lat": "-6.214620", "type": "PPLC", "awardID": "00086683", "lon": "106.845130", "precision": "1", "focus_area_descr": "Inclusive & Sustainable Growth"}]}, {"title": "data innovation for development", "id": "00089252", "subnational": [{"outputID": "00095578", "output_locID": "00095578-1", "name": "Riau", "focus_area": "7", "lat": "0.500500", "type": "ADM1", "awardID": "00089252", "lon": "101.749000", "precision": "1", "focus_area_descr": "Development Impact & Effectiveness"}, {"outputID": "00095578", "output_locID": "00095578-2", "name": "Probolinggo", "focus_area": "7", "lat": "-7.754300", "type": "PPL", "awardID": "00089252", "lon": "113.215900", "precision": "1", "focus_area_descr": "Development Impact & Effectiveness"}, {"outputID": "00095578", "output_locID": "00095578-3", "name": "Pontianak", "focus_area": "7", "lat": "-0.031940", "type": "PPLA", "awardID": "00089252", "lon": "109.325000", "precision": "1", "focus_area_descr": "Development Impact & Effectiveness"}, {"outputID": "00095578", "output_locID": "00095578-4", "name": "Malang", "focus_area": "7", "lat": "-7.979700", "type": "PPL", "awardID": "00089252", "lon": "112.630400", "precision": "1", "focus_area_descr": "Development Impact & Effectiveness"}, {"outputID": "00095578", "output_locID": "00095578-5", "name": "Jeneponto", "focus_area": "7", "lat": "-5.676500", "type": "PPLA2", "awardID": "00089252", "lon": "119.748400", "precision": "1", "focus_area_descr": "Development Impact & Effectiveness"}, {"outputID": "00095578", "output_locID": "00095578-6", "name": "Jakarta", "focus_area": "7", "lat": "-6.214620", "type": "PPLC", "awardID": "00089252", "lon": "106.845130", "precision": "1", "focus_area_descr": "Development Impact & Effectiveness"}, {"outputID": "00095578", "output_locID": "00095578-7", "name": "Bandung", "focus_area": "7", "lat": "-6.922220", "type": "PPLA", "awardID": "00089252", "lon": "107.606940", "precision": "1", "focus_area_descr": "Development Impact & Effectiveness"}, {"outputID": "00095578", "output_locID": "00095578-8", "name": "Jayapura", "focus_area": "7", "lat": "-2.533710", "type": "PPLA", "awardID": "00089252", "lon": "140.718130", "precision": "1", "focus_area_descr": "Development Impact & Effectiveness"}, {"outputID": "00095578", "output_locID": "00095578-9", "name": "Kecamatan Banyuwangi", "focus_area": "7", "lat": "-8.227300", "type": "ADM3", "awardID": "00089252", "lon": "114.367700", "precision": "1", "focus_area_descr": "Development Impact & Effectiveness"}, {"outputID": "00095578", "output_locID": "00095578-10", "name": "Lombok", "focus_area": "7", "lat": "-8.572870", "type": "ADMD", "awardID": "00089252", "lon": "116.343840", "precision": "1", "focus_area_descr": "Development Impact & Effectiveness"}, {"outputID": "00105148", "output_locID": "00105148-1", "name": "Yogyakarta", "focus_area": "7", "lat": "-7.801390", "type": "PPLA", "awardID": "00089252", "lon": "110.364720", "precision": "1", "focus_area_descr": "Development Impact & Effectiveness"}, {"outputID": "00105148", "output_locID": "00105148-2", "name": "Makassar", "focus_area": "7", "lat": "-5.148610", "type": "PPLA", "awardID": "00089252", "lon": "119.431940", "precision": "1", "focus_area_descr": "Development Impact & Effectiveness"}, {"outputID": "00105148", "output_locID": "00105148-3", "name": "Surabaya", "focus_area": "7", "lat": "-7.249170", "type": "PPLA", "awardID": "00089252", "lon": "112.750830", "precision": "1", "focus_area_descr": "Development Impact & Effectiveness"}, {"outputID": "00105148", "output_locID": "00105148-4", "name": "Riau", "focus_area": "7", "lat": "0.500500", "type": "ADM1", "awardID": "00089252", "lon": "101.749000", "precision": "1", "focus_area_descr": "Development Impact & Effectiveness"}, {"outputID": "00105148", "output_locID": "00105148-5", "name": "Jakarta", "focus_area": "7", "lat": "-6.214620", "type": "PPLC", "awardID": "00089252", "lon": "106.845130", "precision": "1", "focus_area_descr": "Development Impact & Effectiveness"}, {"outputID": "00105148", "output_locID": "00105148-6", "name": "Bandung", "focus_area": "7", "lat": "-6.922220", "type": "PPLA", "awardID": "00089252", "lon": "107.606940", "precision": "1", "focus_area_descr": "Development Impact & Effectiveness"}, {"outputID": "00105148", "output_locID": "00105148-7", "name": "Lombok", "focus_area": "7", "lat": "-8.572870", "type": "ADMD", "awardID": "00089252", "lon": "116.343840", "precision": "1", "focus_area_descr": "Development Impact & Effectiveness"}, {"outputID": "00107199", "output_locID": "00107199-1", "name": "Jakarta", "focus_area": "1", "lat": "-6.214620", "type": "PPLC", "awardID": "00089252", "lon": "106.845130", "precision": "1", "focus_area_descr": "Inclusive & Sustainable Growth"}]}, {"title": "cross-cutting capacity development (cccd) - full", "id": "00090780", "subnational": [{"outputID": "00096387", "output_locID": "00096387-1", "name": "Malang", "focus_area": "1", "lat": "-7.979700", "type": "PPL", "awardID": "00090780", "lon": "112.630400", "precision": "1", "focus_area_descr": "Inclusive & Sustainable Growth"}, {"outputID": "00096387", "output_locID": "00096387-2", "name": "Lampung", "focus_area": "1", "lat": "-5.000000", "type": "ADM1", "awardID": "00090780", "lon": "105.000000", "precision": "1", "focus_area_descr": "Inclusive & Sustainable Growth"}]}, {"title": "illegal wildlife trade (iwt)", "id": "00094636", "subnational": [{"outputID": "00098732", "output_locID": "00098732-1", "name": "Belawan", "focus_area": "3", "lat": "3.775500", "type": "PPL", "awardID": "00094636", "lon": "98.683200", "precision": "1", "focus_area_descr": "Responsive Institutions"}, {"outputID": "00098732", "output_locID": "00098732-2", "name": "Tanjung Priok", "focus_area": "3", "lat": "-6.113610", "type": "PPL", "awardID": "00094636", "lon": "106.890830", "precision": "1", "focus_area_descr": "Responsive Institutions"}, {"outputID": "00098732", "output_locID": "00098732-3", "name": "Bitung", "focus_area": "3", "lat": "1.456970", "type": "PPL", "awardID": "00094636", "lon": "125.189500", "precision": "1", "focus_area_descr": "Responsive Institutions"}, {"outputID": "00098732", "output_locID": "00098732-4", "name": "Gorontalo", "focus_area": "3", "lat": "0.693000", "type": "ADM1", "awardID": "00094636", "lon": "122.470400", "precision": "1", "focus_area_descr": "Responsive Institutions"}]}, {"title": "advancing lighting market to high efficient technologies (adlight)", "id": "00094668", "subnational": [{"outputID": "00098757", "output_locID": "00098757-1", "name": "Jakarta", "focus_area": "1", "lat": "-6.214620", "type": "PPLC", "awardID": "00094668", "lon": "106.845130", "precision": "1", "focus_area_descr": "Inclusive & Sustainable Growth"}]}, {"title": "support facility for the institutional setup of the peat", "id": "00096630", "subnational": [{"outputID": "00100586", "output_locID": "00100586-1", "name": "Jakarta", "focus_area": "1", "lat": "-6.214620", "type": "PPLC", "awardID": "00096630", "lon": "106.845130", "precision": "1", "focus_area_descr": "Inclusive & Sustainable Growth"}]}, {"title": "market readiness proposal", "id": "00097002", "subnational": [{"outputID": "00100860", "output_locID": "00100860-1", "name": "East Java", "focus_area": "1", "lat": "-7.739400", "type": "ADM1", "awardID": "00097002", "lon": "112.509900", "precision": "1", "focus_area_descr": "Inclusive & Sustainable Growth"}, {"outputID": "00100860", "output_locID": "00100860-2", "name": "Central Java", "focus_area": "1", "lat": "-7.500000", "type": "ADM1", "awardID": "00097002", "lon": "110.000000", "precision": "1", "focus_area_descr": "Inclusive & Sustainable Growth"}, {"outputID": "00100860", "output_locID": "00100860-3", "name": "West Java", "focus_area": "1", "lat": "-6.750000", "type": "ADM1", "awardID": "00097002", "lon": "107.500000", "precision": "1", "focus_area_descr": "Inclusive & Sustainable Growth"}, {"outputID": "00100860", "output_locID": "00100860-4", "name": "Jakarta", "focus_area": "1", "lat": "-6.214620", "type": "PPLC", "awardID": "00097002", "lon": "106.845130", "precision": "1", "focus_area_descr": "Inclusive & Sustainable Growth"}, {"outputID": "00100860", "output_locID": "00100860-5", "name": "Madura", "focus_area": "1", "lat": "-7.332900", "type": "ADM4", "awardID": "00097002", "lon": "108.634890", "precision": "1", "focus_area_descr": "Inclusive & Sustainable Growth"}]}, {"title": "support papua and west papua through led", "id": "00098236", "subnational": [{"outputID": "00101623", "output_locID": "00101623-1", "name": "Manokwari", "focus_area": "1", "lat": "-0.862910", "type": "PPLA", "awardID": "00098236", "lon": "134.064020", "precision": "1", "focus_area_descr": "Inclusive & Sustainable Growth"}, {"outputID": "00101623", "output_locID": "00101623-2", "name": "Jakarta Pusat", "focus_area": "1", "lat": "-6.177700", "type": "ADM2", "awardID": "00098236", "lon": "106.840300", "precision": "1", "focus_area_descr": "Inclusive & Sustainable Growth"}, {"outputID": "00101623", "output_locID": "00101623-3", "name": "Jayapura", "focus_area": "1", "lat": "-5.058530", "type": "PPL", "awardID": "00098236", "lon": "104.715310", "precision": "1", "focus_area_descr": "Inclusive & Sustainable Growth"}]}, {"title": "support to institutionalizing the multi-door approach to", "id": "00098670", "subnational": [{"outputID": "00101875", "output_locID": "00101875-1", "name": "Jakarta", "focus_area": "2", "lat": "-6.214620", "type": "PPLC", "awardID": "00098670", "lon": "106.845130", "precision": "1", "focus_area_descr": "Democratic Governance"}]}, {"title": "hpmp ii rac service sector", "id": "00098682", "subnational": [{"outputID": "00101883", "output_locID": "00101883-1", "name": "Jakarta", "focus_area": "5", "lat": "-6.214620", "type": "PPLC", "awardID": "00098682", "lon": "106.845130", "precision": "1", "focus_area_descr": "Climate Change & Disaster Resilience"}]}, {"title": "technical assistance to sdgs implementation in indonesia", "id": "00101607", "subnational": [{"outputID": "00103960", "output_locID": "00103960-1", "name": "Jakarta Pusat", "focus_area": "3", "lat": "-6.177700", "type": "ADM2", "awardID": "00101607", "lon": "106.840300", "precision": "1", "focus_area_descr": "Responsive Institutions"}, {"outputID": "00103961", "output_locID": "00103961-1", "name": "Pekanbaru", "focus_area": "3", "lat": "0.516670", "type": "PPLA", "awardID": "00101607", "lon": "101.441670", "precision": "1", "focus_area_descr": "Responsive Institutions"}, {"outputID": "00103962", "output_locID": "00103962-1", "name": "Jakarta Pusat", "focus_area": "3", "lat": "-6.181800", "type": "PPL", "awardID": "00101607", "lon": "106.822300", "precision": "1", "focus_area_descr": "Responsive Institutions"}, {"outputID": "00106870", "output_locID": "00106870-1", "name": "Jakarta Pusat", "focus_area": "3", "lat": "-6.181800", "type": "PPL", "awardID": "00101607", "lon": "106.822300", "precision": "1", "focus_area_descr": "Responsive Institutions"}]}, {"title": "integrated sound management of mercury in indonesia's artisanal and small-scale gold mining (asgm)", "id": "00101952", "subnational": [{"outputID": "00104180", "output_locID": "00104180-1", "name": "Jakarta", "focus_area": "1", "lat": "-6.214620", "type": "PPLC", "awardID": "00101952", "lon": "106.845130", "precision": "1", "focus_area_descr": "Inclusive & Sustainable Growth"}]}, {"title": "enhancing the role of religious education in countering violent extremism", "id": "00101963", "subnational": [{"outputID": "00104199", "output_locID": "00104199-1", "name": "Solo", "focus_area": "2", "lat": "-7.705280", "type": "PPL", "awardID": "00101963", "lon": "110.798890", "precision": "1", "focus_area_descr": "Democratic Governance"}]}, {"title": "protection of environment & climate change impacts", "id": "00102119", "subnational": [{"outputID": "00104291", "output_locID": "00104291-1", "name": "Jakarta", "focus_area": "1", "lat": "-6.214620", "type": "PPLC", "awardID": "00102119", "lon": "106.845130", "precision": "1", "focus_area_descr": "Inclusive & Sustainable Growth"}]}, {"title": "social and islamic finance portfolio development", "id": "00102413", "subnational": [{"outputID": "00104488", "output_locID": "00104488-1", "name": "Jakarta", "focus_area": "1", "lat": "-6.214620", "type": "PPLC", "awardID": "00102413", "lon": "106.845130", "precision": "1", "focus_area_descr": "Inclusive & Sustainable Growth"}]}, {"title": "improving restorative justice through integration (irji)", "id": "00104231", "subnational": [{"outputID": "00105904", "output_locID": "00105904-1", "name": "Jakarta Pusat", "focus_area": "2", "lat": "-6.181800", "type": "PPL", "awardID": "00104231", "lon": "106.822300", "precision": "1", "focus_area_descr": "Democratic Governance"}, {"outputID": "00107383", "output_locID": "00107383-1", "name": "Jakarta", "focus_area": "2", "lat": "-6.214620", "type": "PPLC", "awardID": "00104231", "lon": "106.845130", "precision": "1", "focus_area_descr": "Democratic Governance"}]}, {"title": "sixth operational phase of the gef small grant programme", "id": "00104290", "subnational": [{"outputID": "00105936", "output_locID": "00105936-1", "name": "Bali", "focus_area": "1", "lat": "-8.500000", "type": "ADM1", "awardID": "00104290", "lon": "115.000000", "precision": "1", "focus_area_descr": "Inclusive & Sustainable Growth"}, {"outputID": "00105936", "output_locID": "00105936-2", "name": "Gorontalo", "focus_area": "1", "lat": "0.693000", "type": "ADM1", "awardID": "00104290", "lon": "122.470400", "precision": "1", "focus_area_descr": "Inclusive & Sustainable Growth"}, {"outputID": "00105936", "output_locID": "00105936-3", "name": "Kecamatan Semau", "focus_area": "1", "lat": "-10.215000", "type": "ADM3", "awardID": "00104290", "lon": "123.383600", "precision": "1", "focus_area_descr": "Inclusive & Sustainable Growth"}]}, {"title": "health governance initiative", "id": "00106768", "subnational": [{"outputID": "00107345", "output_locID": "00107345-1", "name": "Jakarta", "focus_area": "3", "lat": "-6.214620", "type": "PPLC", "awardID": "00106768", "lon": "106.845130", "precision": "1", "focus_area_descr": "Responsive Institutions"}, {"outputID": "00108050", "output_locID": "00108050-1", "name": "Jakarta", "focus_area": "3", "lat": "-6.214620", "type": "PPLC", "awardID": "00106768", "lon": "106.845130", "precision": "1", "focus_area_descr": "Responsive Institutions"}]}, {"title": "partnership initiative for south-south and triangular cooperation", "id": "00107243", "subnational": [{"outputID": "00107579", "output_locID": "00107579-1", "name": "Jakarta", "focus_area": "4", "lat": "-6.214620", "type": "PPLC", "awardID": "00107243", "lon": "106.845130", "precision": "1", "focus_area_descr": "Gender Equality"}, {"outputID": "00107732", "output_locID": "00107732-1", "name": "Kabupaten Timor Tengah Utara", "focus_area": "4", "lat": "-9.331360", "type": "ADM2", "awardID": "00107243", "lon": "124.519040", "precision": "1", "focus_area_descr": "Gender Equality"}, {"outputID": "00107733", "output_locID": "00107733-1", "name": "Jakarta", "focus_area": "4", "lat": "-6.214620", "type": "PPLC", "awardID": "00107243", "lon": "106.845130", "precision": "1", "focus_area_descr": "Gender Equality"}]}, {"title": "deepening democracy in indonesia", "id": "00042855", "subnational": [{"outputID": "00049773", "output_locID": "00049773-1", "name": "Jakarta", "focus_area": "2", "lat": "-6.214620", "type": "PPLC", "awardID": "00042855", "lon": "106.845130", "precision": "1", "focus_area_descr": "Democratic Governance"}]}, {"title": "engagement facility", "id": "00061140", "subnational": [{"outputID": "00077333", "output_locID": "00077333-1", "name": "Jakarta", "focus_area": "9", "lat": "-6.214620", "type": "PPLC", "awardID": "00061140", "lon": "106.845130", "precision": "1", "focus_area_descr": "Organizational Results Area 2"}]}, {"title": "strengthening access to justice in indonesia", "id": "00061763", "subnational": [{"outputID": "00081783", "output_locID": "00081783-1", "name": "Provinsi Kalimantan Tengah", "focus_area": "3", "lat": "-2.000000", "type": "ADM1", "awardID": "00061763", "lon": "113.500000", "precision": "1", "focus_area_descr": "Responsive Institutions"}, {"outputID": "00078515", "output_locID": "00078515-1", "name": "Sulawesi Tengah", "focus_area": "-", "lat": "-0.916600", "type": "ADM1", "awardID": "00061763", "lon": "122.353800", "precision": "1", "focus_area_descr": "-"}]}, {"title": "strengthening innovative partnership for development", "id": "00067418", "subnational": [{"outputID": "00083188", "output_locID": "00083188-1", "name": "Jakarta", "focus_area": "7", "lat": "-6.214620", "type": "PPLC", "awardID": "00067418", "lon": "106.845130", "precision": "1", "focus_area_descr": "Development Impact & Effectiveness"}]}, {"title": "national biodiv planning to supportimplementation of the cbd", "id": "00068617", "subnational": [{"outputID": "00083690", "output_locID": "00083690-1", "name": "Jakarta", "focus_area": "1", "lat": "-6.214620", "type": "PPLC", "awardID": "00068617", "lon": "106.845130", "precision": "1", "focus_area_descr": "Inclusive & Sustainable Growth"}]}, {"title": "participatory governance assessment", "id": "00071337", "subnational": [{"outputID": "00084870", "output_locID": "00084870-1", "name": "South Sumatra", "focus_area": "2", "lat": "-2.750000", "type": "ADM1", "awardID": "00071337", "lon": "103.833330", "precision": "1", "focus_area_descr": "Democratic Governance"}]}, {"title": "safer communities through disaster risk reduction phs ii", "id": "00071676", "subnational": [{"outputID": "00085005", "output_locID": "00085005-1", "name": "Jakarta", "focus_area": "5", "lat": "-6.214620", "type": "PPLC", "awardID": "00071676", "lon": "106.845130", "precision": "1", "focus_area_descr": "Climate Change & Disaster Resilience"}, {"outputID": "00085006", "output_locID": "00085006-1", "name": "Provinsi Jawa Tengah", "focus_area": "5", "lat": "-7.500000", "type": "ADM1", "awardID": "00071676", "lon": "110.000000", "precision": "1", "focus_area_descr": "Climate Change & Disaster Resilience"}]}, {"title": "low emission capacity building project - indonesia", "id": "00072823", "subnational": [{"outputID": "00085846", "output_locID": "00085846-1", "name": "Jakarta", "focus_area": "1", "lat": "-6.214620", "type": "PPLC", "awardID": "00072823", "lon": "106.845130", "precision": "1", "focus_area_descr": "Inclusive & Sustainable Growth"}, {"outputID": "00096245", "output_locID": "00096245-1", "name": "Jakarta", "focus_area": "1", "lat": "-6.214620", "type": "PPLC", "awardID": "00072823", "lon": "106.845130", "precision": "1", "focus_area_descr": "Inclusive & Sustainable Growth"}]}, {"title": "redd+ interim phase", "id": "00075619", "subnational": [{"outputID": "00087420", "output_locID": "00087420-1", "name": "Jakarta", "focus_area": "1", "lat": "-6.214620", "type": "PPLC", "awardID": "00075619", "lon": "106.845130", "precision": "1", "focus_area_descr": "Inclusive & Sustainable Growth"}, {"outputID": "00087421", "output_locID": "00087421-1", "name": "Jakarta", "focus_area": "1", "lat": "-6.214620", "type": "PPLC", "awardID": "00075619", "lon": "106.845130", "precision": "1", "focus_area_descr": "Inclusive & Sustainable Growth"}, {"outputID": "00087423", "output_locID": "00087423-1", "name": "Jakarta", "focus_area": "1", "lat": "-6.214620", "type": "PPLC", "awardID": "00075619", "lon": "106.845130", "precision": "1", "focus_area_descr": "Inclusive & Sustainable Growth"}, {"outputID": "00096923", "output_locID": "00096923-1", "name": "Jakarta", "focus_area": "1", "lat": "-6.214620", "type": "PPLC", "awardID": "00075619", "lon": "106.845130", "precision": "1", "focus_area_descr": "Inclusive & Sustainable Growth"}, {"outputID": "00096926", "output_locID": "00096926-1", "name": "Jakarta", "focus_area": "1", "lat": "-6.214620", "type": "PPLC", "awardID": "00075619", "lon": "106.845130", "precision": "1", "focus_area_descr": "Inclusive & Sustainable Growth"}, {"outputID": "00096930", "output_locID": "00096930-1", "name": "Jakarta", "focus_area": "1", "lat": "-6.214620", "type": "PPLC", "awardID": "00075619", "lon": "106.845130", "precision": "1", "focus_area_descr": "Inclusive & Sustainable Growth"}, {"outputID": "00096932", "output_locID": "00096932-1", "name": "Jakarta", "focus_area": "1", "lat": "-6.214620", "type": "PPLC", "awardID": "00075619", "lon": "106.845130", "precision": "1", "focus_area_descr": "Inclusive & Sustainable Growth"}, {"outputID": "00087422", "output_locID": "00087422-1", "name": "Jakarta", "focus_area": "3", "lat": "-6.214620", "type": "PPLC", "awardID": "00075619", "lon": "106.845130", "precision": "1", "focus_area_descr": "Responsive Institutions"}]}, {"title": "capacity development for implementing rio conventions", "id": "00081935", "subnational": [{"outputID": "00091044", "output_locID": "00091044-1", "name": "Malang", "focus_area": "1", "lat": "-7.979700", "type": "PPL", "awardID": "00081935", "lon": "112.630400", "precision": "1", "focus_area_descr": "Inclusive & Sustainable Growth"}, {"outputID": "00091044", "output_locID": "00091044-2", "name": "Lampung", "focus_area": "1", "lat": "-5.000000", "type": "ADM1", "awardID": "00081935", "lon": "105.000000", "precision": "1", "focus_area_descr": "Inclusive & Sustainable Growth"}]}, {"title": "illegal wildlife trade", "id": "00085817", "subnational": [{"outputID": "00093331", "output_locID": "00093331-1", "name": "Medan", "focus_area": "1", "lat": "3.583330", "type": "PPLA", "awardID": "00085817", "lon": "98.666670", "precision": "1", "focus_area_descr": "Inclusive & Sustainable Growth"}, {"outputID": "00093331", "output_locID": "00093331-2", "name": "Surabaya", "focus_area": "1", "lat": "-7.249170", "type": "PPLA", "awardID": "00085817", "lon": "112.750830", "precision": "1", "focus_area_descr": "Inclusive & Sustainable Growth"}, {"outputID": "00093331", "output_locID": "00093331-3", "name": "Jakarta", "focus_area": "1", "lat": "-6.214620", "type": "PPLC", "awardID": "00085817", "lon": "106.845130", "precision": "1", "focus_area_descr": "Inclusive & Sustainable Growth"}]}, {"title": "small grants programme (sgp) op-6 upgrading", "id": "00087985", "subnational": [{"outputID": "00094836", "output_locID": "00094836-1", "name": "North Sulawesi", "focus_area": "1", "lat": "1.250000", "type": "ADM1", "awardID": "00087985", "lon": "124.833330", "precision": "1", "focus_area_descr": "Inclusive & Sustainable Growth"}, {"outputID": "00094836", "output_locID": "00094836-2", "name": "East Nusa Tenggara", "focus_area": "1", "lat": "-8.657380", "type": "ADM1", "awardID": "00087985", "lon": "121.079370", "precision": "1", "focus_area_descr": "Inclusive & Sustainable Growth"}, {"outputID": "00094836", "output_locID": "00094836-3", "name": "Bali", "focus_area": "1", "lat": "-8.500000", "type": "ADM1", "awardID": "00087985", "lon": "115.000000", "precision": "1", "focus_area_descr": "Inclusive & Sustainable Growth"}]}, {"title": "strengthening forest area planning and management in kal", "id": "00088976", "subnational": [{"outputID": "00095414", "output_locID": "00095414-1", "name": "Sintang", "focus_area": "1", "lat": "0.066670", "type": "PPLA2", "awardID": "00088976", "lon": "111.500000", "precision": "1", "focus_area_descr": "Inclusive & Sustainable Growth"}, {"outputID": "00095414", "output_locID": "00095414-2", "name": "Kotawaringin", "focus_area": "1", "lat": "-2.472900", "type": "PPLA3", "awardID": "00088976", "lon": "111.473100", "precision": "1", "focus_area_descr": "Inclusive & Sustainable Growth"}, {"outputID": "00095414", "output_locID": "00095414-3", "name": "Ketapang", "focus_area": "1", "lat": "-1.838620", "type": "PPLA2", "awardID": "00088976", "lon": "109.977280", "precision": "1", "focus_area_descr": "Inclusive & Sustainable Growth"}, {"outputID": "00095414", "output_locID": "00095414-4", "name": "East Kalimantan", "focus_area": "1", "lat": "0.500000", "type": "ADM1", "awardID": "00088976", "lon": "116.500000", "precision": "1", "focus_area_descr": "Inclusive & Sustainable Growth"}]}, {"title": "tanah papua platform (tpp)", "id": "00092641", "subnational": [{"outputID": "00097263", "output_locID": "00097263-1", "name": "Jakarta Pusat", "focus_area": "1", "lat": "-6.177700", "type": "ADM2", "awardID": "00092641", "lon": "106.840300", "precision": "1", "focus_area_descr": "Inclusive & Sustainable Growth"}, {"outputID": "00097263", "output_locID": "00097263-2", "name": "Jayapura", "focus_area": "1", "lat": "-2.533710", "type": "PPLA", "awardID": "00092641", "lon": "140.718130", "precision": "1", "focus_area_descr": "Inclusive & Sustainable Growth"}]}, {"title": "sdg support programme", "id": "00093596", "subnational": [{"outputID": "00097822", "output_locID": "00097822-1", "name": "Jakarta Pusat", "focus_area": "3", "lat": "-6.177700", "type": "ADM2", "awardID": "00093596", "lon": "106.840300", "precision": "1", "focus_area_descr": "Responsive Institutions"}, {"outputID": "00097823", "output_locID": "00097823-1", "name": "Pekanbaru", "focus_area": "3", "lat": "0.516670", "type": "PPLA", "awardID": "00093596", "lon": "101.441670", "precision": "1", "focus_area_descr": "Responsive Institutions"}, {"outputID": "00097824", "output_locID": "00097824-1", "name": "Jakarta Pusat", "focus_area": "3", "lat": "-6.177700", "type": "ADM2", "awardID": "00093596", "lon": "106.840300", "precision": "1", "focus_area_descr": "Responsive Institutions"}]}, {"title": "giz better public service delivery", "id": "00095273", "subnational": [{"outputID": "00099312", "output_locID": "00099312-1", "name": "Jakarta", "focus_area": "3", "lat": "-6.218200", "type": "ADM1", "awardID": "00095273", "lon": "106.858400", "precision": "1", "focus_area_descr": "Responsive Institutions"}]}, {"title": "green climate fund indonesia support project", "id": "00103025", "subnational": [{"outputID": "00104961", "output_locID": "00104961-1", "name": "Jakarta", "focus_area": "1", "lat": "-6.214620", "type": "PPLC", "awardID": "00103025", "lon": "106.845130", "precision": "1", "focus_area_descr": "Inclusive & Sustainable Growth"}]}, {"title": "strengthening community based forest and watershed", "id": "00056845", "subnational": [{"outputID": "00069901", "output_locID": "00069901-1", "name": "Dodokan", "focus_area": "1", "lat": "-7.853600", "type": "PPL", "awardID": "00056845", "lon": "112.813400", "precision": "1", "focus_area_descr": "Inclusive & Sustainable Growth"}]}, {"title": "provincial governance strengthening programme", "id": "00057787", "subnational": [{"outputID": "00071518", "output_locID": "00071518-1", "name": "Jakarta", "focus_area": "3", "lat": "-6.214620", "type": "PPLC", "awardID": "00057787", "lon": "106.845130", "precision": "1", "focus_area_descr": "Responsive Institutions"}, {"outputID": "00071519", "output_locID": "00071519-1", "name": "Kepulauan Bangka Belitung", "focus_area": "3", "lat": "-2.666670", "type": "ADM1", "awardID": "00057787", "lon": "106.666670", "precision": "1", "focus_area_descr": "Responsive Institutions"}, {"outputID": "00071520", "output_locID": "00071520-1", "name": "Provinsi Gorontalo", "focus_area": "3", "lat": "0.693000", "type": "ADM1", "awardID": "00057787", "lon": "122.470400", "precision": "1", "focus_area_descr": "Responsive Institutions"}]}, {"title": "tsunami recovery waste project", "id": "00060044", "subnational": [{"outputID": "00086695", "output_locID": "00086695-1", "name": "Kota Banda Aceh", "focus_area": "1", "lat": "5.566670", "type": "ADM2", "awardID": "00060044", "lon": "95.333330", "precision": "1", "focus_area_descr": "Inclusive & Sustainable Growth"}, {"outputID": "00075384", "output_locID": "00075384-1", "name": "Banda Aceh", "focus_area": "6", "lat": "5.557700", "type": "PPLA", "awardID": "00060044", "lon": "95.322200", "precision": "1", "focus_area_descr": "Crisis Prevention & Recovery"}]}, {"title": "people-centered development project - phase ii", "id": "00060467", "subnational": [{"outputID": "00082377", "output_locID": "00082377-1", "name": "Provinsi Papua Barat", "focus_area": "7", "lat": "-0.865310", "type": "ADM1", "awardID": "00060467", "lon": "134.061180", "precision": "1", "focus_area_descr": "Development Impact & Effectiveness"}, {"outputID": "00082375", "output_locID": "00082375-1", "name": "Provinsi Papua Barat", "focus_area": "7", "lat": "-0.865310", "type": "ADM1", "awardID": "00060467", "lon": "134.061180", "precision": "1", "focus_area_descr": "Development Impact & Effectiveness"}, {"outputID": "00082376", "output_locID": "00082376-1", "name": "Provinsi Papua", "focus_area": "7", "lat": "-4.750000", "type": "ADM1", "awardID": "00060467", "lon": "138.000000", "precision": "1", "focus_area_descr": "Development Impact & Effectiveness"}, {"outputID": "00082408", "output_locID": "00082408-1", "name": "Provinsi Papua Barat", "focus_area": "7", "lat": "-0.865310", "type": "ADM1", "awardID": "00060467", "lon": "134.061180", "precision": "1", "focus_area_descr": "Development Impact & Effectiveness"}, {"outputID": "00076143", "output_locID": "00076143-1", "name": "Provinsi Papua", "focus_area": "7", "lat": "-4.750000", "type": "ADM1", "awardID": "00060467", "lon": "138.000000", "precision": "1", "focus_area_descr": "Development Impact & Effectiveness"}, {"outputID": "00082378", "output_locID": "00082378-1", "name": "Provinsi Papua", "focus_area": "7", "lat": "-4.750000", "type": "ADM1", "awardID": "00060467", "lon": "138.000000", "precision": "1", "focus_area_descr": "Development Impact & Effectiveness"}]}, {"title": "support to the establishment of indonesia redd+", "id": "00060694", "subnational": [{"outputID": "00082646", "output_locID": "00082646-1", "name": "Jakarta", "focus_area": "1", "lat": "-6.214620", "type": "PPLC", "awardID": "00060694", "lon": "106.845130", "precision": "1", "focus_area_descr": "Inclusive & Sustainable Growth"}, {"outputID": "00076532", "output_locID": "00076532-1", "name": "Jakarta", "focus_area": "1", "lat": "-6.214620", "type": "PPLC", "awardID": "00060694", "lon": "106.845130", "precision": "1", "focus_area_descr": "Inclusive & Sustainable Growth"}, {"outputID": "00076555", "output_locID": "00076555-1", "name": "Provinsi Kalimantan Tengah", "focus_area": "1", "lat": "-2.000000", "type": "ADM1", "awardID": "00060694", "lon": "113.500000", "precision": "1", "focus_area_descr": "Inclusive & Sustainable Growth"}, {"outputID": "00082624", "output_locID": "00082624-1", "name": "Provinsi Kalimantan Tengah", "focus_area": "1", "lat": "-2.000000", "type": "ADM1", "awardID": "00060694", "lon": "113.500000", "precision": "1", "focus_area_descr": "Inclusive & Sustainable Growth"}, {"outputID": "00082629", "output_locID": "00082629-1", "name": "Provinsi Kalimantan Tengah", "focus_area": "1", "lat": "-2.000000", "type": "ADM1", "awardID": "00060694", "lon": "113.500000", "precision": "1", "focus_area_descr": "Inclusive & Sustainable Growth"}, {"outputID": "00082645", "output_locID": "00082645-1", "name": "Provinsi Kalimantan Tengah", "focus_area": "1", "lat": "-2.000000", "type": "ADM1", "awardID": "00060694", "lon": "113.500000", "precision": "1", "focus_area_descr": "Inclusive & Sustainable Growth"}, {"outputID": "00082647", "output_locID": "00082647-1", "name": "Jakarta", "focus_area": "1", "lat": "-6.214620", "type": "PPLC", "awardID": "00060694", "lon": "106.845130", "precision": "1", "focus_area_descr": "Inclusive & Sustainable Growth"}, {"outputID": "00082630", "output_locID": "00082630-1", "name": "Provinsi Kalimantan Tengah", "focus_area": "1", "lat": "-2.000000", "type": "ADM1", "awardID": "00060694", "lon": "113.500000", "precision": "1", "focus_area_descr": "Inclusive & Sustainable Growth"}, {"outputID": "00082648", "output_locID": "00082648-1", "name": "Provinsi Kalimantan Tengah", "focus_area": "1", "lat": "-2.000000", "type": "ADM1", "awardID": "00060694", "lon": "113.500000", "precision": "1", "focus_area_descr": "Inclusive & Sustainable Growth"}, {"outputID": "00082649", "output_locID": "00082649-1", "name": "Provinsi Kalimantan Tengah", "focus_area": "1", "lat": "-2.000000", "type": "ADM1", "awardID": "00060694", "lon": "113.500000", "precision": "1", "focus_area_descr": "Inclusive & Sustainable Growth"}]}, {"title": "peace through development in disadvantaged areas (ptdda)", "id": "00060770", "subnational": [{"outputID": "00076657", "output_locID": "00076657-1", "name": "Provinsi Maluku Utara", "focus_area": "5", "lat": "-0.250000", "type": "ADM1", "awardID": "00060770", "lon": "127.500000", "precision": "1", "focus_area_descr": "Climate Change & Disaster Resilience"}, {"outputID": "00076657", "output_locID": "00076657-2", "name": "Provinsi Maluku Utara", "focus_area": "5", "lat": "-0.250000", "type": "ADM1", "awardID": "00060770", "lon": "127.500000", "precision": "1", "focus_area_descr": "Climate Change & Disaster Resilience"}, {"outputID": "00076658", "output_locID": "00076658-1", "name": "Provinsi Maluku Utara", "focus_area": "2", "lat": "-0.250000", "type": "ADM1", "awardID": "00060770", "lon": "127.500000", "precision": "1", "focus_area_descr": "Democratic Governance"}, {"outputID": "00076658", "output_locID": "00076658-2", "name": "Provinsi Maluku Utara", "focus_area": "2", "lat": "-0.250000", "type": "ADM1", "awardID": "00060770", "lon": "127.500000", "precision": "1", "focus_area_descr": "Democratic Governance"}, {"outputID": "00076660", "output_locID": "00076660-1", "name": "Kota Banda Aceh", "focus_area": "2", "lat": "5.566670", "type": "ADM2", "awardID": "00060770", "lon": "95.333330", "precision": "1", "focus_area_descr": "Democratic Governance"}]}, {"title": "wind hybrid power generation (whypgen) market dev", "id": "00060776", "subnational": []}, {"title": "support to the acceleration of mdg achievement in indone", "id": "00061521", "subnational": [{"outputID": "00086006", "output_locID": "00086006-1", "name": "Jakarta", "focus_area": "3", "lat": "-6.214620", "type": "PPLC", "awardID": "00061521", "lon": "106.845130", "precision": "1", "focus_area_descr": "Responsive Institutions"}, {"outputID": "00086004", "output_locID": "00086004-1", "name": "Jakarta", "focus_area": "7", "lat": "-6.214620", "type": "PPLC", "awardID": "00061521", "lon": "106.845130", "precision": "1", "focus_area_descr": "Development Impact & Effectiveness"}, {"outputID": "00077954", "output_locID": "00077954-1", "name": "Jakarta", "focus_area": "7", "lat": "-6.214620", "type": "PPLC", "awardID": "00061521", "lon": "106.845130", "precision": "1", "focus_area_descr": "Development Impact & Effectiveness"}]}, {"title": "strengthening women's participation and representation", "id": "00066891", "subnational": [{"outputID": "00082916", "output_locID": "00082916-1", "name": "Jakarta", "focus_area": "2", "lat": "-6.214620", "type": "PPLC", "awardID": "00066891", "lon": "106.845130", "precision": "1", "focus_area_descr": "Democratic Governance"}]}, {"title": "united nations office for redd coordination in indonesia", "id": "00074047", "subnational": []}, {"title": "gef-ppg market transformation", "id": "00076525", "subnational": []}, {"title": "data innovation for enhanced public services delivery", "id": "00082151", "subnational": []}, {"title": "promoting justice & rights", "id": "00092722", "subnational": []}, {"title": "support to un coordination", "id": "00032043", "subnational": [{"outputID": "00084842", "output_locID": "00084842-1", "name": "Jakarta", "focus_area": "7", "lat": "-6.214620", "type": "PPLC", "awardID": "00032043", "lon": "106.845130", "precision": "1", "focus_area_descr": "Development Impact & Effectiveness"}]}, {"title": "building and reinventing decentralized governance", "id": "00036821", "subnational": []}, {"title": "papua development programme", "id": "00043640", "subnational": [{"outputID": "00051020", "output_locID": "00051020-1", "name": "Jakarta", "focus_area": "-", "lat": "-6.214620", "type": "PPLC", "awardID": "00043640", "lon": "106.845130", "precision": "1", "focus_area_descr": "-"}]}, {"title": "safer communities through disaster risk reduction", "id": "00047810", "subnational": [{"outputID": "00057703", "output_locID": "00057703-1", "name": "Provinsi Papua", "focus_area": "-", "lat": "-4.750000", "type": "ADM1", "awardID": "00047810", "lon": "138.000000", "precision": "1", "focus_area_descr": "-"}, {"outputID": "00057679", "output_locID": "00057679-1", "name": "Provinsi Nusa Tenggara Timur", "focus_area": "-", "lat": "-8.657380", "type": "ADM1", "awardID": "00047810", "lon": "121.079370", "precision": "1", "focus_area_descr": "-"}, {"outputID": "00057702", "output_locID": "00057702-1", "name": "Kota Banda Aceh", "focus_area": "-", "lat": "5.566670", "type": "ADM2", "awardID": "00047810", "lon": "95.333330", "precision": "1", "focus_area_descr": "-"}, {"outputID": "00057704", "output_locID": "00057704-1", "name": "Provinsi Jawa Tengah", "focus_area": "-", "lat": "-7.500000", "type": "ADM1", "awardID": "00047810", "lon": "110.000000", "precision": "1", "focus_area_descr": "-"}, {"outputID": "00070263", "output_locID": "00070263-1", "name": "Provinsi Sulawesi Selatan", "focus_area": "-", "lat": "-4.333330", "type": "ADM1", "awardID": "00047810", "lon": "120.250000", "precision": "1", "focus_area_descr": "-"}]}, {"title": "energy standard and labeling", "id": "00058270", "subnational": [{"outputID": "00072328", "output_locID": "00072328-1", "name": "Jakarta", "focus_area": "1", "lat": "-6.214620", "type": "PPLC", "awardID": "00058270", "lon": "106.845130", "precision": "1", "focus_area_descr": "Inclusive & Sustainable Growth"}, {"outputID": "00078269", "output_locID": "00078269-1", "name": "Jakarta", "focus_area": "1", "lat": "-6.214620", "type": "PPLC", "awardID": "00058270", "lon": "106.845130", "precision": "1", "focus_area_descr": "Inclusive & Sustainable Growth"}]}, {"title": "arafura and timor seas ecosystem action programme", "id": "00058440", "subnational": [{"outputID": "00072601", "output_locID": "00072601-1", "name": "Jakarta", "focus_area": "2", "lat": "-6.214620", "type": "PPLC", "awardID": "00058440", "lon": "106.845130", "precision": "1", "focus_area_descr": "Democratic Governance"}]}, {"title": "support to climate change trust fund", "id": "00060014", "subnational": [{"outputID": "00075322", "output_locID": "00075322-1", "name": "Jakarta", "focus_area": "1", "lat": "-6.214620", "type": "PPLC", "awardID": "00060014", "lon": "106.845130", "precision": "1", "focus_area_descr": "Inclusive & Sustainable Growth"}, {"outputID": "00075323", "output_locID": "00075323-1", "name": "Jakarta", "focus_area": "1", "lat": "-6.214620", "type": "PPLC", "awardID": "00060014", "lon": "106.845130", "precision": "1", "focus_area_descr": "Inclusive & Sustainable Growth"}]}, {"title": "promoting energy efficiency for non-hcfc refrigeration a", "id": "00072677", "subnational": [{"outputID": "00085740", "output_locID": "00085740-1", "name": "Jakarta", "focus_area": "1", "lat": "-6.214620", "type": "PPLC", "awardID": "00072677", "lon": "106.845130", "precision": "1", "focus_area_descr": "Inclusive & Sustainable Growth"}]}, {"title": "initiatives to combat and adapt to cc challenges", "id": "00073823", "subnational": [{"outputID": "00086461", "output_locID": "00086461-1", "name": "Jakarta", "focus_area": "1", "lat": "-6.214620", "type": "PPLC", "awardID": "00073823", "lon": "106.845130", "precision": "1", "focus_area_descr": "Inclusive & Sustainable Growth"}]}, {"title": "transforming effectiveness of biodiversity conservation", "id": "00080425", "subnational": [{"outputID": "00090110", "output_locID": "00090110-1", "name": "Jakarta", "focus_area": "1", "lat": "-6.214620", "type": "PPLC", "awardID": "00080425", "lon": "106.845130", "precision": "1", "focus_area_descr": "Inclusive & Sustainable Growth"}]}, {"title": "voter information campaign (vici)", "id": "00013093", "subnational": []}, {"title": "legal empowerment and assistance for the disadvantaged", "id": "00043641", "subnational": [{"outputID": "00080210", "output_locID": "00080210-1", "name": "Sulawesi Tengah", "focus_area": "3", "lat": "-0.916600", "type": "ADM1", "awardID": "00043641", "lon": "122.353800", "precision": "1", "focus_area_descr": "Responsive Institutions"}]}, {"title": "integrated microhydro development", "id": "00043800", "subnational": [{"outputID": "00051240", "output_locID": "00051240-1", "name": "Jakarta", "focus_area": "-", "lat": "-6.214620", "type": "PPLC", "awardID": "00043800", "lon": "106.845130", "precision": "1", "focus_area_descr": "-"}]}, {"title": "partnership for governance reform in indonesia", "id": "00045812", "subnational": []}, {"title": "microturbine cogeneration technology application project", "id": "00049011", "subnational": [{"outputID": "00059512", "output_locID": "00059512-1", "name": "Jakarta", "focus_area": "1", "lat": "-6.214620", "type": "PPLC", "awardID": "00049011", "lon": "106.845130", "precision": "1", "focus_area_descr": "Inclusive & Sustainable Growth"}]}, {"title": "support to indonesia's democratic elections", "id": "00050243", "subnational": [{"outputID": "00061962", "output_locID": "00061962-1", "name": "Jakarta", "focus_area": "2", "lat": "-6.214620", "type": "PPLC", "awardID": "00050243", "lon": "106.845130", "precision": "1", "focus_area_descr": "Democratic Governance"}, {"outputID": "00062253", "output_locID": "00062253-1", "name": "Jakarta", "focus_area": "2", "lat": "-6.214620", "type": "PPLC", "awardID": "00050243", "lon": "106.845130", "precision": "1", "focus_area_descr": "Democratic Governance"}]}, {"title": "transitional multi donor fund for aid for effectiveness", "id": "00057994", "subnational": [{"outputID": "00072796", "output_locID": "00072796-1", "name": "Jakarta", "focus_area": "1", "lat": "-6.214620", "type": "PPLC", "awardID": "00057994", "lon": "106.845130", "precision": "1", "focus_area_descr": "Inclusive & Sustainable Growth"}, {"outputID": "00072797", "output_locID": "00072797-1", "name": "Jakarta", "focus_area": "1", "lat": "-6.214620", "type": "PPLC", "awardID": "00057994", "lon": "106.845130", "precision": "1", "focus_area_descr": "Inclusive & Sustainable Growth"}]}, {"title": "unredd in indonesia", "id": "00058897", "subnational": [{"outputID": "00073846", "output_locID": "00073846-1", "name": "Provinsi Kalimantan Tengah", "focus_area": "1", "lat": "-2.000000", "type": "ADM1", "awardID": "00058897", "lon": "113.500000", "precision": "1", "focus_area_descr": "Inclusive & Sustainable Growth"}]}, {"title": "strengthening indonesia mitigation and adaptation", "id": "00061932", "subnational": [{"outputID": "00079052", "output_locID": "00079052-1", "name": "Jakarta", "focus_area": "1", "lat": "-6.214620", "type": "PPLC", "awardID": "00061932", "lon": "106.845130", "precision": "1", "focus_area_descr": "Inclusive & Sustainable Growth"}, {"outputID": "00082420", "output_locID": "00082420-1", "name": "Jakarta", "focus_area": "1", "lat": "-6.214620", "type": "PPLC", "awardID": "00061932", "lon": "106.845130", "precision": "1", "focus_area_descr": "Inclusive & Sustainable Growth"}, {"outputID": "00084372", "output_locID": "00084372-1", "name": "Jakarta", "focus_area": "1", "lat": "-6.214620", "type": "PPLC", "awardID": "00061932", "lon": "106.845130", "precision": "1", "focus_area_descr": "Inclusive & Sustainable Growth"}]}, {"title": "strengthen implementation of grants", "id": "00062271", "subnational": [{"outputID": "00079691", "output_locID": "00079691-1", "name": "Jakarta", "focus_area": "7", "lat": "-6.214620", "type": "PPLC", "awardID": "00062271", "lon": "106.845130", "precision": "1", "focus_area_descr": "Development Impact & Effectiveness"}]}, {"title": "enhancing protected area", "id": "00067158", "subnational": [{"outputID": "00083066", "output_locID": "00083066-1", "name": "Sulawesi Tengah", "focus_area": "1", "lat": "-0.916600", "type": "ADM1", "awardID": "00067158", "lon": "122.353800", "precision": "1", "focus_area_descr": "Inclusive & Sustainable Growth"}]}, {"title": "third national communication to unfccc", "id": "00068219", "subnational": [{"outputID": "00083541", "output_locID": "00083541-1", "name": "Jakarta", "focus_area": "1", "lat": "-6.214620", "type": "PPLC", "awardID": "00068219", "lon": "106.845130", "precision": "1", "focus_area_descr": "Inclusive & Sustainable Growth"}]}, {"title": "reducing pbde and upops", "id": "00072772", "subnational": [{"outputID": "00085816", "output_locID": "00085816-1", "name": "Jakarta", "focus_area": "1", "lat": "-6.214620", "type": "PPLC", "awardID": "00072772", "lon": "106.845130", "precision": "1", "focus_area_descr": "Inclusive & Sustainable Growth"}]}, {"title": "gfatm - joint technical and management support", "id": "00080998", "subnational": []}, {"title": "ta for sustained economic recovery", "id": "00013061", "subnational": [{"outputID": "00013061", "output_locID": "00013061-1", "name": "Jakarta", "focus_area": "-", "lat": "-6.214620", "type": "PPLC", "awardID": "00013061", "lon": "106.845130", "precision": "1", "focus_area_descr": "-"}]}, {"title": "swedish tf:  governance partnership", "id": "00013075", "subnational": []}, {"title": "papua - capacity 2015", "id": "00035419", "subnational": [{"outputID": "00038018", "output_locID": "00038018-1", "name": "Provinsi Papua", "focus_area": "-", "lat": "-4.750000", "type": "ADM1", "awardID": "00035419", "lon": "138.000000", "precision": "1", "focus_area_descr": "-"}]}, {"title": "enabling the partnership", "id": "00035926", "subnational": [{"outputID": "00038792", "output_locID": "00038792-1", "name": "Jakarta", "focus_area": "-", "lat": "-6.214620", "type": "PPLC", "awardID": "00035926", "lon": "106.845130", "precision": "1", "focus_area_descr": "-"}]}, {"title": "technical support for reconstruction agency-aceh&nias", "id": "00042065", "subnational": [{"outputID": "00061586", "output_locID": "00061586-1", "name": "Kota Banda Aceh", "focus_area": "5", "lat": "5.566670", "type": "ADM2", "awardID": "00042065", "lon": "95.333330", "precision": "1", "focus_area_descr": "Climate Change & Disaster Resilience"}, {"outputID": "00074562", "output_locID": "00074562-1", "name": "Sumatera Utara", "focus_area": "5", "lat": "2.000000", "type": "ADM1", "awardID": "00042065", "lon": "99.000000", "precision": "1", "focus_area_descr": "Climate Change & Disaster Resilience"}]}, {"title": "mahakam delta", "id": "00044804", "subnational": [{"outputID": "00052814", "output_locID": "00052814-1", "name": "Republic of Indonesia", "focus_area": "-", "lat": "-5.000000", "type": "PCLI", "awardID": "00044804", "lon": "120.000000", "precision": "1", "focus_area_descr": "-"}]}, {"title": "aceh government transformation programme", "id": "00048350", "subnational": [{"outputID": "00080309", "output_locID": "00080309-1", "name": "Kota Banda Aceh", "focus_area": "-", "lat": "5.566670", "type": "ADM2", "awardID": "00048350", "lon": "95.333330", "precision": "1", "focus_area_descr": "-"}, {"outputID": "00058434", "output_locID": "00058434-1", "name": "Republic of Indonesia", "focus_area": "-", "lat": "-5.000000", "type": "PCLI", "awardID": "00048350", "lon": "120.000000", "precision": "1", "focus_area_descr": "-"}, {"outputID": "00063217", "output_locID": "00063217-1", "name": "Kota Banda Aceh", "focus_area": "-", "lat": "5.566670", "type": "ADM2", "awardID": "00048350", "lon": "95.333330", "precision": "1", "focus_area_descr": "-"}, {"outputID": "00063218", "output_locID": "00063218-1", "name": "Kota Banda Aceh", "focus_area": "-", "lat": "5.566670", "type": "ADM2", "awardID": "00048350", "lon": "95.333330", "precision": "1", "focus_area_descr": "-"}]}, {"title": "disaster risk reduction - aceh", "id": "00049235", "subnational": [{"outputID": "00059890", "output_locID": "00059890-1", "name": "Kota Banda Aceh", "focus_area": "-", "lat": "5.566670", "type": "ADM2", "awardID": "00049235", "lon": "95.333330", "precision": "1", "focus_area_descr": "-"}]}, {"title": "indonesia partnership fund for hiv 2008-2015", "id": "00050241", "subnational": [{"outputID": "00061960", "output_locID": "00061960-1", "name": "Republic of Indonesia", "focus_area": "1", "lat": "-5.000000", "type": "PCLI", "awardID": "00050241", "lon": "120.000000", "precision": "1", "focus_area_descr": "Inclusive & Sustainable Growth"}, {"outputID": "00077929", "output_locID": "00077929-1", "name": "Republic of Indonesia", "focus_area": "3", "lat": "-5.000000", "type": "PCLI", "awardID": "00050241", "lon": "120.000000", "precision": "1", "focus_area_descr": "Responsive Institutions"}]}, {"title": "enhancing capacity for better aid management", "id": "00051205", "subnational": [{"outputID": "00063682", "output_locID": "00063682-1", "name": "Jakarta", "focus_area": "-", "lat": "-6.214620", "type": "PPLC", "awardID": "00051205", "lon": "106.845130", "precision": "1", "focus_area_descr": "-"}, {"outputID": "00063683", "output_locID": "00063683-1", "name": "Jakarta", "focus_area": "-", "lat": "-6.214620", "type": "PPLC", "awardID": "00051205", "lon": "106.845130", "precision": "1", "focus_area_descr": "-"}, {"outputID": "00063643", "output_locID": "00063643-1", "name": "Jakarta", "focus_area": "-", "lat": "-6.214620", "type": "PPLC", "awardID": "00051205", "lon": "106.845130", "precision": "1", "focus_area_descr": "-"}]}, {"title": "articulating governance and local development in indones", "id": "00057623", "subnational": [{"outputID": "00071271", "output_locID": "00071271-1", "name": "Provinsi Nusa Tenggara Timur", "focus_area": "-", "lat": "-8.657380", "type": "ADM1", "awardID": "00057623", "lon": "121.079370", "precision": "1", "focus_area_descr": "-"}, {"outputID": "00071272", "output_locID": "00071272-1", "name": "Sulawesi Tengah", "focus_area": "-", "lat": "-0.916600", "type": "ADM1", "awardID": "00057623", "lon": "122.353800", "precision": "1", "focus_area_descr": "-"}, {"outputID": "00071270", "output_locID": "00071270-1", "name": "Provinsi Gorontalo", "focus_area": "-", "lat": "0.693000", "type": "ADM1", "awardID": "00057623", "lon": "122.470400", "precision": "1", "focus_area_descr": "-"}]}, {"title": "indonesia climate change trust fund", "id": "00059247", "subnational": [{"outputID": "00074042", "output_locID": "00074042-1", "name": "Jakarta", "focus_area": "-", "lat": "-6.214620", "type": "PPLC", "awardID": "00059247", "lon": "106.845130", "precision": "1", "focus_area_descr": "-"}]}, {"title": "strategic climate adaptation", "id": "00061065", "subnational": [{"outputID": "00077177", "output_locID": "00077177-1", "name": "Provinsi Nusa Tenggara Timur", "focus_area": "-", "lat": "-8.657380", "type": "ADM1", "awardID": "00061065", "lon": "121.079370", "precision": "1", "focus_area_descr": "-"}]}, {"title": "the participatory governance assessment for redd+", "id": "00061901", "subnational": [{"outputID": "00078974", "output_locID": "00078974-1", "name": "Provinsi Jambi", "focus_area": "-", "lat": "-1.500000", "type": "ADM1", "awardID": "00061901", "lon": "103.000000", "precision": "1", "focus_area_descr": "-"}]}, {"title": "sector phase-out plan in the refrigeration", "id": "00013085", "subnational": [{"outputID": "00013085", "output_locID": "00013085-1", "name": "Republic of Indonesia", "focus_area": "-", "lat": "-5.000000", "type": "PCLI", "awardID": "00013085", "lon": "120.000000", "precision": "1", "focus_area_descr": "-"}]}, {"title": "national capacity self assessment", "id": "00033093", "subnational": []}, {"title": "governance reform", "id": "00033872", "subnational": []}, {"title": "aceh emergency programme", "id": "00038597", "subnational": [{"outputID": "00042897", "output_locID": "00042897-1", "name": "Kota Banda Aceh", "focus_area": "-", "lat": "5.566670", "type": "ADM2", "awardID": "00038597", "lon": "95.333330", "precision": "1", "focus_area_descr": "-"}]}, {"title": "peace through development", "id": "00039113", "subnational": [{"outputID": "00043696", "output_locID": "00043696-1", "name": "Provinsi Maluku Utara", "focus_area": "-", "lat": "-0.250000", "type": "ADM1", "awardID": "00039113", "lon": "127.500000", "precision": "1", "focus_area_descr": "-"}, {"outputID": "00043696", "output_locID": "00043696-2", "name": "Provinsi Maluku Utara", "focus_area": "-", "lat": "-0.250000", "type": "ADM1", "awardID": "00039113", "lon": "127.500000", "precision": "1", "focus_area_descr": "-"}]}, {"title": "multy donor trust fund : waste management project", "id": "00042647", "subnational": []}, {"title": "to assess,reinforce&gear efforts toward mdg in indonesia", "id": "00043973", "subnational": []}, {"title": "avian and human influenza coordination activity", "id": "00045230", "subnational": []}, {"title": "strengthened capacity to principal recipeinin indonesia", "id": "00048139", "subnational": []}, {"title": "the nias islands transition project", "id": "00051053", "subnational": [{"outputID": "00063380", "output_locID": "00063380-1", "name": "Pulau Nias", "focus_area": "-", "lat": "1.121500", "type": "ISL", "awardID": "00051053", "lon": "97.618100", "precision": "1", "focus_area_descr": "-"}, {"outputID": "00063420", "output_locID": "00063420-1", "name": "Nias Selatan", "focus_area": "-", "lat": "0.770000", "type": "ADM2", "awardID": "00051053", "lon": "97.750000", "precision": "1", "focus_area_descr": "-"}, {"outputID": "00071328", "output_locID": "00071328-1", "name": "Nias Selatan", "focus_area": "-", "lat": "0.770000", "type": "ADM2", "awardID": "00051053", "lon": "97.750000", "precision": "1", "focus_area_descr": "-"}]}, {"title": "community development programme west nusa tenggara", "id": "00060042", "subnational": []}, {"title": "ilo rural roads phase iii", "id": "00062619", "subnational": [{"outputID": "00080126", "output_locID": "00080126-1", "name": "Kota Banda Aceh", "focus_area": "-", "lat": "5.566670", "type": "ADM2", "awardID": "00062619", "lon": "95.333330", "precision": "1", "focus_area_descr": "-"}]}, {"title": "common services", "id": "00051370", "subnational": []}, {"title": "development policy support project", "id": "00058521", "subnational": []}, {"title": "enhancing com, advoc and pub part cap for legal reforms", "id": "00043298", "subnational": []}, {"title": "forest and climate change", "id": "00059208", "subnational": []}, {"title": "gep-wri raising the profile (gender project)", "id": "00051021", "subnational": []}, {"title": "ilo - rural roads phase i&ii", "id": "00043685", "subnational": []}, {"title": "mdtf trprp - port redevelopment", "id": "00043562", "subnational": []}, {"title": "phase-out mngmt plan for cfcs-ref (servicing)", "id": "00013089", "subnational": []}, {"title": "pip on persistent organic pollutants (pops) mgt", "id": "00059844", "subnational": []}, {"title": "recovery initiatives for sumatera earthquakes", "id": "00058376", "subnational": []}, {"title": "response to aceh disaster", "id": "00038024", "subnational": []}, {"title": "study on corporate social responsibility", "id": "00060284", "subnational": []}, {"title": "support to justice for peace and development in aceh", "id": "00044584", "subnational": []}, {"title": "support to strengthen the capacity and role of cso", "id": "00042539", "subnational": []}, {"title": "switch to biogas: assists dairy farming communities", "id": "00056995", "subnational": []}, {"title": "training future experts on cc & poverty in aceh", "id": "00057565", "subnational": []}, {"title": "wind hybrid power generation", "id": "00059199", "subnational": []}, {"title": "women in politics and government", "id": "00061349", "subnational": []}], "op_unit": "IDN"}