{"iso_num":"360","op_unit":"IDN","projects":[{"id":"00013070","subnational":[],"title":"SPDPC"},{"id":"00013076","subnational":[],"title":"TF for North Maluku & Maluku Recovery Program"},{"id":"00013080","subnational":[],"title":"Support for the CPRU"},{"id":"00013085","subnational":[{"lat":5.0,"lon":120.0,"precision":"9","scope":"4","type":"2"}],"title":"Sector Phase-out Plan in the Refri (Manufac)"},{"id":"00013089","subnational":[{"lat":5.0,"lon":120.0,"precision":"9","scope":"4","type":"2"}],"title":"Phase-out Mngmt Plan for CFCs-Ref (Servicing)"},{"id":"00032043","subnational":[{"lat":6.1252,"lon":106.5042,"precision":"8","scope":"4","type":"1"},{"lat":6.1252,"lon":106.5042,"precision":"8","scope":"4","type":"1"}],"title":"Support to UN Coordination"},{"id":"00033093","subnational":[],"title":"PIMS 2624 NC EA: NCSA"},{"id":"00033872","subnational":[],"title":"GOVERNANCE REFORM"},{"id":"00035926","subnational":[],"title":"ENABLING THE PARTNERSHIP"},{"id":"00038024","subnational":[{"lat":4.0,"lon":97.0,"precision":"4","scope":"2","type":"2"},{"lat":4.0,"lon":97.0,"precision":"4","scope":"2","type":"2"}],"title":"Response to Aceh Disaster"},{"id":"00038597","subnational":[{"lat":5.3327,"lon":95.1919,"precision":"3","scope":"3","type":"2"}],"title":"Aceh ERTR Programme"},{"id":"00039113","subnational":[{"lat":1.2345,"lon":95.2516,"precision":"3","scope":"3","type":"2"},{"lat":1.436,"lon":104.755,"precision":"3","scope":"3","type":"2"},{"lat":5.3814,"lon":132.4443,"precision":"3","scope":"3","type":"2"}],"title":"Peace Through Development"},{"id":"00042065","subnational":[{"lat":2.0,"lon":99.0,"precision":"4","scope":"3","type":"1"},{"lat":2.0,"lon":99.0,"precision":"4","scope":"3","type":"1"},{"lat":4.0,"lon":97.0,"precision":"4","scope":"3","type":"1"},{"lat":4.0,"lon":97.0,"precision":"4","scope":"3","type":"1"}],"title":"TECHNICAL SUPPORT FOR BRR NAD-NIAS"},{"id":"00042539","subnational":[{"lat":5.221,"lon":95.3152,"precision":"3","scope":"3","type":"2"}],"title":"Support to Strengthen the Capacity and Role of CSO"},{"id":"00042647","subnational":[{"lat":5.316,"lon":95.2516,"precision":"3","scope":"3","type":"2"}],"title":"MDTF Waste Management Project"},{"id":"00042855","subnational":[{"lat":5.0,"lon":120.0,"precision":"9","scope":"4","type":"1"},{"lat":5.0,"lon":120.0,"precision":"9","scope":"4","type":"1"},{"lat":5.0,"lon":120.0,"precision":"9","scope":"4","type":"1"}],"title":"Deepening Democracy in Indonesia"},{"id":"00043298","subnational":[{"lat":5.0,"lon":120.0,"precision":"9","scope":"4","type":"1"}],"title":"Enhancing Com, Advoc and Pub Part Cap for Legal Reforms"},{"id":"00043562","subnational":[{"lat":5.0,"lon":120.0,"precision":"9","scope":"4","type":"2"}],"title":"MDTF TRPRP - Port Redevelopment"},{"id":"00043640","subnational":[{"lat":1.39,"lon":121.49,"precision":"3","scope":"3","type":"1"},{"lat":2.55,"lon":132.18,"precision":"3","scope":"3","type":"1"},{"lat":4.42,"lon":136.28,"precision":"3","scope":"3","type":"1"}],"title":"PAPUA DEVELOPMENT PROGRAMME"},{"id":"00043641","subnational":[{"lat":0.15,"lon":127.3,"precision":"4","scope":"3","type":"2"},{"lat":4.2336,"lon":122.1253,"precision":"4","scope":"3","type":"2"},{"lat":5.459,"lon":122.2113,"precision":"4","scope":"3","type":"2"}],"title":"Legal Empowerment and Assistance for the Disadvantaged"},{"id":"00043685","subnational":[{"lat":5.225,"lon":95.5717,"precision":"3","scope":"2","type":"2"}],"title":"ILO - Rural Roads Phase I&II"},{"id":"00043800","subnational":[{"lat":5.0,"lon":120.0,"precision":"9","scope":"4","type":"2"}],"title":"INTEGRATED MICROHYDRO DEVELOPMENT"},{"id":"00043973","subnational":[{"lat":3.1418,"lon":130.843,"precision":"4","scope":"3","type":"2"},{"lat":3.1418,"lon":130.843,"precision":"4","scope":"3","type":"1"}],"title":"To Assess,Reinforce&Gear Efforts Toward MDG in Indonesia"},{"id":"00044584","subnational":[{"lat":4.0,"lon":97.0,"precision":"4","scope":"2","type":"1"}],"title":"Support to Justice for Peace and Development in Aceh"},{"id":"00044804","subnational":[],"title":"Mahakam Delta"},{"id":"00045230","subnational":[{"lat":-0.589724,"lon":101.3431058,"precision":"4","scope":"3","type":"2"}],"title":"Avian and Human Influenza Coordination Activity"},{"id":"00047810","subnational":[{"lat":5.0,"lon":120.0,"precision":"9","scope":"4","type":"2"},{"lat":5.0,"lon":120.0,"precision":"9","scope":"4","type":"2"},{"lat":5.0,"lon":120.0,"precision":"9","scope":"4","type":"2"},{"lat":5.0,"lon":120.0,"precision":"9","scope":"4","type":"2"},{"lat":5.0,"lon":120.0,"precision":"9","scope":"4","type":"2"},{"lat":5.0,"lon":120.0,"precision":"9","scope":"4","type":"2"}],"title":"Safer Communities through Disaster Risk Reduction"},{"id":"00048139","subnational":[{"lat":5.0,"lon":120.0,"precision":"9","scope":"4","type":"2"}],"title":"Strengthened Capacity to PRs of GFATM in Indonesia"},{"id":"00048350","subnational":[{"lat":4.0,"lon":97.0,"precision":"4","scope":"2","type":"1"},{"lat":4.0,"lon":97.0,"precision":"4","scope":"2","type":"1"},{"lat":4.0,"lon":97.0,"precision":"4","scope":"2","type":"1"},{"lat":4.0,"lon":97.0,"precision":"4","scope":"2","type":"1"},{"lat":4.0,"lon":97.0,"precision":"4","scope":"2","type":"1"}],"title":"Aceh Government Transformation Programme"},{"id":"00049011","subnational":[{"lat":5.0,"lon":120.0,"precision":"9","scope":"4","type":"2"}],"title":"Microturbine Cogeneration Technology Application Project"},{"id":"00049235","subnational":[{"lat":4.0,"lon":97.0,"precision":"4","scope":"2","type":"2"},{"lat":4.0,"lon":97.0,"precision":"4","scope":"2","type":"2"},{"lat":4.0,"lon":97.0,"precision":"4","scope":"2","type":"2"},{"lat":4.0,"lon":97.0,"precision":"4","scope":"2","type":"2"},{"lat":4.0,"lon":97.0,"precision":"4","scope":"2","type":"2"}],"title":"Disaster Risk Reduction - Aceh"},{"id":"00050241","subnational":[{"lat":5.0,"lon":120.0,"precision":"9","scope":"4","type":"2"},{"lat":5.0,"lon":120.0,"precision":"9","scope":"4","type":"2"},{"lat":5.0,"lon":120.0,"precision":"9","scope":"4","type":"2"}],"title":"INDONESIA PARTNERSHIP FUND FOR HIV 2008-2015"},{"id":"00050243","subnational":[{"lat":5.0,"lon":120.0,"precision":"9","scope":"4","type":"2"},{"lat":5.0,"lon":120.0,"precision":"9","scope":"4","type":"2"},{"lat":5.0,"lon":120.0,"precision":"9","scope":"4","type":"2"},{"lat":5.0,"lon":120.0,"precision":"9","scope":"4","type":"2"},{"lat":5.0,"lon":120.0,"precision":"9","scope":"4","type":"2"}],"title":"Support to Indonesia's Democratic Elections"},{"id":"00050588","subnational":[{"lat":5.0,"lon":120.0,"precision":"9","scope":"4","type":"2"}],"title":"Institutional Strengthening Phase 6 - IDS/SEV/53/INV/180"},{"id":"00051021","subnational":[],"title":"GEP-WRI RAISING THE PROFILE (GENDER PROJECT)"},{"id":"00051053","subnational":[{"lat":0.7086091,"lon":97.8286368,"precision":"3","scope":"2","type":"2"},{"lat":0.7086091,"lon":97.8286368,"precision":"3","scope":"2","type":"2"},{"lat":1.1255279,"lon":97.5247243,"precision":"3","scope":"2","type":"2"},{"lat":1.1255279,"lon":97.5247243,"precision":"3","scope":"2","type":"2"}],"title":"The Nias Islands Transition Project"},{"id":"00051205","subnational":[{"lat":-8.6573819,"lon":121.0793705,"precision":"4","scope":"3","type":"1"},{"lat":-4.269928,"lon":138.0803529,"precision":"4","scope":"3","type":"1"},{"lat":4.0,"lon":97.0,"precision":"4","scope":"3","type":"1"},{"lat":4.0,"lon":97.0,"precision":"4","scope":"3","type":"1"}],"title":"Enhancing Capacity for Better Aid Management"},{"id":"00051288","subnational":[{"lat":1.5921,"lon":99.318,"precision":"3","scope":"3","type":"2"},{"lat":7.4221,"lon":110.3623,"precision":"3","scope":"3","type":"2"},{"lat":7.4256,"lon":110.212,"precision":"3","scope":"3","type":"2"}],"title":"Disaster Risk Reduction based Rehab.&Reconst."},{"id":"00051370","subnational":[{"lat":5.3327,"lon":95.1919,"precision":"3","scope":"3","type":"1"}],"title":"Common Services"},{"id":"00056845","subnational":[],"title":"Strengthening Community Based Forest and Watershed"},{"id":"00056995","subnational":[],"title":"Switch to Biogas: Assists Dairy Farming Communities"},{"id":"00057565","subnational":[{"lat":4.0,"lon":97.0,"precision":"4","scope":"2","type":"1"}],"title":"Training Future Experts on CC & Poverty in Aceh"},{"id":"00057623","subnational":[{"lat":2.3711,"lon":96.444,"precision":"3","scope":"3","type":"2"},{"lat":2.3711,"lon":96.444,"precision":"3","scope":"3","type":"2"},{"lat":2.3711,"lon":96.444,"precision":"3","scope":"3","type":"2"}],"title":"Articulating Governance and Local Development in Indones"},{"id":"00057787","subnational":[{"lat":5.0,"lon":120.0,"precision":"9","scope":"4","type":"2"},{"lat":5.0,"lon":120.0,"precision":"9","scope":"4","type":"2"},{"lat":5.0,"lon":120.0,"precision":"9","scope":"4","type":"2"}],"title":"Provincial Governance Strengthening Programme"},{"id":"00057994","subnational":[{"lat":5.0,"lon":120.0,"precision":"9","scope":"4","type":"1"},{"lat":5.0,"lon":120.0,"precision":"9","scope":"4","type":"1"},{"lat":5.0,"lon":120.0,"precision":"9","scope":"4","type":"1"}],"title":"Transitional Multi Donor Fund for Aid for Effectiveness"},{"id":"00058270","subnational":[{"lat":5.0,"lon":120.0,"precision":"9","scope":"4","type":"2"},{"lat":5.0,"lon":120.0,"precision":"9","scope":"4","type":"2"}],"title":"Energy Standard and Labeling"},{"id":"00058376","subnational":[{"lat":1.5921,"lon":99.318,"precision":"4","scope":"2","type":"2"},{"lat":1.5921,"lon":99.318,"precision":"4","scope":"2","type":"2"},{"lat":1.5921,"lon":99.318,"precision":"4","scope":"2","type":"2"},{"lat":1.5921,"lon":99.318,"precision":"4","scope":"2","type":"2"},{"lat":1.5921,"lon":99.318,"precision":"4","scope":"2","type":"2"},{"lat":1.5921,"lon":99.318,"precision":"4","scope":"2","type":"2"}],"title":"Recovery Initiatives for Sumatera Earthquakes"},{"id":"00058440","subnational":[{"lat":5.0,"lon":120.0,"precision":"9","scope":"5","type":"1"}],"title":"Arafura and Timor Seas Ecosystem Action Programme"},{"id":"00058521","subnational":[{"lat":5.0,"lon":120.0,"precision":"9","scope":"4","type":"1"},{"lat":5.0,"lon":120.0,"precision":"9","scope":"4","type":"1"}],"title":"Development Policy Support Project"},{"id":"00058897","subnational":[{"lat":1.3,"lon":103.0,"precision":"4","scope":"4","type":"2"},{"lat":2.0,"lon":113.3,"precision":"4","scope":"4","type":"2"},{"lat":4.0,"lon":97.0,"precision":"4","scope":"4","type":"2"}],"title":"UNREDD in Indonesia"},{"id":"00059199","subnational":[{"lat":8.3926,"lon":121.445,"precision":"4","scope":"3","type":"2"}],"title":"Wind Hybrid Power Generation"},{"id":"00059208","subnational":[{"lat":5.0,"lon":120.0,"precision":"9","scope":"4","type":"1"}],"title":"Forest and Climate Change"},{"id":"00059247","subnational":[{"lat":5.0,"lon":120.0,"precision":"9","scope":"4","type":"1"}],"title":"Indonesia Climate Change Trust Fund"},{"id":"00059844","subnational":[{"lat":5.0,"lon":120.0,"precision":"9","scope":"4","type":"2"}],"title":"PIP on Persistent Organic Pollutants (POPs) Mgt"},{"id":"00060014","subnational":[{"lat":5.0,"lon":120.0,"precision":"9","scope":"4","type":"2"},{"lat":5.0,"lon":120.0,"precision":"9","scope":"4","type":"2"}],"title":"Support to Preparation Arrangement for ICCTF- Full Size"},{"id":"00060042","subnational":[{"lat":8.3926,"lon":121.445,"precision":"4","scope":"2","type":"2"}],"title":"Community Development Programme West Nusa Tenggara-NTB"},{"id":"00060044","subnational":[{"lat":5.3327,"lon":95.1919,"precision":"3","scope":"3","type":"2"}],"title":"Tsunami Recovery Waste Management Project"},{"id":"00060284","subnational":[{"lat":5.0,"lon":120.0,"precision":"9","scope":"4","type":"1"}],"title":"Study on Corporate Social Responsibility"},{"id":"00060467","subnational":[{"lat":4.45,"lon":138.0,"precision":"4","scope":"3","type":"2"}],"title":"People-centered Development Project - Phase II"},{"id":"00060694","subnational":[{"lat":5.0,"lon":120.0,"precision":"9","scope":"4","type":"2"},{"lat":5.0,"lon":120.0,"precision":"9","scope":"4","type":"2"}],"title":"Support to the Establishment of Indonesia REDD+"},{"id":"00060770","subnational":[],"title":"Peace Through Development in Disadvantaged Areas (PTDDA)"},{"id":"00060776","subnational":[],"title":"Wind Hybrid Power Generation (WHyPGen) Market Dev"},{"id":"00061065","subnational":[{"lat":8.3926,"lon":121.445,"precision":"4","scope":"2","type":"1"}],"title":"Strategic Climate Adaptation"},{"id":"00061140","subnational":[{"lat":5.0,"lon":120.0,"precision":"9","scope":"4","type":"1"}],"title":"Development Advisory Services"},{"id":"00061349","subnational":[{"lat":0.0,"lon":110.3,"precision":"4","scope":"2","type":"2"}],"title":"Women in Politics and Government"},{"id":"00061521","subnational":[{"lat":5.0,"lon":120.0,"precision":"9","scope":"4","type":"2"}],"title":"SUPPORT TO THE ACCELERATION OF MDG ACHIEVEMENT IN INDONE"},{"id":"00061763","subnational":[{"lat":5.0,"lon":120.0,"precision":"9","scope":"4","type":"2"}],"title":"Strengthening Access to Justice in Indonesia"},{"id":"00061901","subnational":[{"lat":5.0,"lon":120.0,"precision":"9","scope":"4","type":"2"}],"title":"The participatory governance assessment for REDD+"},{"id":"00061932","subnational":[{"lat":5.0,"lon":120.0,"precision":"9","scope":"4","type":"2"}],"title":"Strengthening Indonesia Mitigation and Adaptation"},{"id":"00062271","subnational":[{"lat":5.0,"lon":120.0,"precision":"9","scope":"4","type":"1"}],"title":"MTAF TO STRENGTHEN IMPLEMENTATION OF GF GRANTS IN INDO"},{"id":"00062619","subnational":[{"lat":5.225,"lon":95.5717,"precision":"3","scope":"3","type":"2"}],"title":"ILO RURAL ROADS PHASE III"},{"id":"00065312","subnational":[],"title":"HCFC Phase-out Management Plan - IDN10"},{"id":"00066891","subnational":[],"title":"Strenght. Women's Participat. & Represent. in Gov Indo"},{"id":"00067158","subnational":[],"title":"PIMS 4392 BD PPG Sulawesi PA"},{"id":"00067418","subnational":[],"title":"Strengthening Innovative Partnership for Development Coo"},{"id":"00068219","subnational":[],"title":"Third National Communication to The UNFCCC"}]}