{"iso_num":"360","op_unit":"IDN","projects":[{"id":"00038597","subnational":[{"awardID":"00038597","lat":"5.5577","lon":"95.3222","name":"Banda Aceh","precision":"3","type":"PPLA"}],"title":"Aceh Emergency Programme"},{"id":"00048350","subnational":[{"awardID":"00048350","lat":"5.5577","lon":"95.3222","name":"Aceh","precision":"4","type":"ADM1"},{"awardID":"00048350","lat":"5.5577","lon":"95.3222","name":"Aceh","precision":"4","type":"ADM1"},{"awardID":"00048350","lat":"5.5577","lon":"95.3222","name":"Aceh","precision":"4","type":"ADM1"}],"title":"Aceh Government Transformation Programme"},{"id":"00058440","subnational":[{"awardID":"00058440","lat":"-5","lon":"120","name":"Indonesia","precision":"9","type":"PCL"}],"title":"Arafura and Timor Seas Ecosystem Action Programme"},{"id":"00057623","subnational":[{"awardID":"00057623","lat":"2.6199","lon":"96.079","name":"Kabupaten","precision":"3","type":"ADM2"},{"awardID":"00057623","lat":"2.6199","lon":"96.079","name":"Kabupaten","precision":"3","type":"ADM2"},{"awardID":"00057623","lat":"2.6199","lon":"96.079","name":"Kabupaten","precision":"3","type":"ADM2"}],"title":"Articulating Governance and Local Development in Indones"},{"id":"00042855","subnational":[{"awardID":"00042855","lat":"-5","lon":"120","name":"Indonesia","precision":"9","type":"PCL"}],"title":"Deepening Democracy in Indonesia"},{"id":"00061140","subnational":[{"awardID":"00061140","lat":"-5","lon":"120","name":"Indonesia","precision":"9","type":"PCL"}],"title":"Development Advisory Services"},{"id":"00049235","subnational":[{"awardID":"00049235","lat":"5.5577","lon":"95.3222","name":"Aceh","precision":"4","type":"ADM1"}],"title":"Disaster Risk Reduction - Aceh"},{"id":"00051288","subnational":[{"awardID":"00051288","lat":"-7.53306","lon":"110.59583","name":"Boyolali","precision":"3","type":"PPL"},{"awardID":"00051288","lat":"-7.47056","lon":"110.21778","name":"Magelang","precision":"3","type":"PPL"},{"awardID":"00051288","lat":"-7.70583","lon":"110.60639","name":"Klaten","precision":"3","type":"PPL"},{"awardID":"00051288","lat":"-1.98917","lon":"99.51902","name":"Mentawai","precision":"3","type":"PPL"},{"awardID":"00051288","lat":"-7.71556","lon":"110.35556","name":"Sleman","precision":"3","type":"PPL"}],"title":"Disaster Risk Reduction based Rehab.&Reconst."},{"id":"00035926","subnational":[],"title":"ENABLING THE PARTNERSHIP"},{"id":"00058270","subnational":[{"awardID":"00058270","lat":"-5","lon":"120","name":"Indonesia","precision":"9","type":"PCL"},{"awardID":"00058270","lat":"-5","lon":"120","name":"Indonesia","precision":"9","type":"PCL"}],"title":"Energy Standard and Labeling"},{"id":"00051205","subnational":[{"awardID":"00051205","lat":"5.5577","lon":"95.3222","name":"Aceh","precision":"4","type":"ADM1"},{"awardID":"00051205","lat":"-8.65738","lon":"121.07937","name":"Nusa Tenggara Timur","precision":"4","type":"ADM1"},{"awardID":"00051205","lat":"5.5577","lon":"95.3222","name":"Aceh","precision":"4","type":"ADM1"}],"title":"Enhancing Capacity for Better Aid Management"},{"id":"00067158","subnational":[],"title":"Enhancing Protected Area"},{"id":"00065312","subnational":[],"title":"Hydrochlorofluorocarbons Phase-out Management Plan"},{"id":"00062619","subnational":[{"awardID":"00062619","lat":"5.08","lon":"96.11","name":"Pidie","precision":"3","type":"ADM2"}],"title":"ILO RURAL ROADS PHASE III"},{"id":"00059247","subnational":[{"awardID":"00059247","lat":"-5","lon":"120","name":"Indonesia","precision":"9","type":"PCL"}],"title":"Indonesia Climate Change Trust Fund"},{"id":"00073823","subnational":[],"title":"Initiatives to Combat and Adapt to CC Challenges"},{"id":"00050588","subnational":[],"title":"Institutional Strengthening Phase 6 - IDS/SEV/53/INV/180"},{"id":"00043800","subnational":[{"awardID":"00043800","lat":"-5","lon":"120","name":"Indonesia","precision":"9","type":"PCL"}],"title":"INTEGRATED MICROHYDRO DEVELOPMENT"},{"id":"00043641","subnational":[{"awardID":"00043641","lat":"-4.3935","lon":"122.2149","name":"Sulawesi Tenggara","precision":"4","type":"ADM1"}],"title":"Legal Empowerment and Assistance for the Disadvantaged"},{"id":"00049011","subnational":[{"awardID":"00049011","lat":"-5","lon":"120","name":"Indonesia","precision":"9","type":"PCL"}],"title":"Microturbine Cogeneration Technology Application Project"},{"id":"00068617","subnational":[],"title":"National Biodiv Planning to Support Impl CBD"},{"id":"00043640","subnational":[{"awardID":"00043640","lat":"-2.91667","lon":"132.3","name":"Fakfak","precision":"3","type":"PPL"}],"title":"PAPUA DEVELOPMENT PROGRAMME"},{"id":"00071337","subnational":[],"title":"Participatory Governance Assessment"},{"id":"00039113","subnational":[{"awardID":"00039113","lat":"5.3814","lon":"132.4443","name":"Semai Benih Bangsa","precision":"3","type":"PPL"}],"title":"Peace Through Development"},{"id":"00060770","subnational":[],"title":"Peace Through Development in Disadvantaged Areas (PTDDA)"},{"id":"00060467","subnational":[{"awardID":"00060467","lat":"-2.53333","lon":"140.7","name":"Papua","precision":"4","type":"ADM1"}],"title":"People-centered Development Project - Phase II"},{"id":"00072677","subnational":[],"title":"Promoting Energy Efficiency for Non-HCFC Refrigeration a"},{"id":"00057787","subnational":[{"awardID":"00057787","lat":"-5","lon":"120","name":"Indonesia","precision":"9","type":"PCL"},{"awardID":"00057787","lat":"-5","lon":"120","name":"Indonesia","precision":"9","type":"PCL"},{"awardID":"00057787","lat":"-5","lon":"120","name":"Indonesia","precision":"9","type":"PCL"}],"title":"Provincial Governance Strengthening Programme"},{"id":"00072772","subnational":[],"title":"Reducing PBDE and UPOPs"},{"id":"00047810","subnational":[{"awardID":"00047810","lat":"-5","lon":"120","name":"Indonesia","precision":"9","type":"PCL"},{"awardID":"00047810","lat":"-5","lon":"120","name":"Indonesia","precision":"9","type":"PCL"},{"awardID":"00047810","lat":"-5","lon":"120","name":"Indonesia","precision":"9","type":"PCL"},{"awardID":"00047810","lat":"-5","lon":"120","name":"Indonesia","precision":"9","type":"PCL"},{"awardID":"00047810","lat":"-5","lon":"120","name":"Indonesia","precision":"9","type":"PCL"}],"title":"Safer Communities through Disaster Risk Reduction"},{"id":"00071676","subnational":[],"title":"Safer Communities through Disaster Risk Reduction Phs II"},{"id":"00013085","subnational":[{"awardID":"00013085","lat":"-5","lon":"120","name":"Indonesia","precision":"9","type":"PCL"}],"title":"Sector Phase-out Plan in the Refrigeration"},{"id":"00061065","subnational":[{"awardID":"00061065","lat":"-8.65738","lon":"121.07937","name":"Nusa Tenggara Timur","precision":"4","type":"ADM1"}],"title":"Strategic Climate Adaptation"},{"id":"00068398","subnational":[],"title":"Strategic Planning and Action to Climate Resilience"},{"id":"00062271","subnational":[{"awardID":"00062271","lat":"-5","lon":"120","name":"Indonesia","precision":"9","type":"PCL"}],"title":"STRENGTHEN IMPLEMENTATION OF GRANTS"},{"id":"00061763","subnational":[{"awardID":"00061763","lat":"-5","lon":"120","name":"Indonesia","precision":"9","type":"PCL"}],"title":"Strengthening Access to Justice in Indonesia"},{"id":"00056845","subnational":[{"awardID":"00056845","lat":"-7.3634","lon":"112.6494","name":"Dodokan","precision":"3","type":"PPL"}],"title":"Strengthening Community Based Forest and Watershed"},{"id":"00061932","subnational":[{"awardID":"00061932","lat":"-5","lon":"120","name":"Indonesia","precision":"9","type":"PCL"}],"title":"Strengthening Indonesia Mitigation and Adaptation"},{"id":"00067418","subnational":[],"title":"Strengthening Innovative Partnership for Development"},{"id":"00066891","subnational":[],"title":"Strengthening Women's Participation and Representation"},{"id":"00013080","subnational":[],"title":"Support for the the Crisis Prevention Recovery Unit"},{"id":"00060014","subnational":[{"awardID":"00060014","lat":"-5","lon":"120","name":"Indonesia","precision":"9","type":"PCL"},{"awardID":"00060014","lat":"-5","lon":"120","name":"Indonesia","precision":"9","type":"PCL"}],"title":"Support to Climate Change Trust Fund"},{"id":"00050243","subnational":[{"awardID":"00050243","lat":"-5","lon":"120","name":"Indonesia","precision":"9","type":"PCL"},{"awardID":"00050243","lat":"-5","lon":"120","name":"Indonesia","precision":"9","type":"PCL"}],"title":"Support to Indonesia's Democratic Elections"},{"id":"00061521","subnational":[{"awardID":"00061521","lat":"-5","lon":"120","name":"Indonesia","precision":"9","type":"PCL"}],"title":"SUPPORT TO THE ACCELERATION OF MDG ACHIEVEMENT IN INDONE"},{"id":"00060694","subnational":[{"awardID":"00060694","lat":"-5","lon":"120","name":"Indonesia","precision":"9","type":"PCL"},{"awardID":"00060694","lat":"-5","lon":"120","name":"Indonesia","precision":"9","type":"PCL"}],"title":"Support to the Establishment of Indonesia REDD+"},{"id":"00042065","subnational":[{"awardID":"00042065","lat":"5.5577","lon":"95.3222","name":"Aceh","precision":"4","type":"ADM1"},{"awardID":"00042065","lat":"2","lon":"99","name":"Sumatera Utara","precision":"4","type":"ADM1"}],"title":"TECHNICAL SUPPORT FOR RECONSTRUCTION AGENCY-ACEH&NIAS"},{"id":"00051053","subnational":[{"awardID":"00051053","lat":"1.1215","lon":"97.6181","name":"Nias","precision":"3","type":"ADM2"},{"awardID":"00051053","lat":"0.77","lon":"97.75","name":"Nias Selatan","precision":"3","type":"ADM2"},{"awardID":"00051053","lat":"0.77","lon":"97.75","name":"Nias Selatan","precision":"3","type":"ADM2"}],"title":"The Nias Islands Transition Project"},{"id":"00061901","subnational":[{"awardID":"00061901","lat":"-5","lon":"120","name":"Indonesia","precision":"9","type":"PCL"}],"title":"The participatory governance assessment for REDD+"},{"id":"00068219","subnational":[],"title":"Third National Communication to UNFCCC"},{"id":"00057994","subnational":[{"awardID":"00057994","lat":"-5","lon":"120","name":"Indonesia","precision":"9","type":"PCL"},{"awardID":"00057994","lat":"-5","lon":"120","name":"Indonesia","precision":"9","type":"PCL"},{"awardID":"00057994","lat":"-5","lon":"120","name":"Indonesia","precision":"9","type":"PCL"}],"title":"Transitional Multi Donor Fund for Aid for Effectiveness"},{"id":"00060044","subnational":[{"awardID":"00060044","lat":"5.5577","lon":"95.3222","name":"Kota Banda Aceh","precision":"3","type":"PPLA"}],"title":"Tsunami Recovery Waste Project"},{"id":"00058897","subnational":[{"awardID":"00058897","lat":"-7.49944","lon":"110.80611","name":"Central Kalimantan","precision":"4","type":"ADM1"}],"title":"UNREDD in Indonesia"},{"id":"00060776","subnational":[],"title":"Wind Hybrid Power Generation (WHyPGen) Market Dev"}]}