{"iso_num": null, "projects": [{"title": "deepening democracy in indonesia", "id": "00042855", "subnational": [{"outputID": "00049773", "output_locID": "00049773-1", "name": "Jakarta", "focus_area": "2", "lat": "-6.214620", "type": "PPLC", "awardID": "00042855", "lon": "106.845130", "precision": "1", "focus_area_descr": "Democratic Governance"}]}, {"title": "institutional strengthening to ozone layer protection", "id": "00050588", "subnational": [{"outputID": "00082684", "output_locID": "00082684-1", "name": "Jakarta", "focus_area": "1", "lat": "-6.214620", "type": "PPLC", "awardID": "00050588", "lon": "106.845130", "precision": "1", "focus_area_descr": "Inclusive & Sustainable Growth"}]}, {"title": "disaster risk reduction based rehab.&reconst.", "id": "00051288", "subnational": [{"outputID": "00063802", "output_locID": "00063802-1", "name": "Kabupaten Boyolali", "focus_area": "6", "lat": "-7.833330", "type": "ADM2", "awardID": "00051288", "lon": "110.250000", "precision": "1", "focus_area_descr": "Crisis Prevention & Recovery"}, {"outputID": "00076483", "output_locID": "00076483-1", "name": "Magelang", "focus_area": "6", "lat": "-5.407490", "type": "PPL", "awardID": "00051288", "lon": "104.929350", "precision": "1", "focus_area_descr": "Crisis Prevention & Recovery"}, {"outputID": "00076484", "output_locID": "00076484-1", "name": "Kota Administratip Klaten", "focus_area": "6", "lat": "-7.718890", "type": "ADM2", "awardID": "00051288", "lon": "110.605280", "precision": "1", "focus_area_descr": "Crisis Prevention & Recovery"}, {"outputID": "00076485", "output_locID": "00076485-1", "name": "Kepulauan Mentawai", "focus_area": "6", "lat": "-1.989170", "type": "ISLS", "awardID": "00051288", "lon": "99.519020", "precision": "1", "focus_area_descr": "Crisis Prevention & Recovery"}, {"outputID": "00077008", "output_locID": "00077008-1", "name": "Sleman", "focus_area": "6", "lat": "-7.715560", "type": "PPL", "awardID": "00051288", "lon": "110.355560", "precision": "1", "focus_area_descr": "Crisis Prevention & Recovery"}, {"outputID": "00090111", "output_locID": "00090111-1", "name": "Jakarta", "focus_area": "6", "lat": "-6.214620", "type": "PPLC", "awardID": "00051288", "lon": "106.845130", "precision": "1", "focus_area_descr": "Crisis Prevention & Recovery"}, {"outputID": "00087191", "output_locID": "00087191-1", "name": "Daerah Istimewa Yogyakarta", "focus_area": "6", "lat": "-7.750000", "type": "ADM1", "awardID": "00051288", "lon": "110.500000", "precision": "1", "focus_area_descr": "Crisis Prevention & Recovery"}]}, {"title": "strengthening community based forest and watershed", "id": "00056845", "subnational": [{"outputID": "00069901", "output_locID": "00069901-1", "name": "Dodokan", "focus_area": "1", "lat": "-7.853600", "type": "PPL", "awardID": "00056845", "lon": "112.813400", "precision": "1", "focus_area_descr": "Inclusive & Sustainable Growth"}]}, {"title": "provincial governance strengthening programme", "id": "00057787", "subnational": [{"outputID": "00071518", "output_locID": "00071518-1", "name": "Jakarta", "focus_area": "3", "lat": "-6.214620", "type": "PPLC", "awardID": "00057787", "lon": "106.845130", "precision": "1", "focus_area_descr": "Responsive Institutions"}, {"outputID": "00071519", "output_locID": "00071519-1", "name": "Kepulauan Bangka Belitung", "focus_area": "3", "lat": "-2.666670", "type": "ADM1", "awardID": "00057787", "lon": "106.666670", "precision": "1", "focus_area_descr": "Responsive Institutions"}, {"outputID": "00071520", "output_locID": "00071520-1", "name": "Provinsi Gorontalo", "focus_area": "3", "lat": "0.693000", "type": "ADM1", "awardID": "00057787", "lon": "122.470400", "precision": "1", "focus_area_descr": "Responsive Institutions"}]}, {"title": "people-centered development project - phase ii", "id": "00060467", "subnational": [{"outputID": "00082377", "output_locID": "00082377-1", "name": "Provinsi Papua Barat", "focus_area": "7", "lat": "-0.865310", "type": "ADM1", "awardID": "00060467", "lon": "134.061180", "precision": "1", "focus_area_descr": "Development Impact & Effectiveness"}, {"outputID": "00082375", "output_locID": "00082375-1", "name": "Provinsi Papua Barat", "focus_area": "7", "lat": "-0.865310", "type": "ADM1", "awardID": "00060467", "lon": "134.061180", "precision": "1", "focus_area_descr": "Development Impact & Effectiveness"}, {"outputID": "00082376", "output_locID": "00082376-1", "name": "Provinsi Papua", "focus_area": "7", "lat": "-4.750000", "type": "ADM1", "awardID": "00060467", "lon": "138.000000", "precision": "1", "focus_area_descr": "Development Impact & Effectiveness"}, {"outputID": "00082408", "output_locID": "00082408-1", "name": "Provinsi Papua Barat", "focus_area": "7", "lat": "-0.865310", "type": "ADM1", "awardID": "00060467", "lon": "134.061180", "precision": "1", "focus_area_descr": "Development Impact & Effectiveness"}, {"outputID": "00076143", "output_locID": "00076143-1", "name": "Provinsi Papua", "focus_area": "7", "lat": "-4.750000", "type": "ADM1", "awardID": "00060467", "lon": "138.000000", "precision": "1", "focus_area_descr": "Development Impact & Effectiveness"}, {"outputID": "00082378", "output_locID": "00082378-1", "name": "Provinsi Papua", "focus_area": "7", "lat": "-4.750000", "type": "ADM1", "awardID": "00060467", "lon": "138.000000", "precision": "1", "focus_area_descr": "Development Impact & Effectiveness"}]}, {"title": "support to the establishment of indonesia redd+", "id": "00060694", "subnational": [{"outputID": "00082646", "output_locID": "00082646-1", "name": "Jakarta", "focus_area": "1", "lat": "-6.214620", "type": "PPLC", "awardID": "00060694", "lon": "106.845130", "precision": "1", "focus_area_descr": "Inclusive & Sustainable Growth"}, {"outputID": "00076532", "output_locID": "00076532-1", "name": "Jakarta", "focus_area": "1", "lat": "-6.214620", "type": "PPLC", "awardID": "00060694", "lon": "106.845130", "precision": "1", "focus_area_descr": "Inclusive & Sustainable Growth"}, {"outputID": "00076555", "output_locID": "00076555-1", "name": "Provinsi Kalimantan Tengah", "focus_area": "1", "lat": "-2.000000", "type": "ADM1", "awardID": "00060694", "lon": "113.500000", "precision": "1", "focus_area_descr": "Inclusive & Sustainable Growth"}, {"outputID": "00082624", "output_locID": "00082624-1", "name": "Provinsi Kalimantan Tengah", "focus_area": "1", "lat": "-2.000000", "type": "ADM1", "awardID": "00060694", "lon": "113.500000", "precision": "1", "focus_area_descr": "Inclusive & Sustainable Growth"}, {"outputID": "00082629", "output_locID": "00082629-1", "name": "Provinsi Kalimantan Tengah", "focus_area": "1", "lat": "-2.000000", "type": "ADM1", "awardID": "00060694", "lon": "113.500000", "precision": "1", "focus_area_descr": "Inclusive & Sustainable Growth"}, {"outputID": "00082645", "output_locID": "00082645-1", "name": "Provinsi Kalimantan Tengah", "focus_area": "1", "lat": "-2.000000", "type": "ADM1", "awardID": "00060694", "lon": "113.500000", "precision": "1", "focus_area_descr": "Inclusive & Sustainable Growth"}, {"outputID": "00082647", "output_locID": "00082647-1", "name": "Jakarta", "focus_area": "1", "lat": "-6.214620", "type": "PPLC", "awardID": "00060694", "lon": "106.845130", "precision": "1", "focus_area_descr": "Inclusive & Sustainable Growth"}, {"outputID": "00082630", "output_locID": "00082630-1", "name": "Provinsi Kalimantan Tengah", "focus_area": "1", "lat": "-2.000000", "type": "ADM1", "awardID": "00060694", "lon": "113.500000", "precision": "1", "focus_area_descr": "Inclusive & Sustainable Growth"}, {"outputID": "00082648", "output_locID": "00082648-1", "name": "Provinsi Kalimantan Tengah", "focus_area": "1", "lat": "-2.000000", "type": "ADM1", "awardID": "00060694", "lon": "113.500000", "precision": "1", "focus_area_descr": "Inclusive & Sustainable Growth"}, {"outputID": "00082649", "output_locID": "00082649-1", "name": "Provinsi Kalimantan Tengah", "focus_area": "1", "lat": "-2.000000", "type": "ADM1", "awardID": "00060694", "lon": "113.500000", "precision": "1", "focus_area_descr": "Inclusive & Sustainable Growth"}]}, {"title": "peace through development in disadvantaged areas (ptdda)", "id": "00060770", "subnational": [{"outputID": "00076657", "output_locID": "00076657-1", "name": "Provinsi Maluku Utara", "focus_area": "5", "lat": "-0.250000", "type": "ADM1", "awardID": "00060770", "lon": "127.500000", "precision": "1", "focus_area_descr": "Climate Change & Disaster Resilience"}, {"outputID": "00076657", "output_locID": "00076657-2", "name": "Provinsi Maluku Utara", "focus_area": "5", "lat": "-0.250000", "type": "ADM1", "awardID": "00060770", "lon": "127.500000", "precision": "1", "focus_area_descr": "Climate Change & Disaster Resilience"}, {"outputID": "00076658", "output_locID": "00076658-1", "name": "Provinsi Maluku Utara", "focus_area": "5", "lat": "-0.250000", "type": "ADM1", "awardID": "00060770", "lon": "127.500000", "precision": "1", "focus_area_descr": "Climate Change & Disaster Resilience"}, {"outputID": "00076658", "output_locID": "00076658-2", "name": "Provinsi Maluku Utara", "focus_area": "5", "lat": "-0.250000", "type": "ADM1", "awardID": "00060770", "lon": "127.500000", "precision": "1", "focus_area_descr": "Climate Change & Disaster Resilience"}, {"outputID": "00076660", "output_locID": "00076660-1", "name": "Kota Banda Aceh", "focus_area": "5", "lat": "5.566670", "type": "ADM2", "awardID": "00060770", "lon": "95.333330", "precision": "1", "focus_area_descr": "Climate Change & Disaster Resilience"}]}, {"title": "wind hybrid power generation (whypgen) market dev", "id": "00060776", "subnational": []}, {"title": "engagement facility", "id": "00061140", "subnational": [{"outputID": "00077333", "output_locID": "00077333-1", "name": "Jakarta", "focus_area": "9", "lat": "-6.214620", "type": "PPLC", "awardID": "00061140", "lon": "106.845130", "precision": "1", "focus_area_descr": "Organizational Results Area 2"}]}, {"title": "support to the acceleration of mdg achievement in indone", "id": "00061521", "subnational": [{"outputID": "00086006", "output_locID": "00086006-1", "name": "Jakarta", "focus_area": "7", "lat": "-6.214620", "type": "PPLC", "awardID": "00061521", "lon": "106.845130", "precision": "1", "focus_area_descr": "Development Impact & Effectiveness"}, {"outputID": "00086004", "output_locID": "00086004-1", "name": "Jakarta", "focus_area": "7", "lat": "-6.214620", "type": "PPLC", "awardID": "00061521", "lon": "106.845130", "precision": "1", "focus_area_descr": "Development Impact & Effectiveness"}, {"outputID": "00077954", "output_locID": "00077954-1", "name": "Jakarta", "focus_area": "7", "lat": "-6.214620", "type": "PPLC", "awardID": "00061521", "lon": "106.845130", "precision": "1", "focus_area_descr": "Development Impact & Effectiveness"}]}, {"title": "strengthening access to justice in indonesia", "id": "00061763", "subnational": [{"outputID": "00081783", "output_locID": "00081783-1", "name": "Provinsi Kalimantan Tengah", "focus_area": "3", "lat": "-2.000000", "type": "ADM1", "awardID": "00061763", "lon": "113.500000", "precision": "1", "focus_area_descr": "Responsive Institutions"}, {"outputID": "00078515", "output_locID": "00078515-1", "name": "Sulawesi Tengah", "focus_area": "-", "lat": "-0.916600", "type": "ADM1", "awardID": "00061763", "lon": "122.353800", "precision": "1", "focus_area_descr": "-"}]}, {"title": "hydrochlorofluorocarbons phase-out management plan", "id": "00065312", "subnational": [{"outputID": "00081873", "output_locID": "00081873-1", "name": "Jakarta", "focus_area": "1", "lat": "-6.214620", "type": "PPLC", "awardID": "00065312", "lon": "106.845130", "precision": "1", "focus_area_descr": "Inclusive & Sustainable Growth"}]}, {"title": "strengthening women's participation and representation", "id": "00066891", "subnational": [{"outputID": "00082916", "output_locID": "00082916-1", "name": "Jakarta", "focus_area": "2", "lat": "-6.214620", "type": "PPLC", "awardID": "00066891", "lon": "106.845130", "precision": "1", "focus_area_descr": "Democratic Governance"}]}, {"title": "strengthening innovative partnership for development", "id": "00067418", "subnational": [{"outputID": "00083188", "output_locID": "00083188-1", "name": "Jakarta", "focus_area": "7", "lat": "-6.214620", "type": "PPLC", "awardID": "00067418", "lon": "106.845130", "precision": "1", "focus_area_descr": "Development Impact & Effectiveness"}]}, {"title": "strategic planning and action to climate resilience", "id": "00068398", "subnational": [{"outputID": "00083625", "output_locID": "00083625-1", "name": "Provinsi Nusa Tenggara Timur", "focus_area": "1", "lat": "-8.657380", "type": "ADM1", "awardID": "00068398", "lon": "121.079370", "precision": "1", "focus_area_descr": "Inclusive & Sustainable Growth"}]}, {"title": "national biodiv planning to support impl cbd", "id": "00068617", "subnational": [{"outputID": "00083690", "output_locID": "00083690-1", "name": "Jakarta", "focus_area": "1", "lat": "-6.214620", "type": "PPLC", "awardID": "00068617", "lon": "106.845130", "precision": "1", "focus_area_descr": "Inclusive & Sustainable Growth"}]}, {"title": "safer communities through disaster risk reduction phs ii", "id": "00071676", "subnational": [{"outputID": "00085005", "output_locID": "00085005-1", "name": "Jakarta", "focus_area": "5", "lat": "-6.214620", "type": "PPLC", "awardID": "00071676", "lon": "106.845130", "precision": "1", "focus_area_descr": "Climate Change & Disaster Resilience"}, {"outputID": "00085006", "output_locID": "00085006-1", "name": "Provinsi Jawa Tengah", "focus_area": "5", "lat": "-7.500000", "type": "ADM1", "awardID": "00071676", "lon": "110.000000", "precision": "1", "focus_area_descr": "Climate Change & Disaster Resilience"}]}, {"title": "low emission capacity building project - indonesia", "id": "00072823", "subnational": [{"outputID": "00085846", "output_locID": "00085846-1", "name": "Jakarta", "focus_area": "1", "lat": "-6.214620", "type": "PPLC", "awardID": "00072823", "lon": "106.845130", "precision": "1", "focus_area_descr": "Inclusive & Sustainable Growth"}]}, {"title": "united nations office for redd coordination in indonesia", "id": "00074047", "subnational": []}, {"title": "redd+ interim phase", "id": "00075619", "subnational": [{"outputID": "00087420", "output_locID": "00087420-1", "name": "Jakarta", "focus_area": "1", "lat": "-6.214620", "type": "PPLC", "awardID": "00075619", "lon": "106.845130", "precision": "1", "focus_area_descr": "Inclusive & Sustainable Growth"}, {"outputID": "00087421", "output_locID": "00087421-1", "name": "Jakarta", "focus_area": "1", "lat": "-6.214620", "type": "PPLC", "awardID": "00075619", "lon": "106.845130", "precision": "1", "focus_area_descr": "Inclusive & Sustainable Growth"}, {"outputID": "00087422", "output_locID": "00087422-1", "name": "Jakarta", "focus_area": "3", "lat": "-6.214620", "type": "PPLC", "awardID": "00075619", "lon": "106.845130", "precision": "1", "focus_area_descr": "Responsive Institutions"}, {"outputID": "00087423", "output_locID": "00087423-1", "name": "Jakarta", "focus_area": "1", "lat": "-6.214620", "type": "PPLC", "awardID": "00075619", "lon": "106.845130", "precision": "1", "focus_area_descr": "Inclusive & Sustainable Growth"}]}, {"title": "third national communication to the unfccc - full size", "id": "00075809", "subnational": []}, {"title": "gef-ppg market transformation", "id": "00076525", "subnational": []}, {"title": "enhancing the protected area system in sulawesi (e-pass)", "id": "00077733", "subnational": []}, {"title": "capacity development for implementing rio conventions", "id": "00081935", "subnational": []}, {"title": "data innovation for enhanced public services delivery", "id": "00082151", "subnational": []}, {"title": "support to the justice sector reform in indonesia", "id": "00082733", "subnational": []}, {"title": "sustainable palm oil initiative", "id": "00082941", "subnational": []}, {"title": "fsp reducing pbde and upops", "id": "00083160", "subnational": []}, {"title": "implementation of the arafura & timor seas programmes", "id": "00084467", "subnational": []}, {"title": "biodiversity conservation in sumatra", "id": "00085001", "subnational": []}, {"title": "illegal wildlife trade", "id": "00085817", "subnational": []}, {"title": "scm-sd", "id": "00086683", "subnational": []}, {"title": "sgp op-6 upgrading", "id": "00087985", "subnational": []}, {"title": "strengthening forest area planning and management in kal", "id": "00088976", "subnational": []}, {"title": "data innovation for development", "id": "00089252", "subnational": []}, {"title": "msp - cross-cutting capacity development (cccd)", "id": "00090780", "subnational": []}, {"title": "tanah papua platform (tpp)", "id": "00092641", "subnational": []}, {"title": "promoting justice & rights", "id": "00092722", "subnational": []}, {"title": "sdg support programme", "id": "00093596", "subnational": []}, {"title": "adlight", "id": "00094668", "subnational": []}, {"title": "giz better public service delivery", "id": "00095273", "subnational": []}, {"title": "support facility for the institutional setup of the peat", "id": "00096630", "subnational": []}, {"title": "support papua and west papua through led", "id": "00098236", "subnational": []}, {"title": "support to un coordination", "id": "00032043", "subnational": [{"outputID": "00084842", "output_locID": "00084842-1", "name": "Jakarta", "focus_area": "7", "lat": "-6.214620", "type": "PPLC", "awardID": "00032043", "lon": "106.845130", "precision": "1", "focus_area_descr": "Development Impact & Effectiveness"}]}, {"title": "building and reinventing decentralized governance", "id": "00036821", "subnational": []}, {"title": "papua development programme", "id": "00043640", "subnational": [{"outputID": "00051020", "output_locID": "00051020-1", "name": "Jakarta", "focus_area": "-", "lat": "-6.214620", "type": "PPLC", "awardID": "00043640", "lon": "106.845130", "precision": "1", "focus_area_descr": "-"}]}, {"title": "safer communities through disaster risk reduction", "id": "00047810", "subnational": [{"outputID": "00057703", "output_locID": "00057703-1", "name": "Provinsi Papua", "focus_area": "-", "lat": "-4.750000", "type": "ADM1", "awardID": "00047810", "lon": "138.000000", "precision": "1", "focus_area_descr": "-"}, {"outputID": "00057679", "output_locID": "00057679-1", "name": "Provinsi Nusa Tenggara Timur", "focus_area": "-", "lat": "-8.657380", "type": "ADM1", "awardID": "00047810", "lon": "121.079370", "precision": "1", "focus_area_descr": "-"}, {"outputID": "00057702", "output_locID": "00057702-1", "name": "Kota Banda Aceh", "focus_area": "-", "lat": "5.566670", "type": "ADM2", "awardID": "00047810", "lon": "95.333330", "precision": "1", "focus_area_descr": "-"}, {"outputID": "00057704", "output_locID": "00057704-1", "name": "Provinsi Jawa Tengah", "focus_area": "-", "lat": "-7.500000", "type": "ADM1", "awardID": "00047810", "lon": "110.000000", "precision": "1", "focus_area_descr": "-"}, {"outputID": "00070263", "output_locID": "00070263-1", "name": "Provinsi Sulawesi Selatan", "focus_area": "-", "lat": "-4.333330", "type": "ADM1", "awardID": "00047810", "lon": "120.250000", "precision": "1", "focus_area_descr": "-"}]}, {"title": "energy standard and labeling", "id": "00058270", "subnational": [{"outputID": "00072328", "output_locID": "00072328-1", "name": "Jakarta", "focus_area": "1", "lat": "-6.214620", "type": "PPLC", "awardID": "00058270", "lon": "106.845130", "precision": "1", "focus_area_descr": "Inclusive & Sustainable Growth"}, {"outputID": "00078269", "output_locID": "00078269-1", "name": "Jakarta", "focus_area": "1", "lat": "-6.214620", "type": "PPLC", "awardID": "00058270", "lon": "106.845130", "precision": "1", "focus_area_descr": "Inclusive & Sustainable Growth"}]}, {"title": "arafura and timor seas ecosystem action programme", "id": "00058440", "subnational": [{"outputID": "00072601", "output_locID": "00072601-1", "name": "Jakarta", "focus_area": "2", "lat": "-6.214620", "type": "PPLC", "awardID": "00058440", "lon": "106.845130", "precision": "1", "focus_area_descr": "Democratic Governance"}]}, {"title": "support to climate change trust fund", "id": "00060014", "subnational": [{"outputID": "00075322", "output_locID": "00075322-1", "name": "Jakarta", "focus_area": "1", "lat": "-6.214620", "type": "PPLC", "awardID": "00060014", "lon": "106.845130", "precision": "1", "focus_area_descr": "Inclusive & Sustainable Growth"}, {"outputID": "00075323", "output_locID": "00075323-1", "name": "Jakarta", "focus_area": "1", "lat": "-6.214620", "type": "PPLC", "awardID": "00060014", "lon": "106.845130", "precision": "1", "focus_area_descr": "Inclusive & Sustainable Growth"}]}, {"title": "tsunami recovery waste project", "id": "00060044", "subnational": [{"outputID": "00086695", "output_locID": "00086695-1", "name": "Kota Banda Aceh", "focus_area": "6", "lat": "5.566670", "type": "ADM2", "awardID": "00060044", "lon": "95.333330", "precision": "1", "focus_area_descr": "Crisis Prevention & Recovery"}, {"outputID": "00075384", "output_locID": "00075384-1", "name": "Banda Aceh", "focus_area": "6", "lat": "5.557700", "type": "PPLA", "awardID": "00060044", "lon": "95.322200", "precision": "1", "focus_area_descr": "Crisis Prevention & Recovery"}]}, {"title": "participatory governance assessment", "id": "00071337", "subnational": [{"outputID": "00084870", "output_locID": "00084870-1", "name": "Sumatera Selatan", "focus_area": "2", "lat": "-2.750000", "type": "ADM1", "awardID": "00071337", "lon": "103.833330", "precision": "1", "focus_area_descr": "Democratic Governance"}]}, {"title": "promoting energy efficiency for non-hcfc refrigeration a", "id": "00072677", "subnational": [{"outputID": "00085740", "output_locID": "00085740-1", "name": "Jakarta", "focus_area": "1", "lat": "-6.214620", "type": "PPLC", "awardID": "00072677", "lon": "106.845130", "precision": "1", "focus_area_descr": "Inclusive & Sustainable Growth"}]}, {"title": "initiatives to combat and adapt to cc challenges", "id": "00073823", "subnational": [{"outputID": "00086461", "output_locID": "00086461-1", "name": "Jakarta", "focus_area": "1", "lat": "-6.214620", "type": "PPLC", "awardID": "00073823", "lon": "106.845130", "precision": "1", "focus_area_descr": "Inclusive & Sustainable Growth"}]}, {"title": "transforming effectiveness of biodiversity conservation", "id": "00080425", "subnational": [{"outputID": "00090110", "output_locID": "00090110-1", "name": "Jakarta", "focus_area": "1", "lat": "-6.214620", "type": "PPLC", "awardID": "00080425", "lon": "106.845130", "precision": "1", "focus_area_descr": "Inclusive & Sustainable Growth"}]}, {"title": "voter information campaign (vici)", "id": "00013093", "subnational": []}, {"title": "legal empowerment and assistance for the disadvantaged", "id": "00043641", "subnational": [{"outputID": "00080210", "output_locID": "00080210-1", "name": "Sulawesi Tengah", "focus_area": "3", "lat": "-0.916600", "type": "ADM1", "awardID": "00043641", "lon": "122.353800", "precision": "1", "focus_area_descr": "Responsive Institutions"}]}, {"title": "integrated microhydro development", "id": "00043800", "subnational": [{"outputID": "00051240", "output_locID": "00051240-1", "name": "Jakarta", "focus_area": "-", "lat": "-6.214620", "type": "PPLC", "awardID": "00043800", "lon": "106.845130", "precision": "1", "focus_area_descr": "-"}]}, {"title": "partnership for governance reform in indonesia", "id": "00045812", "subnational": []}, {"title": "microturbine cogeneration technology application project", "id": "00049011", "subnational": [{"outputID": "00059512", "output_locID": "00059512-1", "name": "Jakarta", "focus_area": "1", "lat": "-6.214620", "type": "PPLC", "awardID": "00049011", "lon": "106.845130", "precision": "1", "focus_area_descr": "Inclusive & Sustainable Growth"}]}, {"title": "support to indonesia's democratic elections", "id": "00050243", "subnational": [{"outputID": "00061962", "output_locID": "00061962-1", "name": "Jakarta", "focus_area": "2", "lat": "-6.214620", "type": "PPLC", "awardID": "00050243", "lon": "106.845130", "precision": "1", "focus_area_descr": "Democratic Governance"}, {"outputID": "00062253", "output_locID": "00062253-1", "name": "Jakarta", "focus_area": "2", "lat": "-6.214620", "type": "PPLC", "awardID": "00050243", "lon": "106.845130", "precision": "1", "focus_area_descr": "Democratic Governance"}]}, {"title": "transitional multi donor fund for aid for effectiveness", "id": "00057994", "subnational": [{"outputID": "00072796", "output_locID": "00072796-1", "name": "Jakarta", "focus_area": "1", "lat": "-6.214620", "type": "PPLC", "awardID": "00057994", "lon": "106.845130", "precision": "1", "focus_area_descr": "Inclusive & Sustainable Growth"}, {"outputID": "00072797", "output_locID": "00072797-1", "name": "Jakarta", "focus_area": "1", "lat": "-6.214620", "type": "PPLC", "awardID": "00057994", "lon": "106.845130", "precision": "1", "focus_area_descr": "Inclusive & Sustainable Growth"}]}, {"title": "unredd in indonesia", "id": "00058897", "subnational": [{"outputID": "00073846", "output_locID": "00073846-1", "name": "Provinsi Kalimantan Tengah", "focus_area": "1", "lat": "-2.000000", "type": "ADM1", "awardID": "00058897", "lon": "113.500000", "precision": "1", "focus_area_descr": "Inclusive & Sustainable Growth"}]}, {"title": "strengthening indonesia mitigation and adaptation", "id": "00061932", "subnational": [{"outputID": "00079052", "output_locID": "00079052-1", "name": "Jakarta", "focus_area": "1", "lat": "-6.214620", "type": "PPLC", "awardID": "00061932", "lon": "106.845130", "precision": "1", "focus_area_descr": "Inclusive & Sustainable Growth"}, {"outputID": "00082420", "output_locID": "00082420-1", "name": "Jakarta", "focus_area": "1", "lat": "-6.214620", "type": "PPLC", "awardID": "00061932", "lon": "106.845130", "precision": "1", "focus_area_descr": "Inclusive & Sustainable Growth"}, {"outputID": "00084372", "output_locID": "00084372-1", "name": "Jakarta", "focus_area": "1", "lat": "-6.214620", "type": "PPLC", "awardID": "00061932", "lon": "106.845130", "precision": "1", "focus_area_descr": "Inclusive & Sustainable Growth"}]}, {"title": "strengthen implementation of grants", "id": "00062271", "subnational": [{"outputID": "00079691", "output_locID": "00079691-1", "name": "Jakarta", "focus_area": "7", "lat": "-6.214620", "type": "PPLC", "awardID": "00062271", "lon": "106.845130", "precision": "1", "focus_area_descr": "Development Impact & Effectiveness"}]}, {"title": "enhancing protected area", "id": "00067158", "subnational": [{"outputID": "00083066", "output_locID": "00083066-1", "name": "Sulawesi Tengah", "focus_area": "1", "lat": "-0.916600", "type": "ADM1", "awardID": "00067158", "lon": "122.353800", "precision": "1", "focus_area_descr": "Inclusive & Sustainable Growth"}]}, {"title": "third national communication to unfccc", "id": "00068219", "subnational": [{"outputID": "00083541", "output_locID": "00083541-1", "name": "Jakarta", "focus_area": "1", "lat": "-6.214620", "type": "PPLC", "awardID": "00068219", "lon": "106.845130", "precision": "1", "focus_area_descr": "Inclusive & Sustainable Growth"}]}, {"title": "reducing pbde and upops", "id": "00072772", "subnational": [{"outputID": "00085816", "output_locID": "00085816-1", "name": "Jakarta", "focus_area": "1", "lat": "-6.214620", "type": "PPLC", "awardID": "00072772", "lon": "106.845130", "precision": "1", "focus_area_descr": "Inclusive & Sustainable Growth"}]}, {"title": "gfatm - joint technical and management support", "id": "00080998", "subnational": []}, {"title": "ta for sustained economic recovery", "id": "00013061", "subnational": [{"outputID": "00013061", "output_locID": "00013061-1", "name": "Jakarta", "focus_area": "-", "lat": "-6.214620", "type": "PPLC", "awardID": "00013061", "lon": "106.845130", "precision": "1", "focus_area_descr": "-"}]}, {"title": "swedish tf:  governance partnership", "id": "00013075", "subnational": []}, {"title": "papua - capacity 2015", "id": "00035419", "subnational": [{"outputID": "00038018", "output_locID": "00038018-1", "name": "Provinsi Papua", "focus_area": "-", "lat": "-4.750000", "type": "ADM1", "awardID": "00035419", "lon": "138.000000", "precision": "1", "focus_area_descr": "-"}]}, {"title": "enabling the partnership", "id": "00035926", "subnational": [{"outputID": "00038792", "output_locID": "00038792-1", "name": "Jakarta", "focus_area": "-", "lat": "-6.214620", "type": "PPLC", "awardID": "00035926", "lon": "106.845130", "precision": "1", "focus_area_descr": "-"}]}, {"title": "technical support for reconstruction agency-aceh&nias", "id": "00042065", "subnational": [{"outputID": "00061586", "output_locID": "00061586-1", "name": "Kota Banda Aceh", "focus_area": "5", "lat": "5.566670", "type": "ADM2", "awardID": "00042065", "lon": "95.333330", "precision": "1", "focus_area_descr": "Climate Change & Disaster Resilience"}, {"outputID": "00074562", "output_locID": "00074562-1", "name": "Sumatera Utara", "focus_area": "5", "lat": "2.000000", "type": "ADM1", "awardID": "00042065", "lon": "99.000000", "precision": "1", "focus_area_descr": "Climate Change & Disaster Resilience"}]}, {"title": "mahakam delta", "id": "00044804", "subnational": [{"outputID": "00052814", "output_locID": "00052814-1", "name": "Republic of Indonesia", "focus_area": "-", "lat": "-5.000000", "type": "PCLI", "awardID": "00044804", "lon": "120.000000", "precision": "1", "focus_area_descr": "-"}]}, {"title": "aceh government transformation programme", "id": "00048350", "subnational": [{"outputID": "00080309", "output_locID": "00080309-1", "name": "Kota Banda Aceh", "focus_area": "-", "lat": "5.566670", "type": "ADM2", "awardID": "00048350", "lon": "95.333330", "precision": "1", "focus_area_descr": "-"}, {"outputID": "00058434", "output_locID": "00058434-1", "name": "Republic of Indonesia", "focus_area": "-", "lat": "-5.000000", "type": "PCLI", "awardID": "00048350", "lon": "120.000000", "precision": "1", "focus_area_descr": "-"}, {"outputID": "00063217", "output_locID": "00063217-1", "name": "Kota Banda Aceh", "focus_area": "-", "lat": "5.566670", "type": "ADM2", "awardID": "00048350", "lon": "95.333330", "precision": "1", "focus_area_descr": "-"}, {"outputID": "00063218", "output_locID": "00063218-1", "name": "Kota Banda Aceh", "focus_area": "-", "lat": "5.566670", "type": "ADM2", "awardID": "00048350", "lon": "95.333330", "precision": "1", "focus_area_descr": "-"}]}, {"title": "disaster risk reduction - aceh", "id": "00049235", "subnational": [{"outputID": "00059890", "output_locID": "00059890-1", "name": "Kota Banda Aceh", "focus_area": "-", "lat": "5.566670", "type": "ADM2", "awardID": "00049235", "lon": "95.333330", "precision": "1", "focus_area_descr": "-"}]}, {"title": "indonesia partnership fund for hiv 2008-2015", "id": "00050241", "subnational": [{"outputID": "00061960", "output_locID": "00061960-1", "name": "Republic of Indonesia", "focus_area": "1", "lat": "-5.000000", "type": "PCLI", "awardID": "00050241", "lon": "120.000000", "precision": "1", "focus_area_descr": "Inclusive & Sustainable Growth"}, {"outputID": "00077929", "output_locID": "00077929-1", "name": "Republic of Indonesia", "focus_area": "3", "lat": "-5.000000", "type": "PCLI", "awardID": "00050241", "lon": "120.000000", "precision": "1", "focus_area_descr": "Responsive Institutions"}]}, {"title": "enhancing capacity for better aid management", "id": "00051205", "subnational": [{"outputID": "00063682", "output_locID": "00063682-1", "name": "Jakarta", "focus_area": "-", "lat": "-6.214620", "type": "PPLC", "awardID": "00051205", "lon": "106.845130", "precision": "1", "focus_area_descr": "-"}, {"outputID": "00063683", "output_locID": "00063683-1", "name": "Jakarta", "focus_area": "-", "lat": "-6.214620", "type": "PPLC", "awardID": "00051205", "lon": "106.845130", "precision": "1", "focus_area_descr": "-"}, {"outputID": "00063643", "output_locID": "00063643-1", "name": "Jakarta", "focus_area": "-", "lat": "-6.214620", "type": "PPLC", "awardID": "00051205", "lon": "106.845130", "precision": "1", "focus_area_descr": "-"}]}, {"title": "articulating governance and local development in indones", "id": "00057623", "subnational": [{"outputID": "00071271", "output_locID": "00071271-1", "name": "Provinsi Nusa Tenggara Timur", "focus_area": "-", "lat": "-8.657380", "type": "ADM1", "awardID": "00057623", "lon": "121.079370", "precision": "1", "focus_area_descr": "-"}, {"outputID": "00071272", "output_locID": "00071272-1", "name": "Sulawesi Tengah", "focus_area": "-", "lat": "-0.916600", "type": "ADM1", "awardID": "00057623", "lon": "122.353800", "precision": "1", "focus_area_descr": "-"}, {"outputID": "00071270", "output_locID": "00071270-1", "name": "Provinsi Gorontalo", "focus_area": "-", "lat": "0.693000", "type": "ADM1", "awardID": "00057623", "lon": "122.470400", "precision": "1", "focus_area_descr": "-"}]}, {"title": "indonesia climate change trust fund", "id": "00059247", "subnational": [{"outputID": "00074042", "output_locID": "00074042-1", "name": "Jakarta", "focus_area": "-", "lat": "-6.214620", "type": "PPLC", "awardID": "00059247", "lon": "106.845130", "precision": "1", "focus_area_descr": "-"}]}, {"title": "strategic climate adaptation", "id": "00061065", "subnational": [{"outputID": "00077177", "output_locID": "00077177-1", "name": "Provinsi Nusa Tenggara Timur", "focus_area": "-", "lat": "-8.657380", "type": "ADM1", "awardID": "00061065", "lon": "121.079370", "precision": "1", "focus_area_descr": "-"}]}, {"title": "the participatory governance assessment for redd+", "id": "00061901", "subnational": [{"outputID": "00078974", "output_locID": "00078974-1", "name": "Provinsi Jambi", "focus_area": "-", "lat": "-1.500000", "type": "ADM1", "awardID": "00061901", "lon": "103.000000", "precision": "1", "focus_area_descr": "-"}]}, {"title": "sector phase-out plan in the refrigeration", "id": "00013085", "subnational": [{"outputID": "00013085", "output_locID": "00013085-1", "name": "Republic of Indonesia", "focus_area": "-", "lat": "-5.000000", "type": "PCLI", "awardID": "00013085", "lon": "120.000000", "precision": "1", "focus_area_descr": "-"}]}, {"title": "national capacity self assessment", "id": "00033093", "subnational": []}, {"title": "governance reform", "id": "00033872", "subnational": []}, {"title": "aceh emergency programme", "id": "00038597", "subnational": [{"outputID": "00042897", "output_locID": "00042897-1", "name": "Kota Banda Aceh", "focus_area": "-", "lat": "5.566670", "type": "ADM2", "awardID": "00038597", "lon": "95.333330", "precision": "1", "focus_area_descr": "-"}]}, {"title": "peace through development", "id": "00039113", "subnational": [{"outputID": "00043696", "output_locID": "00043696-1", "name": "Provinsi Maluku Utara", "focus_area": "-", "lat": "-0.250000", "type": "ADM1", "awardID": "00039113", "lon": "127.500000", "precision": "1", "focus_area_descr": "-"}, {"outputID": "00043696", "output_locID": "00043696-2", "name": "Provinsi Maluku Utara", "focus_area": "-", "lat": "-0.250000", "type": "ADM1", "awardID": "00039113", "lon": "127.500000", "precision": "1", "focus_area_descr": "-"}]}, {"title": "multy donor trust fund : waste management project", "id": "00042647", "subnational": []}, {"title": "to assess,reinforce&gear efforts toward mdg in indonesia", "id": "00043973", "subnational": []}, {"title": "avian and human influenza coordination activity", "id": "00045230", "subnational": []}, {"title": "strengthened capacity to principal recipeinin indonesia", "id": "00048139", "subnational": []}, {"title": "the nias islands transition project", "id": "00051053", "subnational": [{"outputID": "00063380", "output_locID": "00063380-1", "name": "Pulau Nias", "focus_area": "-", "lat": "1.121500", "type": "ISL", "awardID": "00051053", "lon": "97.618100", "precision": "1", "focus_area_descr": "-"}, {"outputID": "00063420", "output_locID": "00063420-1", "name": "Nias Selatan", "focus_area": "-", "lat": "0.770000", "type": "ADM2", "awardID": "00051053", "lon": "97.750000", "precision": "1", "focus_area_descr": "-"}, {"outputID": "00071328", "output_locID": "00071328-1", "name": "Nias Selatan", "focus_area": "-", "lat": "0.770000", "type": "ADM2", "awardID": "00051053", "lon": "97.750000", "precision": "1", "focus_area_descr": "-"}]}, {"title": "community development programme west nusa tenggara", "id": "00060042", "subnational": []}, {"title": "ilo rural roads phase iii", "id": "00062619", "subnational": [{"outputID": "00080126", "output_locID": "00080126-1", "name": "Kota Banda Aceh", "focus_area": "-", "lat": "5.566670", "type": "ADM2", "awardID": "00062619", "lon": "95.333330", "precision": "1", "focus_area_descr": "-"}]}, {"title": "common services", "id": "00051370", "subnational": []}, {"title": "development policy support project", "id": "00058521", "subnational": []}, {"title": "enhancing com, advoc and pub part cap for legal reforms", "id": "00043298", "subnational": []}, {"title": "forest and climate change", "id": "00059208", "subnational": []}, {"title": "gep-wri raising the profile (gender project)", "id": "00051021", "subnational": []}, {"title": "ilo - rural roads phase i&ii", "id": "00043685", "subnational": []}, {"title": "mdtf trprp - port redevelopment", "id": "00043562", "subnational": []}, {"title": "phase-out mngmt plan for cfcs-ref (servicing)", "id": "00013089", "subnational": []}, {"title": "pip on persistent organic pollutants (pops) mgt", "id": "00059844", "subnational": []}, {"title": "recovery initiatives for sumatera earthquakes", "id": "00058376", "subnational": []}, {"title": "response to aceh disaster", "id": "00038024", "subnational": []}, {"title": "study on corporate social responsibility", "id": "00060284", "subnational": []}, {"title": "support to justice for peace and development in aceh", "id": "00044584", "subnational": []}, {"title": "support to strengthen the capacity and role of cso", "id": "00042539", "subnational": []}, {"title": "switch to biogas: assists dairy farming communities", "id": "00056995", "subnational": []}, {"title": "training future experts on cc & poverty in aceh", "id": "00057565", "subnational": []}, {"title": "wind hybrid power generation", "id": "00059199", "subnational": []}, {"title": "women in politics and government", "id": "00061349", "subnational": []}], "op_unit": "IDN"}