{"iso_num":"360","op_unit":"IDN","projects":[{"id":"00048350","subnational":[{"awardID":"00048350","focus_area":"2","focus_area_descr":"Democratic governance","lat":"-5","lon":"120","name":"Indonesia","outputID":"00058434","output_locID":"00058434-1","precision":"9","type":"PCL"},{"awardID":"00048350","focus_area":"2","focus_area_descr":"Democratic governance","lat":"5.5577","lon":"95.3222","name":"Banda Aceh","outputID":"00063217","output_locID":"00063217-1","precision":"4","type":"ADM1"},{"awardID":"00048350","focus_area":"2","focus_area_descr":"Democratic governance","lat":"5.5577","lon":"95.3222","name":"Banda Aceh","outputID":"00063218","output_locID":"00063218-1","precision":"4","type":"ADM1"},{"awardID":"00048350","focus_area":"-","focus_area_descr":"-","lat":"5.5577","lon":"95.3222","name":"Banda Aceh","outputID":"00080309","output_locID":"00080309-1","precision":"4","type":"ADM1"}],"title":"Aceh Government Transformation Programme"},{"id":"00058440","subnational":[{"awardID":"00058440","focus_area":"4","focus_area_descr":"Environment & sustainable development","lat":"-6.21462","lon":"106.84513","name":"Jakarta","outputID":"00072601","output_locID":"00072601-1","precision":"3","type":"PPLC"}],"title":"Arafura and Timor Seas Ecosystem Action Programme"},{"id":"00057623","subnational":[{"awardID":"00057623","focus_area":"2","focus_area_descr":"Democratic governance","lat":"0.5412","lon":"123.0595","name":"Gorontalo","outputID":"00071270","output_locID":"00071270-1","precision":"4","type":"ADM1"},{"awardID":"00057623","focus_area":"2","focus_area_descr":"Democratic governance","lat":"-10.1718","lon":"123.6075","name":"East Nusa Tenggara","outputID":"00071271","output_locID":"00071271-1","precision":"4","type":"ADM1"},{"awardID":"00057623","focus_area":"2","focus_area_descr":"Democratic governance","lat":"-0.8917","lon":"119.8707","name":"Central Sulawesi","outputID":"00071272","output_locID":"00071272-1","precision":"4","type":"ADM1"}],"title":"Articulating Governance and Local Development in Indones"},{"id":"00042855","subnational":[{"awardID":"00042855","focus_area":"2","focus_area_descr":"Democratic governance","lat":"-6.21462","lon":"106.84513","name":"Jakarta","outputID":"00049773","output_locID":"00049773-1","precision":"3","type":"PPLC"}],"title":"Deepening Democracy in Indonesia"},{"id":"00061140","subnational":[{"awardID":"00061140","focus_area":"1","focus_area_descr":"Poverty reduction & MDG achievement","lat":"-6.21462","lon":"106.84513","name":"Jakarta","outputID":"00077333","output_locID":"00077333-1","precision":"3","type":"PPLC"}],"title":"Development Advisory Services"},{"id":"00049235","subnational":[{"awardID":"00049235","focus_area":"3","focus_area_descr":"Crisis prevention & recovery","lat":"5.5577","lon":"95.3222","name":"Banda Aceh","outputID":"00059890","output_locID":"00059890-1","precision":"4","type":"ADM1"}],"title":"Disaster Risk Reduction - Aceh"},{"id":"00051288","subnational":[{"awardID":"00051288","focus_area":"3","focus_area_descr":"Crisis prevention & recovery","lat":"-7.83333","lon":"110.25","name":"Boyolali","outputID":"00063802","output_locID":"00063802-1","precision":"3","type":"ADM2"},{"awardID":"00051288","focus_area":"3","focus_area_descr":"Crisis prevention & recovery","lat":"-7.47056","lon":"110.21778","name":"Magelang","outputID":"00076483","output_locID":"00076483-1","precision":"3","type":"PPL"},{"awardID":"00051288","focus_area":"3","focus_area_descr":"Crisis prevention & recovery","lat":"-7.71889","lon":"110.60528","name":"Klaten","outputID":"00076484","output_locID":"00076484-1","precision":"3","type":"ADM2"},{"awardID":"00051288","focus_area":"3","focus_area_descr":"Crisis prevention & recovery","lat":"-1.98917","lon":"99.51902","name":"Mentawai","outputID":"00076485","output_locID":"00076485-1","precision":"4","type":"RES"},{"awardID":"00051288","focus_area":"3","focus_area_descr":"Crisis prevention & recovery","lat":"-7.71556","lon":"110.35556","name":"Sleman","outputID":"00077008","output_locID":"00077008-1","precision":"3","type":"PPL"},{"awardID":"00051288","focus_area":"3","focus_area_descr":"Crisis prevention & recovery","lat":"-7.78278","lon":"110.36083","name":"Yogyakarta","outputID":"00087191","output_locID":"00087191-1","precision":"4","type":"ADM1"}],"title":"Disaster Risk Reduction based Rehab.&Reconst."},{"id":"00035926","subnational":[{"awardID":"00035926","focus_area":"-","focus_area_descr":"-","lat":"-6.21462","lon":"106.84513","name":"Jakarta","outputID":"00038792","output_locID":"00038792-1","precision":"3","type":"PPLC"}],"title":"ENABLING THE PARTNERSHIP"},{"id":"00058270","subnational":[{"awardID":"00058270","focus_area":"4","focus_area_descr":"Environment & sustainable development","lat":"-6.21462","lon":"106.84513","name":"Jakarta","outputID":"00072328","output_locID":"00072328-1","precision":"3","type":"PPLC"},{"awardID":"00058270","focus_area":"4","focus_area_descr":"Environment & sustainable development","lat":"-6.21462","lon":"106.84513","name":"Jakarta","outputID":"00078269","output_locID":"00078269-1","precision":"3","type":"PPLC"}],"title":"Energy Standard and Labeling"},{"id":"00051205","subnational":[{"awardID":"00051205","focus_area":"1","focus_area_descr":"Poverty reduction & MDG achievement","lat":"-6.21462","lon":"106.84513","name":"Jakarta","outputID":"00063643","output_locID":"00063643-1","precision":"3","type":"PPLC"},{"awardID":"00051205","focus_area":"1","focus_area_descr":"Poverty reduction & MDG achievement","lat":"-6.21462","lon":"106.84513","name":"Jakarta","outputID":"00063682","output_locID":"00063682-1","precision":"3","type":"PPLC"},{"awardID":"00051205","focus_area":"1","focus_area_descr":"Poverty reduction & MDG achievement","lat":"-6.21462","lon":"106.84513","name":"Jakarta","outputID":"00063683","output_locID":"00063683-1","precision":"3","type":"PPLC"}],"title":"Enhancing Capacity for Better Aid Management"},{"id":"00067158","subnational":[{"awardID":"00067158","focus_area":"-","focus_area_descr":"-","lat":"-0.8917","lon":"119.8707","name":"Central Sulawesi","outputID":"00083066","output_locID":"00083066-1","precision":"4","type":"ADM1"}],"title":"Enhancing Protected Area"},{"id":"00065312","subnational":[{"awardID":"00065312","focus_area":"4","focus_area_descr":"Environment & sustainable development","lat":"-6.21462","lon":"106.84513","name":"Jakarta","outputID":"00081873","output_locID":"00081873-1","precision":"3","type":"PPLC"}],"title":"Hydrochlorofluorocarbons Phase-out Management Plan"},{"id":"00062619","subnational":[{"awardID":"00062619","focus_area":"-","focus_area_descr":"-","lat":"5.5577","lon":"95.3222","name":"Banda Aceh","outputID":"00080126","output_locID":"00080126-1","precision":"4","type":"ADM1"}],"title":"ILO RURAL ROADS PHASE III"},{"id":"00059247","subnational":[{"awardID":"00059247","focus_area":"4","focus_area_descr":"Environment & sustainable development","lat":"-6.21462","lon":"106.84513","name":"Jakarta","outputID":"00074042","output_locID":"00074042-1","precision":"3","type":"PPLC"}],"title":"Indonesia Climate Change Trust Fund"},{"id":"00050241","subnational":[{"awardID":"00050241","focus_area":"1","focus_area_descr":"Poverty reduction & MDG achievement","lat":"-5","lon":"120","name":"Indonesia","outputID":"00061960","output_locID":"00061960-1","precision":"9","type":"PCL"},{"awardID":"00050241","focus_area":"1","focus_area_descr":"Poverty reduction & MDG achievement","lat":"-5","lon":"120","name":"Indonesia","outputID":"00077929","output_locID":"00077929-1","precision":"9","type":"PCL"}],"title":"INDONESIA PARTNERSHIP FUND FOR HIV 2008-2015"},{"id":"00073823","subnational":[{"awardID":"00073823","focus_area":"4","focus_area_descr":"Environment & sustainable development","lat":"-6.21462","lon":"106.84513","name":"Jakarta","outputID":"00086461","output_locID":"00086461-1","precision":"3","type":"PPLC"}],"title":"Initiatives to Combat and Adapt to CC Challenges"},{"id":"00050588","subnational":[{"awardID":"00050588","focus_area":"-","focus_area_descr":"-","lat":"-6.21462","lon":"106.84513","name":"Jakarta","outputID":"00082684","output_locID":"00082684-1","precision":"3","type":"PPLC"}],"title":"Institutional Strengthening Phase 6 - IDS/SEV/53/INV/180"},{"id":"00043800","subnational":[{"awardID":"00043800","focus_area":"4","focus_area_descr":"Environment & sustainable development","lat":"-6.21462","lon":"106.84513","name":"Jakarta","outputID":"00051240","output_locID":"00051240-1","precision":"3","type":"PPLC"}],"title":"INTEGRATED MICROHYDRO DEVELOPMENT"},{"id":"00043641","subnational":[{"awardID":"00043641","focus_area":"-","focus_area_descr":"-","lat":"-0.8917","lon":"119.8707","name":"Central Sulawesi","outputID":"00080210","output_locID":"00080210-1","precision":"4","type":"ADM1"}],"title":"Legal Empowerment and Assistance for the Disadvantaged"},{"id":"00072823","subnational":[{"awardID":"00072823","focus_area":"-","focus_area_descr":"-","lat":"-6.21462","lon":"106.84513","name":"Jakarta","outputID":"00085846","output_locID":"00085846-1","precision":"3","type":"PPLC"}],"title":"Low Emission Capacity Building Project - Indonesia"},{"id":"00044804","subnational":[{"awardID":"00044804","focus_area":"4","focus_area_descr":"Environment & sustainable development","lat":"-5","lon":"120","name":"Indonesia","outputID":"00052814","output_locID":"00052814-1","precision":"9","type":"PCL"}],"title":"Mahakam Delta"},{"id":"00049011","subnational":[{"awardID":"00049011","focus_area":"4","focus_area_descr":"Environment & sustainable development","lat":"-6.21462","lon":"106.84513","name":"Jakarta","outputID":"00059512","output_locID":"00059512-1","precision":"3","type":"PPLC"}],"title":"Microturbine Cogeneration Technology Application Project"},{"id":"00068617","subnational":[{"awardID":"00068617","focus_area":"-","focus_area_descr":"-","lat":"-6.21462","lon":"106.84513","name":"Jakarta","outputID":"00083690","output_locID":"00083690-1","precision":"3","type":"PPLC"}],"title":"National Biodiv Planning to Support Impl CBD"},{"id":"00035419","subnational":[{"awardID":"00035419","focus_area":"-","focus_area_descr":"-","lat":"-4.0435","lon":"137.1249","name":"Papua","outputID":"00038018","output_locID":"00038018-1","precision":"4","type":"RES"}],"title":"PAPUA - CAPACITY 2015"},{"id":"00043640","subnational":[{"awardID":"00043640","focus_area":"1","focus_area_descr":"Poverty reduction & MDG achievement","lat":"-6.21462","lon":"106.84513","name":"Jakarta","outputID":"00051020","output_locID":"00051020-1","precision":"3","type":"PPLC"}],"title":"PAPUA DEVELOPMENT PROGRAMME"},{"id":"00071337","subnational":[{"awardID":"00071337","focus_area":"-","focus_area_descr":"-","lat":"-2.91673","lon":"104.7458","name":"South Sumatera","outputID":"00084870","output_locID":"00084870-1","precision":"4","type":"ADM1"}],"title":"Participatory Governance Assessment"},{"id":"00039113","subnational":[{"awardID":"00039113","focus_area":"3","focus_area_descr":"Crisis prevention & recovery","lat":"-3.69543","lon":"128.1814","name":"Maluku","outputID":"00043696","output_locID":"00043696-1","precision":"4","type":"ADM1"}],"title":"Peace Through Development"},{"id":"00060770","subnational":[{"awardID":"00060770","focus_area":"3","focus_area_descr":"Crisis prevention & recovery","lat":"-3.69543","lon":"128.1814","name":"Maluku","outputID":"00076657","output_locID":"00076657-1","precision":"4","type":"ADM1"},{"awardID":"00060770","focus_area":"3","focus_area_descr":"Crisis prevention & recovery","lat":"-7.29826","lon":"128.56194","name":"North Maluku","outputID":"00076658","output_locID":"00076658-1","precision":"4","type":"RES"},{"awardID":"00060770","focus_area":"3","focus_area_descr":"Crisis prevention & recovery","lat":"5.5577","lon":"95.3222","name":"Banda Aceh","outputID":"00076660","output_locID":"00076660-1","precision":"4","type":"ADM1"}],"title":"Peace Through Development in Disadvantaged Areas (PTDDA)"},{"id":"00060467","subnational":[{"awardID":"00060467","focus_area":"1","focus_area_descr":"Poverty reduction & MDG achievement","lat":"-4.0435","lon":"137.1249","name":"Papua","outputID":"00076143","output_locID":"00076143-1","precision":"4","type":"RES"},{"awardID":"00060467","focus_area":"1","focus_area_descr":"Poverty reduction & MDG achievement","lat":"-4.0435","lon":"137.1249","name":"West Papua","outputID":"00082375","output_locID":"00082375-1","precision":"4","type":"RES"},{"awardID":"00060467","focus_area":"1","focus_area_descr":"Poverty reduction & MDG achievement","lat":"-4.0435","lon":"137.1249","name":"Papua","outputID":"00082376","output_locID":"00082376-1","precision":"4","type":"RES"},{"awardID":"00060467","focus_area":"1","focus_area_descr":"Poverty reduction & MDG achievement","lat":"-4.0435","lon":"137.1249","name":"West Papua","outputID":"00082377","output_locID":"00082377-1","precision":"4","type":"RES"},{"awardID":"00060467","focus_area":"1","focus_area_descr":"Poverty reduction & MDG achievement","lat":"-4.0435","lon":"137.1249","name":"Papua","outputID":"00082378","output_locID":"00082378-1","precision":"4","type":"RES"},{"awardID":"00060467","focus_area":"1","focus_area_descr":"Poverty reduction & MDG achievement","lat":"-4.0435","lon":"137.1249","name":"West Papua","outputID":"00082408","output_locID":"00082408-1","precision":"4","type":"RES"}],"title":"People-centered Development Project - Phase II"},{"id":"00072677","subnational":[{"awardID":"00072677","focus_area":"-","focus_area_descr":"-","lat":"-6.21462","lon":"106.84513","name":"Jakarta","outputID":"00085740","output_locID":"00085740-1","precision":"3","type":"PPLC"}],"title":"Promoting Energy Efficiency for Non-HCFC Refrigeration a"},{"id":"00057787","subnational":[{"awardID":"00057787","focus_area":"2","focus_area_descr":"Democratic governance","lat":"-6.21462","lon":"106.84513","name":"Jakarta","outputID":"00071518","output_locID":"00071518-1","precision":"3","type":"PPLC"},{"awardID":"00057787","focus_area":"2","focus_area_descr":"Democratic governance","lat":"-2.66667","lon":"106.66667","name":"Bangka Belitung","outputID":"00071519","output_locID":"00071519-1","precision":"4","type":"ADM1"},{"awardID":"00057787","focus_area":"2","focus_area_descr":"Democratic governance","lat":"0.5412","lon":"123.0595","name":"Gorontalo","outputID":"00071520","output_locID":"00071520-1","precision":"4","type":"ADM1"}],"title":"Provincial Governance Strengthening Programme"},{"id":"00075619","subnational":[{"awardID":"00075619","focus_area":"4","focus_area_descr":"Environment & sustainable development","lat":"-6.21462","lon":"106.84513","name":"Jakarta","outputID":"00087420","output_locID":"00087420-1","precision":"3","type":"PPLC"},{"awardID":"00075619","focus_area":"4","focus_area_descr":"Environment & sustainable development","lat":"-6.21462","lon":"106.84513","name":"Jakarta","outputID":"00087421","output_locID":"00087421-1","precision":"3","type":"PPLC"},{"awardID":"00075619","focus_area":"4","focus_area_descr":"Environment & sustainable development","lat":"-6.21462","lon":"106.84513","name":"Jakarta","outputID":"00087422","output_locID":"00087422-1","precision":"3","type":"PPLC"},{"awardID":"00075619","focus_area":"4","focus_area_descr":"Environment & sustainable development","lat":"-6.21462","lon":"106.84513","name":"Jakarta","outputID":"00087423","output_locID":"00087423-1","precision":"3","type":"PPLC"}],"title":"REDD+ Interim Phase"},{"id":"00072772","subnational":[{"awardID":"00072772","focus_area":"-","focus_area_descr":"-","lat":"-6.21462","lon":"106.84513","name":"Jakarta","outputID":"00085816","output_locID":"00085816-1","precision":"3","type":"PPLC"}],"title":"Reducing PBDE and UPOPs"},{"id":"00047810","subnational":[{"awardID":"00047810","focus_area":"3","focus_area_descr":"Crisis prevention & recovery","lat":"-10.1718","lon":"123.6075","name":"East Nusa Tenggara","outputID":"00057679","output_locID":"00057679-1","precision":"4","type":"ADM1"},{"awardID":"00047810","focus_area":"3","focus_area_descr":"Crisis prevention & recovery","lat":"5.5577","lon":"95.3222","name":"Banda Aceh","outputID":"00057702","output_locID":"00057702-1","precision":"4","type":"ADM1"},{"awardID":"00047810","focus_area":"3","focus_area_descr":"Crisis prevention & recovery","lat":"-4.0435","lon":"137.1249","name":"Papua","outputID":"00057703","output_locID":"00057703-1","precision":"4","type":"RES"},{"awardID":"00047810","focus_area":"3","focus_area_descr":"Crisis prevention & recovery","lat":"-6.9932","lon":"110.4203","name":"Central Java","outputID":"00057704","output_locID":"00057704-1","precision":"4","type":"ADM1"},{"awardID":"00047810","focus_area":"3","focus_area_descr":"Crisis prevention & recovery","lat":"-5.14","lon":"119.4221","name":"South Sulawesi","outputID":"00070263","output_locID":"00070263-1","precision":"4","type":"ADM1"}],"title":"Safer Communities through Disaster Risk Reduction"},{"id":"00071676","subnational":[{"awardID":"00071676","focus_area":"3","focus_area_descr":"Crisis prevention & recovery","lat":"-6.21462","lon":"106.84513","name":"Jakarta","outputID":"00085005","output_locID":"00085005-1","precision":"3","type":"PPLC"},{"awardID":"00071676","focus_area":"3","focus_area_descr":"Crisis prevention & recovery","lat":"-6.9932","lon":"110.4203","name":"Central Java","outputID":"00085006","output_locID":"00085006-1","precision":"4","type":"ADM1"}],"title":"Safer Communities through Disaster Risk Reduction Phs II"},{"id":"00013085","subnational":[{"awardID":"00013085","focus_area":"4","focus_area_descr":"Environment & sustainable development","lat":"-5","lon":"120","name":"Indonesia","outputID":"00013085","output_locID":"00013085-1","precision":"9","type":"PCL"}],"title":"Sector Phase-out Plan in the Refrigeration"},{"id":"00061065","subnational":[{"awardID":"00061065","focus_area":"4","focus_area_descr":"Environment & sustainable development","lat":"-10.1718","lon":"123.6075","name":"East Nusa Tenggara","outputID":"00077177","output_locID":"00077177-1","precision":"4","type":"ADM1"}],"title":"Strategic Climate Adaptation"},{"id":"00068398","subnational":[{"awardID":"00068398","focus_area":"4","focus_area_descr":"Environment & sustainable development","lat":"-10.1718","lon":"123.6075","name":"East Nusa Tenggara","outputID":"00083625","output_locID":"00083625-1","precision":"4","type":"ADM1"}],"title":"Strategic Planning and Action to Climate Resilience"},{"id":"00062271","subnational":[{"awardID":"00062271","focus_area":"-","focus_area_descr":"-","lat":"-6.21462","lon":"106.84513","name":"Jakarta","outputID":"00079691","output_locID":"00079691-1","precision":"3","type":"PPLC"}],"title":"STRENGTHEN IMPLEMENTATION OF GRANTS"},{"id":"00061763","subnational":[{"awardID":"00061763","focus_area":"2","focus_area_descr":"Democratic governance","lat":"-0.8917","lon":"119.8707","name":"Central Sulawesi","outputID":"00078515","output_locID":"00078515-1","precision":"4","type":"ADM1"},{"awardID":"00061763","focus_area":"2","focus_area_descr":"Democratic governance","lat":"-7.49944","lon":"110.80611","name":"Central Kalimantan","outputID":"00081783","output_locID":"00081783-1","precision":"4","type":"PPL"}],"title":"Strengthening Access to Justice in Indonesia"},{"id":"00056845","subnational":[{"awardID":"00056845","focus_area":"4","focus_area_descr":"Environment & sustainable development","lat":"-8.6881","lon":"116.124","name":"Dodokan","outputID":"00069901","output_locID":"00069901-1","precision":"3","type":"PPL"}],"title":"Strengthening Community Based Forest and Watershed"},{"id":"00061932","subnational":[{"awardID":"00061932","focus_area":"4","focus_area_descr":"Environment & sustainable development","lat":"-6.21462","lon":"106.84513","name":"Jakarta","outputID":"00079052","output_locID":"00079052-1","precision":"3","type":"PPLC"},{"awardID":"00061932","focus_area":"4","focus_area_descr":"Environment & sustainable development","lat":"-6.21462","lon":"106.84513","name":"Jakarta","outputID":"00082420","output_locID":"00082420-1","precision":"3","type":"PPLC"},{"awardID":"00061932","focus_area":"4","focus_area_descr":"Environment & sustainable development","lat":"-6.21462","lon":"106.84513","name":"Jakarta","outputID":"00084372","output_locID":"00084372-1","precision":"3","type":"PPLC"}],"title":"Strengthening Indonesia Mitigation and Adaptation"},{"id":"00067418","subnational":[{"awardID":"00067418","focus_area":"1","focus_area_descr":"Poverty reduction & MDG achievement","lat":"-6.21462","lon":"106.84513","name":"Jakarta","outputID":"00083188","output_locID":"00083188-1","precision":"3","type":"PPLC"}],"title":"Strengthening Innovative Partnership for Development"},{"id":"00066891","subnational":[{"awardID":"00066891","focus_area":"2","focus_area_descr":"Democratic governance","lat":"-6.21462","lon":"106.84513","name":"Jakarta","outputID":"00082916","output_locID":"00082916-1","precision":"3","type":"PPLC"}],"title":"Strengthening Women's Participation and Representation"},{"id":"00013080","subnational":[{"awardID":"00013080","focus_area":"-","focus_area_descr":"-","lat":"-6.21462","lon":"106.84513","name":"Jakarta","outputID":"00013080","output_locID":"00013080-1","precision":"3","type":"PPLC"}],"title":"Support for the the Crisis Prevention Recovery Unit"},{"id":"00060014","subnational":[{"awardID":"00060014","focus_area":"4","focus_area_descr":"Environment & sustainable development","lat":"-6.21462","lon":"106.84513","name":"Jakarta","outputID":"00075322","output_locID":"00075322-1","precision":"3","type":"PPLC"},{"awardID":"00060014","focus_area":"4","focus_area_descr":"Environment & sustainable development","lat":"-6.21462","lon":"106.84513","name":"Jakarta","outputID":"00075323","output_locID":"00075323-1","precision":"3","type":"PPLC"}],"title":"Support to Climate Change Trust Fund"},{"id":"00050243","subnational":[{"awardID":"00050243","focus_area":"2","focus_area_descr":"Democratic governance","lat":"-6.21462","lon":"106.84513","name":"Jakarta","outputID":"00061962","output_locID":"00061962-1","precision":"3","type":"PPLC"},{"awardID":"00050243","focus_area":"2","focus_area_descr":"Democratic governance","lat":"-6.21462","lon":"106.84513","name":"Jakarta","outputID":"00062253","output_locID":"00062253-1","precision":"3","type":"PPLC"}],"title":"Support to Indonesia's Democratic Elections"},{"id":"00061521","subnational":[{"awardID":"00061521","focus_area":"1","focus_area_descr":"Poverty reduction & MDG achievement","lat":"-6.21462","lon":"106.84513","name":"Jakarta","outputID":"00077954","output_locID":"00077954-1","precision":"3","type":"PPLC"},{"awardID":"00061521","focus_area":"1","focus_area_descr":"Poverty reduction & MDG achievement","lat":"-6.21462","lon":"106.84513","name":"Jakarta","outputID":"00086004","output_locID":"00086004-1","precision":"3","type":"PPLC"},{"awardID":"00061521","focus_area":"1","focus_area_descr":"Poverty reduction & MDG achievement","lat":"-6.21462","lon":"106.84513","name":"Jakarta","outputID":"00086006","output_locID":"00086006-1","precision":"3","type":"PPLC"}],"title":"SUPPORT TO THE ACCELERATION OF MDG ACHIEVEMENT IN INDONE"},{"id":"00060694","subnational":[{"awardID":"00060694","focus_area":"4","focus_area_descr":"Environment & sustainable development","lat":"-6.21462","lon":"106.84513","name":"Jakarta","outputID":"00076532","output_locID":"00076532-1","precision":"3","type":"PPLC"},{"awardID":"00060694","focus_area":"4","focus_area_descr":"Environment & sustainable development","lat":"-7.49944","lon":"110.80611","name":"Central Kalimantan","outputID":"00076555","output_locID":"00076555-1","precision":"4","type":"PPL"},{"awardID":"00060694","focus_area":"4","focus_area_descr":"Environment & sustainable development","lat":"-7.49944","lon":"110.80611","name":"Central Kalimantan","outputID":"00082624","output_locID":"00082624-1","precision":"4","type":"PPL"},{"awardID":"00060694","focus_area":"4","focus_area_descr":"Environment & sustainable development","lat":"-7.49944","lon":"110.80611","name":"Central Kalimantan","outputID":"00082629","output_locID":"00082629-1","precision":"4","type":"PPL"},{"awardID":"00060694","focus_area":"4","focus_area_descr":"Environment & sustainable development","lat":"-7.49944","lon":"110.80611","name":"Central Kalimantan","outputID":"00082630","output_locID":"00082630-1","precision":"4","type":"PPL"},{"awardID":"00060694","focus_area":"-","focus_area_descr":"-","lat":"-7.49944","lon":"110.80611","name":"Central Kalimantan","outputID":"00082645","output_locID":"00082645-1","precision":"4","type":"PPL"},{"awardID":"00060694","focus_area":"-","focus_area_descr":"-","lat":"-6.21462","lon":"106.84513","name":"Jakarta","outputID":"00082646","output_locID":"00082646-1","precision":"3","type":"PPLC"},{"awardID":"00060694","focus_area":"-","focus_area_descr":"-","lat":"-6.21462","lon":"106.84513","name":"Jakarta","outputID":"00082647","output_locID":"00082647-1","precision":"3","type":"PPLC"},{"awardID":"00060694","focus_area":"-","focus_area_descr":"-","lat":"-7.49944","lon":"110.80611","name":"Central Kalimantan","outputID":"00082648","output_locID":"00082648-1","precision":"4","type":"PPL"},{"awardID":"00060694","focus_area":"-","focus_area_descr":"-","lat":"-7.49944","lon":"110.80611","name":"Central Kalimantan","outputID":"00082649","output_locID":"00082649-1","precision":"4","type":"PPL"}],"title":"Support to the Establishment of Indonesia REDD+"},{"id":"00013075","subnational":[],"title":"SWEDISH TF:  GOVERNANCE PARTNERSHIP"},{"id":"00013061","subnational":[{"awardID":"00013061","focus_area":"-","focus_area_descr":"-","lat":"-6.21462","lon":"106.84513","name":"Jakarta","outputID":"00013061","output_locID":"00013061-1","precision":"3","type":"PPLC"}],"title":"TA FOR SUSTAINED ECONOMIC RECOVERY"},{"id":"00042065","subnational":[{"awardID":"00042065","focus_area":"3","focus_area_descr":"Crisis prevention & recovery","lat":"5.5577","lon":"95.3222","name":"Banda Aceh","outputID":"00061586","output_locID":"00061586-1","precision":"4","type":"ADM1"},{"awardID":"00042065","focus_area":"3","focus_area_descr":"Crisis prevention & recovery","lat":"3.58333","lon":"98.66667","name":"North Sumatera","outputID":"00074562","output_locID":"00074562-1","precision":"4","type":"ADM1"}],"title":"TECHNICAL SUPPORT FOR RECONSTRUCTION AGENCY-ACEH&NIAS"},{"id":"00051053","subnational":[{"awardID":"00051053","focus_area":"2","focus_area_descr":"Democratic governance","lat":"1.1215","lon":"97.6181","name":"Nias","outputID":"00063380","output_locID":"00063380-1","precision":"4","type":"RES"},{"awardID":"00051053","focus_area":"2","focus_area_descr":"Democratic governance","lat":"1.1963","lon":"97.5046","name":"Nias Selatan","outputID":"00063420","output_locID":"00063420-1","precision":"3","type":"ADM2"},{"awardID":"00051053","focus_area":"2","focus_area_descr":"Democratic governance","lat":"1.1963","lon":"97.5046","name":"Nias Selatan","outputID":"00071328","output_locID":"00071328-1","precision":"3","type":"ADM2"}],"title":"The Nias Islands Transition Project"},{"id":"00061901","subnational":[{"awardID":"00061901","focus_area":"2","focus_area_descr":"Democratic governance","lat":"-1.6","lon":"103.61667","name":"Jambi","outputID":"00078974","output_locID":"00078974-1","precision":"4","type":"ADM1"}],"title":"The participatory governance assessment for REDD+"},{"id":"00068219","subnational":[{"awardID":"00068219","focus_area":"4","focus_area_descr":"Environment & sustainable development","lat":"-6.21462","lon":"106.84513","name":"Jakarta","outputID":"00083541","output_locID":"00083541-1","precision":"3","type":"PPLC"}],"title":"Third National Communication to UNFCCC"},{"id":"00057994","subnational":[{"awardID":"00057994","focus_area":"1","focus_area_descr":"Poverty reduction & MDG achievement","lat":"-6.21462","lon":"106.84513","name":"Jakarta","outputID":"00072796","output_locID":"00072796-1","precision":"3","type":"PPLC"},{"awardID":"00057994","focus_area":"1","focus_area_descr":"Poverty reduction & MDG achievement","lat":"-6.21462","lon":"106.84513","name":"Jakarta","outputID":"00072797","output_locID":"00072797-1","precision":"3","type":"PPLC"},{"awardID":"00057994","focus_area":"1","focus_area_descr":"Poverty reduction & MDG achievement","lat":"-6.21462","lon":"106.84513","name":"Jakarta","outputID":"00072798","output_locID":"00072798-1","precision":"3","type":"PPLC"}],"title":"Transitional Multi Donor Fund for Aid for Effectiveness"},{"id":"00060044","subnational":[{"awardID":"00060044","focus_area":"3","focus_area_descr":"Crisis prevention & recovery","lat":"5.5577","lon":"95.3222","name":"Kota Banda Aceh","outputID":"00075384","output_locID":"00075384-1","precision":"3","type":"PPLA"},{"awardID":"00060044","focus_area":"-","focus_area_descr":"-","lat":"5.5577","lon":"95.3222","name":"Banda Aceh","outputID":"00086695","output_locID":"00086695-1","precision":"4","type":"ADM1"}],"title":"Tsunami Recovery Waste Project"},{"id":"00058897","subnational":[{"awardID":"00058897","focus_area":"4","focus_area_descr":"Environment & sustainable development","lat":"-7.49944","lon":"110.80611","name":"Central Kalimantan","outputID":"00073846","output_locID":"00073846-1","precision":"4","type":"PPL"}],"title":"UNREDD in Indonesia"},{"id":"00060776","subnational":[{"awardID":"00060776","focus_area":"4","focus_area_descr":"Environment & sustainable development","lat":"-0.03333","lon":"109.33333","name":"West Kalimantan","outputID":"00076672","output_locID":"00076672-1","precision":"4","type":"ADM1"}],"title":"Wind Hybrid Power Generation (WHyPGen) Market Dev"},{"id":"00038597","subnational":[{"awardID":"00038597","focus_area":"-","focus_area_descr":"-","lat":"5.5577","lon":"95.3222","name":"Banda Aceh","outputID":"00042897","output_locID":"00042897-1","precision":"4","type":"ADM1"}],"title":"Aceh Emergency Programme"},{"id":"00045230","subnational":[],"title":"Avian and Human Influenza Coordination Activity"},{"id":"00051370","subnational":[],"title":"Common Services"},{"id":"00060042","subnational":[],"title":"Community Development Programme West Nusa Tenggara"},{"id":"00058521","subnational":[],"title":"Development Policy Support Project"},{"id":"00043298","subnational":[],"title":"Enhancing Com, Advoc and Pub Part Cap for Legal Reforms"},{"id":"00059208","subnational":[],"title":"Forest and Climate Change"},{"id":"00051021","subnational":[],"title":"GEP-WRI RAISING THE PROFILE (GENDER PROJECT)"},{"id":"00043685","subnational":[],"title":"ILO - Rural Roads Phase I&II"},{"id":"00043562","subnational":[],"title":"MDTF TRPRP - Port Redevelopment"},{"id":"00042647","subnational":[],"title":"Multy Donor Trust Fund : Waste Management Project"},{"id":"00013089","subnational":[],"title":"Phase-out Mngmt Plan for CFCs-Ref (Servicing)"},{"id":"00059844","subnational":[],"title":"PIP on Persistent Organic Pollutants (POPs) Mgt"},{"id":"00058376","subnational":[],"title":"Recovery Initiatives for Sumatera Earthquakes"},{"id":"00038024","subnational":[],"title":"Response to Aceh Disaster"},{"id":"00048139","subnational":[],"title":"Strengthened Capacity to Principal Recipeinin Indonesia"},{"id":"00060284","subnational":[],"title":"Study on Corporate Social Responsibility"},{"id":"00044584","subnational":[],"title":"Support to Justice for Peace and Development in Aceh"},{"id":"00042539","subnational":[],"title":"Support to Strengthen the Capacity and Role of CSO"},{"id":"00032043","subnational":[],"title":"Support to UN Coordination"},{"id":"00056995","subnational":[],"title":"Switch to Biogas: Assists Dairy Farming Communities"},{"id":"00043973","subnational":[],"title":"To Assess,Reinforce&Gear Efforts Toward MDG in Indonesia"},{"id":"00057565","subnational":[],"title":"Training Future Experts on CC & Poverty in Aceh"},{"id":"00059199","subnational":[],"title":"Wind Hybrid Power Generation"},{"id":"00061349","subnational":[],"title":"Women in Politics and Government"},{"id":"00038597","subnational":[{"awardID":"00038597","focus_area":"-","focus_area_descr":"-","lat":"5.5577","lon":"95.3222","name":"Banda Aceh","outputID":"00042897","output_locID":"00042897-1","precision":"4","type":"ADM1"}],"title":"Aceh Emergency Programme"},{"id":"00045230","subnational":[],"title":"Avian and Human Influenza Coordination Activity"},{"id":"00060042","subnational":[],"title":"Community Development Programme West Nusa Tenggara"},{"id":"00033872","subnational":[],"title":"GOVERNANCE REFORM"},{"id":"00043685","subnational":[],"title":"ILO - Rural Roads Phase I&II"},{"id":"00042647","subnational":[],"title":"Multy Donor Trust Fund : Waste Management Project"},{"id":"00033093","subnational":[],"title":"National Capacity Self Assessment"},{"id":"00048139","subnational":[],"title":"Strengthened Capacity to Principal Recipeinin Indonesia"},{"id":"00013070","subnational":[],"title":"Support to Programme Development"},{"id":"00043973","subnational":[],"title":"To Assess,Reinforce&Gear Efforts Toward MDG in Indonesia"},{"id":"00013076","subnational":[],"title":"Trust Fund for North Maluku & Maluku Recovery Program"},{"id":"00039834","subnational":[],"title":"Ad hoc FF Volunteers Pacific Islands"},{"id":"00015389","subnational":[],"title":"Danish contribution Edna Adan Maternity"},{"id":"00050400","subnational":[],"title":"Engaging a Former UNV volunteers Constituency"},{"id":"00044811","subnational":[],"title":"Establishment of a National Volunteer Programme"},{"id":"00046738","subnational":[],"title":"Establishment of a National Volunteer Scheme Niger"},{"id":"00032683","subnational":[],"title":"Extended Phase of  the UNV Support to TICAD"},{"id":"00061864","subnational":[],"title":"FF UN Volunteer in Turkey"},{"id":"00066227","subnational":[],"title":"FF UN Volunteers in Malaysia"},{"id":"00066846","subnational":[],"title":"FF UN Volunteers in South Sudan"},{"id":"00015262","subnational":[],"title":"FF UNV  in Suriname & Trinidad & Tobago"},{"id":"00015243","subnational":[],"title":"FF UNV  in Ukraine"},{"id":"00015248","subnational":[],"title":"FF UNV Cambodia"},{"id":"00015353","subnational":[],"title":"FF UNV in  KAZAKHSTAN"},{"id":"00044383","subnational":[],"title":"FF UNV in Afghanistan"},{"id":"00015350","subnational":[],"title":"FF UNV in Albania"},{"id":"00015361","subnational":[],"title":"FF UNV IN BANGLADESH"},{"id":"00015245","subnational":[],"title":"FF UNV in Brazil"},{"id":"00035560","subnational":[],"title":"FF UNV in Burkina Faso"},{"id":"00015218","subnational":[],"title":"FF UNV IN BURUNDI"},{"id":"00015254","subnational":[],"title":"FF UNV in Cape Verde"},{"id":"00015255","subnational":[],"title":"FF UNV in Dominican Republic"},{"id":"00015347","subnational":[],"title":"FF UNV in East Timor"},{"id":"00015370","subnational":[],"title":"FF UNV in Fiji"},{"id":"00059411","subnational":[],"title":"FF UNV in Ghana"},{"id":"00015278","subnational":[],"title":"FF UNV in Guatemala"},{"id":"00015367","subnational":[],"title":"FF UNV in India"},{"id":"00015337","subnational":[],"title":"FF UNV in Lebanon"},{"id":"00057353","subnational":[],"title":"FF UNV in Liberia"},{"id":"00015221","subnational":[],"title":"FF UNV in Macedonia former Yugoslavia"},{"id":"00015335","subnational":[],"title":"FF UNV in Madagascar"},{"id":"00015328","subnational":[],"title":"FF UNV in Malawi"},{"id":"00015391","subnational":[],"title":"FF UNV in Malaysia"},{"id":"00015325","subnational":[],"title":"FF UNV in Morocco"},{"id":"00015321","subnational":[],"title":"FF UNV IN MOZAMBIQUE"},{"id":"00015318","subnational":[],"title":"FF UNV in Namibia"},{"id":"00015289","subnational":[],"title":"FF UNV in Philippines"},{"id":"00015286","subnational":[],"title":"FF UNV in Samoa"},{"id":"00061915","subnational":[],"title":"FF UNV in Somalia"},{"id":"00015271","subnational":[],"title":"FF UNV in Sri Lanka"},{"id":"00015223","subnational":[],"title":"FF UNV IN VIET NAM"},{"id":"00015219","subnational":[],"title":"FF UNV IN ZAMBIA"},{"id":"00015330","subnational":[],"title":"FF UNV Mali"},{"id":"00050113","subnational":[],"title":"FF UNV Republic of  Sudan"},{"id":"00041887","subnational":[],"title":"FF UNV Sao Tom\u00e9 & Pr\u00edncipe"},{"id":"00015379","subnational":[],"title":"FF UNV Uzbekistan"},{"id":"00060835","subnational":[],"title":"FF UNV volunteers in Chad"},{"id":"00015344","subnational":[],"title":"FF UNV Zimbabwe"},{"id":"00033979","subnational":[],"title":"FF UNVs in China"},{"id":"00015267","subnational":[],"title":"FF UNVs in Ethiopia"},{"id":"00015283","subnational":[],"title":"FF UNVs in Honduras"},{"id":"00015386","subnational":[],"title":"FF UNVs in Kosovo"},{"id":"00015294","subnational":[],"title":"FF UNVs in Kyrgyzstan"},{"id":"00041385","subnational":[],"title":"FF UNVs in Sierra Leone"},{"id":"00039273","subnational":[],"title":"FF UNVs in South Africa"},{"id":"00033523","subnational":[],"title":"FF UNVs Syria"},{"id":"00060693","subnational":[],"title":"FF Volunteers in Azerbaijan"},{"id":"00015228","subnational":[],"title":"FF VOLUNTEERS IN BOSNIA  AND HERCEGOVINA"},{"id":"00015291","subnational":[],"title":"FF Volunteers in Kenya"},{"id":"00015326","subnational":[],"title":"FF Volunteers in Mongolia"},{"id":"00065473","subnational":[],"title":"FF Volunteers in Tunisia"},{"id":"00015148","subnational":[],"title":"FULL FUNDING ARRANGEMENT / ITALY"},{"id":"00067617","subnational":[],"title":"FULLY FUNDED UN VOLUNTEERS IN SWAZILAND"},{"id":"00063088","subnational":[],"title":"Fully Funded UNV in Republic of Cameroon"},{"id":"00040929","subnational":[],"title":"GBS volontariat pour la gestion des d\u00e9chets \u00e0 Gabu"},{"id":"00059604","subnational":[],"title":"Gende Budgeting & Volunteering through Civic Engagement"},{"id":"00015142","subnational":[],"title":"Guyana - UNV Physicians"},{"id":"00044796","subnational":[],"title":"JPN FF -UNV Collaboration with NGO PhaseXI"},{"id":"00060214","subnational":[],"title":"JTF FF NGO, UN agencies, Gov't Institution 2009"},{"id":"00059505","subnational":[],"title":"JTF FF NGO, UN agencies, Gov't Institutions"},{"id":"00015300","subnational":[],"title":"LAO PDR FF Volunteers"},{"id":"00031941","subnational":[],"title":"NGO UN GOVT03"},{"id":"00050180","subnational":[],"title":"NGO, UN agencies & Gov't Institution 2006"},{"id":"00059152","subnational":[],"title":"NGOs, UN Agencies and Gov't Institutions 2007"},{"id":"00048099","subnational":[],"title":"PA for V4D in EU and CIS"},{"id":"00051173","subnational":[],"title":"Poverty reduction in Zanzibar"},{"id":"00015375","subnational":[],"title":"SACI - Stabilizing Capacity"},{"id":"00060828","subnational":[],"title":"SADC Regional Conference on Volunteerism & Civic Service"},{"id":"00043551","subnational":[],"title":"Tsunami - UNV Response framework for Sri Lanka"},{"id":"00046739","subnational":[],"title":"UN Peace Keep_MINUTAC(CHAD)"},{"id":"00046108","subnational":[],"title":"UN_Peace Keep_UNMIN"},{"id":"00048984","subnational":[],"title":"UNV Support to Delivery as One initiatives"},{"id":"00043400","subnational":[],"title":"UNV Support to Tsunami in Indonesia"},{"id":"00015150","subnational":[],"title":"Volunteerism and Social Development"}]}