{"iso_num":"368","op_unit":"IRQ","projects":[{"id":"00066352","subnational":[{"awardID":"00066352","lat":"35.56496","lon":"45.4329","name":"Sulaymaniyah","precision":"4","type":"ADM1"},{"awardID":"00066352","lat":"32.54083","lon":"44.42417","name":"Babylon","precision":"4","type":"ADM1"},{"awardID":"00066352","lat":"31","lon":"46","name":"Thi Qar","precision":"4","type":"ADM1"},{"awardID":"00066352","lat":"31.83588","lon":"47.144","name":"Maysan","precision":"3","type":"PPLA"},{"awardID":"00066352","lat":"30.53302","lon":"47.79747","name":"Basrah","precision":"4","type":"ADM1"}],"title":"3"},{"id":"00059263","subnational":[{"awardID":"00059263","lat":"33","lon":"44","name":"Iraq","precision":"9","type":"PCL"}],"title":"Assistance to the Government of Iraq on Climat change"},{"id":"00059917","subnational":[{"awardID":"00059917","lat":"33","lon":"44","name":"Iraq","precision":"9","type":"PCL"}],"title":"Bridging for Local Area Development Programme Phase II"},{"id":"00059991","subnational":[{"awardID":"00059991","lat":"33","lon":"44","name":"Iraq","precision":"9","type":"PCL"}],"title":"Capacity & Support program to Council of Representatives"},{"id":"00071358","subnational":[],"title":"Catalysing the use of Solar Photovoltaic Energy"},{"id":"00069754","subnational":[],"title":"Community Development, Safety and Social Cohesion CDSSC"},{"id":"00057913","subnational":[{"awardID":"00057913","lat":"33","lon":"44","name":"Iraq","precision":"9","type":"PCL"}],"title":"Decision Support System for Water Resources Planning"},{"id":"00073898","subnational":[],"title":"Developing Disaster Risk Management Capacities in Iraq"},{"id":"00059992","subnational":[{"awardID":"00059992","lat":"33","lon":"44","name":"Iraq","precision":"9","type":"PCL"}],"title":"Development of Youth Strategy"},{"id":"00062342","subnational":[],"title":"Drought Risk Management project"},{"id":"00051468","subnational":[{"awardID":"00051468","lat":"33.42056","lon":"43.30778","name":"Anbar","precision":"4","type":"ADM1"},{"awardID":"00051468","lat":"30.53302","lon":"47.79747","name":"Basra","precision":"4","type":"ADM1"},{"awardID":"00051468","lat":"36.19257","lon":"44.01062","name":"Erbil","precision":"4","type":"ADM1"}],"title":"Economic Reform & Diversification"},{"id":"00056620","subnational":[{"awardID":"00056620","lat":"36.86709","lon":"42.98845","name":"Duhok","precision":"4","type":"ADM1"},{"awardID":"00056620","lat":"36.19257","lon":"44.01062","name":"Erbil","precision":"4","type":"ADM1"},{"awardID":"00056620","lat":"35.56496","lon":"45.4329","name":"Sulaimaniyah","precision":"4","type":"ADM1"}],"title":"Electricity Sector Reconstruction Project in Kurdistan"},{"id":"00036000","subnational":[{"awardID":"00036000","lat":"33","lon":"44","name":"Iraq","precision":"9","type":"PCL"}],"title":"Emergency Supply of Equipment to Electricity Sector"},{"id":"00065399","subnational":[],"title":"Empowering CSOs in Iraq"},{"id":"00061497","subnational":[],"title":"Enable Active Prepare irq Initial natio Comunito UNFCCC"},{"id":"00063214","subnational":[],"title":"English Language Training for Commission Integrity & OIG"},{"id":"00068138","subnational":[{"awardID":"00068138","lat":"33","lon":"44","name":"Iraq","precision":"9","type":"PCL"}],"title":"Enhancing Transparent Participatory Governance and Human"},{"id":"00049979","subnational":[{"awardID":"00049979","lat":"33.35581","lon":"43.78612","name":"Fallujah","precision":"3","type":"PPL"}],"title":"Falujah Hospital Establishment"},{"id":"00065578","subnational":[],"title":"Family Protection Support"},{"id":"00060039","subnational":[{"awardID":"00060039","lat":"33","lon":"44","name":"Iraq","precision":"9","type":"PCL"}],"title":"Family Support  Justice & Security"},{"id":"00064340","subnational":[],"title":"Implement of KRG develop Managnt System & Support Aid"},{"id":"00051167","subnational":[{"awardID":"00051167","lat":"33","lon":"44","name":"Iraq","precision":"9","type":"PCL"}],"title":"Implementing the UN Convention against Corruption"},{"id":"00051414","subnational":[{"awardID":"00051414","lat":"36.19257","lon":"44.01062","name":"Erbil","precision":"4","type":"ADM1"}],"title":"Improving the Housing Delivery System in Erbil"},{"id":"00063578","subnational":[],"title":"INL- Justice Data Management in Iraq"},{"id":"00065636","subnational":[],"title":"Institutional Dev of Anti Corruption Academy"},{"id":"00060760","subnational":[{"awardID":"00060760","lat":"33","lon":"44","name":"Iraq","precision":"9","type":"PCL"}],"title":"Institutional Development Support to IHEC"},{"id":"00047714","subnational":[{"awardID":"00047714","lat":"33","lon":"44","name":"Iraq","precision":"9","type":"PCL"}],"title":"Institutional Development Support to the Iraqi National"},{"id":"00049371","subnational":[{"awardID":"00049371","lat":"36.19257","lon":"44.01062","name":"Erbil","precision":"4","type":"ADM1"},{"awardID":"00049371","lat":"30.53302","lon":"47.79747","name":"Basrah","precision":"4","type":"ADM1"}],"title":"Iraq - support to the Rule of Law & Justice"},{"id":"00059925","subnational":[{"awardID":"00059925","lat":"33","lon":"44","name":"Iraq","precision":"9","type":"PCL"}],"title":"Iraq Public Sector Modernisation Programme"},{"id":"00050223","subnational":[{"awardID":"00050223","lat":"36.86709","lon":"42.98845","name":"Duhok","precision":"4","type":"ADM1"},{"awardID":"00050223","lat":"36.19257","lon":"44.01062","name":"Erbil","precision":"4","type":"ADM1"},{"awardID":"00050223","lat":"35.56496","lon":"45.4329","name":"Sulaimaniyah","precision":"4","type":"ADM1"}],"title":"Kurdistan budget execution support"},{"id":"00047089","subnational":[{"awardID":"00047089","lat":"30.53302","lon":"47.79747","name":"Basrah","precision":"4","type":"ADM1"}],"title":"Law Enforcement Capacity Building.-Basrah"},{"id":"00039996","subnational":[{"awardID":"00039996","lat":"33","lon":"44","name":"Iraq","precision":"9","type":"PCL"}],"title":"Management Plan"},{"id":"00043754","subnational":[{"awardID":"00043754","lat":"32.78396","lon":"44.27662","name":"Musayyib","precision":"3","type":"PPL"}],"title":"Mussaiab Power Station Stage II"},{"id":"00051369","subnational":[{"awardID":"00051369","lat":"30.0362","lon":"47.91951","name":"Umm Qasr","precision":"3","type":"PPL"},{"awardID":"00051369","lat":"30.39213","lon":"47.70174","name":"Az Zubayr","precision":"3","type":"PPL"}],"title":"Navigational Aids for Umm Qasr & Az Zubayr Ports"},{"id":"00060001","subnational":[{"awardID":"00060001","lat":"33","lon":"44","name":"Iraq","precision":"9","type":"PCL"},{"awardID":"00060001","lat":"33","lon":"44","name":"Iraq","precision":"9","type":"PCL"}],"title":"Operational and  Victim Assistance Capacity Development"},{"id":"00058164","subnational":[{"awardID":"00058164","lat":"33","lon":"44","name":"Iraq","precision":"9","type":"PCL"}],"title":"Partnership Services forFiduciary Monitoring Agent/ Iraq"},{"id":"00061020","subnational":[{"awardID":"00061020","lat":"33","lon":"44","name":"Iraq","precision":"9","type":"PCL"}],"title":"Peace and Development Analysis in the DIBs"},{"id":"00066351","subnational":[],"title":"Private Sector Development Program-Shell"},{"id":"00073548","subnational":[],"title":"Promoting Rule of Law in the Kurdistan"},{"id":"00046961","subnational":[{"awardID":"00046961","lat":"34.61581","lon":"43.67861","name":"Tikrit","precision":"3","type":"PPLA"}],"title":"Rehabilitation of Tikrit Gneral Hospital"},{"id":"00046609","subnational":[{"awardID":"00046609","lat":"34.24639","lon":"43.88952","name":"Samara","precision":"3","type":"PPL"}],"title":"Restoration of Al Askari Shrine in Samara City and Rehab"},{"id":"00067596","subnational":[],"title":"Small Arms and Light Weapons  (SALW) Preparatory Project"},{"id":"00075232","subnational":[],"title":"South south triangular cooperation by GoI"},{"id":"00060734","subnational":[{"awardID":"00060734","lat":"33","lon":"44","name":"Iraq","precision":"9","type":"PCL"}],"title":"STRENGTHENING THE ADMINISTRATION OF JUSTICE IN IRAQ"},{"id":"00046953","subnational":[{"awardID":"00046953","lat":"30.53302","lon":"47.79747","name":"Basrah","precision":"3","type":"PPLA"}],"title":"Support Constructions in Basrah Children Hospital"},{"id":"00069269","subnational":[],"title":"Support for the enhancement of Youth Parliament models a"},{"id":"00075230","subnational":[],"title":"Support PSD in Iraq"},{"id":"00060870","subnational":[{"awardID":"00060870","lat":"36.335","lon":"43.11889","name":"Ninawa","precision":"4","type":"ADM1"}],"title":"Support Rights of Minorities and Vulnerable in Ninewa"},{"id":"00051392","subnational":[{"awardID":"00051392","lat":"33","lon":"44","name":"Iraq","precision":"9","type":"PCL"}],"title":"Support to Decentralisation and Local Governance"},{"id":"00060648","subnational":[{"awardID":"00060648","lat":"33","lon":"44","name":"Iraq","precision":"9","type":"PCL"}],"title":"Support to National Reconciliation"},{"id":"00047321","subnational":[{"awardID":"00047321","lat":"33","lon":"44","name":"Iraq","precision":"9","type":"PCL"}],"title":"Support to National TB and HIV/AIDS control Programs"},{"id":"00067618","subnational":[],"title":"Support to Security Sector Reform in Iraq"},{"id":"00051415","subnational":[{"awardID":"00051415","lat":"33","lon":"44","name":"Iraq","precision":"9","type":"PCL"}],"title":"Support to the Expanded Humanitarian Response Fund (ERF)"},{"id":"00059010","subnational":[{"awardID":"00059010","lat":"33","lon":"44","name":"Iraq","precision":"9","type":"PCL"}],"title":"Support to the Human Right Commission"},{"id":"00062087","subnational":[],"title":"Support to the IG office-Iraq"},{"id":"00051393","subnational":[],"title":"Technical Assistance to IHEC  Phase II"},{"id":"00050303","subnational":[{"awardID":"00050303","lat":"33","lon":"44","name":"Iraq","precision":"9","type":"PCL"}],"title":"Umbrella Projects for Energy and Enviroment"},{"id":"00059166","subnational":[{"awardID":"00059166","lat":"33.42056","lon":"43.30778","name":"Anbar","precision":"4","type":"ADM1"},{"awardID":"00059166","lat":"35.56496","lon":"45.4329","name":"Sulaymaniyah","precision":"4","type":"ADM1"},{"awardID":"00059166","lat":"31","lon":"46","name":"Thi Qar","precision":"4","type":"ADM1"},{"awardID":"00059166","lat":"32.5128","lon":"45.81817","name":"Wasit","precision":"4","type":"ADM1"},{"awardID":"00059166","lat":"33.84667","lon":"44.23444","name":"Salah Al Din","precision":"4","type":"ADM1"},{"awardID":"00059166","lat":"36.19257","lon":"44.01062","name":"Erbil","precision":"4","type":"ADM1"}],"title":"WatSan Master Planning and Capacity Building Programme"}]}