<<<<<<< HEAD
{"op_unit":"KOS","projects":[{"id":"00013264","subnational":[],"title":"VBL"},{"id":"00041050","subnational":[],"title":"Sustainable Partnerships for Assistance to Return"},{"id":"00044598","subnational":[],"title":"Programme Development"},{"id":"00044983","subnational":[{"lat":42.4021,"lon":21.1,"precision":"3","scope":"3","type":"1"}],"title":"Kosovo Rule of Law"},{"id":"00045485","subnational":[{"lat":42.4021,"lon":21.1,"precision":"3","scope":"3","type":"1"}],"title":"Women's Safety and Security initiative"},{"id":"00045950","subnational":[{"lat":42.4021,"lon":21.1,"precision":"3","scope":"3","type":"1"}],"title":"Kosovo Small Arms Control Initiative"},{"id":"00046363","subnational":[{"lat":42.135,"lon":20.3912,"precision":"3","scope":"3","type":"2"},{"lat":42.22492,"lon":20.2551,"precision":"3","scope":"3","type":"2"},{"lat":42.2737,"lon":21.2811,"precision":"3","scope":"3","type":"2"},{"lat":42.2737,"lon":21.2811,"precision":"3","scope":"3","type":"2"},{"lat":42.4353,"lon":20.4275,"precision":"3","scope":"3","type":"2"}],"title":"Support to UN Coordination"},{"id":"00046721","subnational":[],"title":"Internally Displaced Peoples-Kosovo,Serbia & Montenegro"},{"id":"00047206","subnational":[],"title":"Support to Programme Development"},{"id":"00047914","subnational":[],"title":"Support to Security Sector Development"},{"id":"00048412","subnational":[{"lat":42.53,"lon":20.52,"precision":"3","scope":"3","type":"2"},{"lat":42.53,"lon":20.52,"precision":"3","scope":"3","type":"2"}],"title":"Local Development for Community Stabilization II"},{"id":"00048936","subnational":[{"lat":42.4021,"lon":21.1,"precision":"3","scope":"3","type":"1"}],"title":"Return and Reintegration in Kosovo"},{"id":"00049059","subnational":[{"lat":42.4021,"lon":21.1,"precision":"3","scope":"3","type":"1"}],"title":"Active Labor Market Programme for Youth"},{"id":"00050846","subnational":[],"title":"Support to Decentralisation in Kosovo"},{"id":"00051196","subnational":[],"title":"UNDP/UNV Umbrella Project for Kosovo"},{"id":"00051221","subnational":[],"title":"Kosovo Protection Corps Resettlement Programme"},{"id":"00051382","subnational":[],"title":"Support to Minority-Language Broadcasting Media"},{"id":"00051398","subnational":[{"lat":42.135,"lon":20.3912,"precision":"3","scope":"3","type":"2"},{"lat":42.135,"lon":20.3912,"precision":"3","scope":"3","type":"2"}],"title":"Preparatory Assistance to Sustainable Develop.in Dragash"},{"id":"00051434","subnational":[{"lat":42.135,"lon":20.3912,"precision":"3","scope":"3","type":"2"}],"title":"Art Gold Kosovo Programme"},{"id":"00056900","subnational":[],"title":"Justice and Security"},{"id":"00057054","subnational":[],"title":"Management and Operational Support for Kosovo Institutio"},{"id":"00057371","subnational":[],"title":"Access to Justice"},{"id":"00057801","subnational":[],"title":"Kosovo Partnership for Anti-Corruption"},{"id":"00057923","subnational":[{"lat":42.4021,"lon":21.1,"precision":"3","scope":"3","type":"1"},{"lat":42.4021,"lon":21.1,"precision":"3","scope":"3","type":"1"}],"title":"Capacity Development Facility for Kosovo"},{"id":"00058108","subnational":[],"title":"Roadmap to the Achievement of the MDGs in Kosovo"},{"id":"00058395","subnational":[],"title":"Social Inclusion and Development"},{"id":"00058697","subnational":[{"lat":42.4021,"lon":21.1,"precision":"3","scope":"1","type":"1"}],"title":"Sustainable development policies of central&local govern"},{"id":"00060065","subnational":[{"lat":42.135,"lon":20.3912,"precision":"3","scope":"2","type":"2"},{"lat":42.2214,"lon":21.919,"precision":"3","scope":"3","type":"2"},{"lat":42.2249,"lon":20.2551,"precision":"3","scope":"1","type":"2"},{"lat":42.3712,"lon":21.849,"precision":"3","scope":"2","type":"2"},{"lat":42.4021,"lon":21.1,"precision":"3","scope":"3","type":"1"}],"title":"Support to the Rule of Law and Access to Justice"},{"id":"00060165","subnational":[],"title":"Population Survey for the persons with disabilities"},{"id":"00060569","subnational":[{"lat":42.4021,"lon":21.1,"precision":"3","scope":"1","type":"1"}],"title":"Kosovo Public Pulse Opinion Polls"},{"id":"00060717","subnational":[],"title":"Reducing HIV Vulnerability"},{"id":"00061112","subnational":[{"lat":42.4021,"lon":21.1,"precision":"3","scope":"1","type":"1"}],"title":"Support to the Human Rights Advisory Panel Secretariat"},{"id":"00061321","subnational":[{"lat":42.4021,"lon":21.1,"precision":"3","scope":"1","type":"2"}],"title":"Association of the Professional Journalists of Kosovo"},{"id":"00061359","subnational":[{"lat":42.4021,"lon":21.1,"precision":"3","scope":"1","type":"1"}],"title":"Parliamentary Development for Social Policies"},{"id":"00062497","subnational":[],"title":"UNKT Joint Program on Domestic Violence in Kosovo"},{"id":"00062943","subnational":[],"title":"Support reintegration, self-reliance and language use"},{"id":"00063655","subnational":[],"title":"Diaspora Engagement in Economic Development"},{"id":"00063661","subnational":[],"title":"Aid for Trade"},{"id":"00066266","subnational":[],"title":"Disaster Risk Reduction"},{"id":"00066550","subnational":[],"title":"Social Media for Innovative Local   Empowerment"},{"id":"00068333","subnational":[],"title":"Enhancing Women's Participation in Peacebuilding"},{"id":"00068654","subnational":[],"title":"Support to Anti-Corruption Efforts in Kosovo (SAEK)"},{"id":"00069078","subnational":[],"title":"Building a Better Future for Citizens of FK/KP&Obiliq Mu"},{"id":"00070782","subnational":[],"title":"CDF for Kosovo Institution"}]}
=======
{"op_unit":"KOS","projects":[{"id":"00013264","subnational":[]},{"id":"00041050","subnational":[]},{"id":"00044598","subnational":[]},{"id":"00044983","subnational":[{"lat":42.4021,"lon":21.1,"precision":"3","scope":"3","type":"1"}]},{"id":"00045485","subnational":[{"lat":42.4021,"lon":21.1,"precision":"3","scope":"3","type":"1"}]},{"id":"00045950","subnational":[{"lat":42.4021,"lon":21.1,"precision":"3","scope":"3","type":"1"}]},{"id":"00046363","subnational":[{"lat":42.135,"lon":20.3912,"precision":"3","scope":"3","type":"2"},{"lat":42.22492,"lon":20.2551,"precision":"3","scope":"3","type":"2"},{"lat":42.2737,"lon":21.2811,"precision":"3","scope":"3","type":"2"},{"lat":42.2737,"lon":21.2811,"precision":"3","scope":"3","type":"2"},{"lat":42.4353,"lon":20.4275,"precision":"3","scope":"3","type":"2"}]},{"id":"00046721","subnational":[]},{"id":"00047206","subnational":[]},{"id":"00047914","subnational":[]},{"id":"00048412","subnational":[{"lat":42.53,"lon":20.52,"precision":"3","scope":"3","type":"2"},{"lat":42.53,"lon":20.52,"precision":"3","scope":"3","type":"2"}]},{"id":"00048936","subnational":[{"lat":42.4021,"lon":21.1,"precision":"3","scope":"3","type":"1"}]},{"id":"00049059","subnational":[{"lat":42.4021,"lon":21.1,"precision":"3","scope":"3","type":"1"}]},{"id":"00050846","subnational":[]},{"id":"00051196","subnational":[]},{"id":"00051221","subnational":[]},{"id":"00051382","subnational":[]},{"id":"00051398","subnational":[{"lat":42.135,"lon":20.3912,"precision":"3","scope":"3","type":"2"},{"lat":42.135,"lon":20.3912,"precision":"3","scope":"3","type":"2"}]},{"id":"00051434","subnational":[{"lat":42.135,"lon":20.3912,"precision":"3","scope":"3","type":"2"}]},{"id":"00056900","subnational":[]},{"id":"00057054","subnational":[]},{"id":"00057371","subnational":[]},{"id":"00057801","subnational":[]},{"id":"00057923","subnational":[{"lat":42.4021,"lon":21.1,"precision":"3","scope":"3","type":"1"},{"lat":42.4021,"lon":21.1,"precision":"3","scope":"3","type":"1"}]},{"id":"00058108","subnational":[]},{"id":"00058395","subnational":[]},{"id":"00058697","subnational":[{"lat":42.4021,"lon":21.1,"precision":"3","scope":"1","type":"1"}]},{"id":"00060065","subnational":[{"lat":42.135,"lon":20.3912,"precision":"3","scope":"2","type":"2"},{"lat":42.2214,"lon":21.919,"precision":"3","scope":"3","type":"2"},{"lat":42.2249,"lon":20.2551,"precision":"3","scope":"1","type":"2"},{"lat":42.3712,"lon":21.849,"precision":"3","scope":"2","type":"2"},{"lat":42.4021,"lon":21.1,"precision":"3","scope":"3","type":"1"}]},{"id":"00060165","subnational":[]},{"id":"00060569","subnational":[{"lat":42.4021,"lon":21.1,"precision":"3","scope":"1","type":"1"}]},{"id":"00060717","subnational":[]},{"id":"00061112","subnational":[{"lat":42.4021,"lon":21.1,"precision":"3","scope":"1","type":"1"}]},{"id":"00061321","subnational":[{"lat":42.4021,"lon":21.1,"precision":"3","scope":"1","type":"2"}]},{"id":"00061359","subnational":[{"lat":42.4021,"lon":21.1,"precision":"3","scope":"1","type":"1"}]},{"id":"00062497","subnational":[]},{"id":"00062943","subnational":[]},{"id":"00063655","subnational":[]},{"id":"00063661","subnational":[]},{"id":"00066266","subnational":[]},{"id":"00066550","subnational":[]},{"id":"00068333","subnational":[]},{"id":"00068654","subnational":[]},{"id":"00069078","subnational":[]},{"id":"00070782","subnational":[]}]}
>>>>>>> 17333319183c99511330aeb2b2811e37cf46d8f8
