{"iso_num":"999","op_unit":"KOS","projects":[{"id":"00057371","subnational":[],"title":"Access to Justice"},{"id":"00049059","subnational":[{"awardID":"00049059","focus_area":"1","focus_area_descr":"Poverty reduction & MDG achievement","lat":"42.67272","lon":"21.16688","name":"Pristina, Kosovo","outputID":"00059584","precision":"3","type":"PPLC"}],"title":"Active Labor Market Programme for Youth"},{"id":"00063661","subnational":[],"title":"Aid for Trade"},{"id":"00051434","subnational":[{"awardID":"00051434","focus_area":"4","focus_area_descr":"Environment & sustainable development","lat":"42.0265","lon":"20.65333","name":"Dragash, Kosovo","outputID":"00064046","precision":"3","type":"PPLA"}],"title":"Art Gold Kosovo Programme"},{"id":"00069078","subnational":[],"title":"Building better future for citizens of 2 Municipalities"},{"id":"00070782","subnational":[],"title":"Capacity Development Facility for Institutions"},{"id":"00057923","subnational":[{"awardID":"00057923","focus_area":"2","focus_area_descr":"Democratic governance","lat":"42.67272","lon":"21.16688","name":"Pristina, Kosovo","outputID":"00071736","precision":"3","type":"PPLC"},{"awardID":"00057923","focus_area":"2","focus_area_descr":"Democratic governance","lat":"42.67272","lon":"21.16688","name":"Pristina, Kosovo","outputID":"00074635","precision":"3","type":"PPLC"}],"title":"Capacity Development Facility for Kosovo"},{"id":"00071978","subnational":[],"title":"Data for Development"},{"id":"00063655","subnational":[],"title":"Diaspora Engagement in Economic Development"},{"id":"00066266","subnational":[],"title":"Disaster Risk Reduction"},{"id":"00068333","subnational":[],"title":"Enhancing Women's Participation in Peace Building"},{"id":"00057801","subnational":[],"title":"Kosovo Partnership for Anti-Corruption"},{"id":"00060569","subnational":[{"awardID":"00060569","focus_area":"2","focus_area_descr":"Democratic governance","lat":"42.67272","lon":"21.16688","name":"Pristina","outputID":"00076314","precision":"3","type":"PPLC"}],"title":"Kosovo Public Pulse Opinion Polls"},{"id":"00044983","subnational":[{"awardID":"00044983","focus_area":"2","focus_area_descr":"Democratic governance","lat":"42.67272","lon":"21.16688","name":"Pristina, Kosovo","outputID":"00053055","precision":"3","type":"PPLC"}],"title":"Kosovo Rule of Law"},{"id":"00045950","subnational":[{"awardID":"00045950","focus_area":"2","focus_area_descr":"Democratic governance","lat":"42.67272","lon":"21.16688","name":"Pristina, Kosovo","outputID":"00060818","precision":"3","type":"PPLC"}],"title":"Kosovo Small Arms Control Initiative"},{"id":"00048412","subnational":[{"awardID":"00048412","focus_area":"1","focus_area_descr":"Poverty reduction & MDG achievement","lat":"42.88333","lon":"20.86667","name":"Mitrovica","outputID":"00058545","precision":"3","type":"PPL"}],"title":"Local Development for Community Stabilization II"},{"id":"00057054","subnational":[],"title":"Management & Operational Support for Kosovo Institutions"},{"id":"00061359","subnational":[{"awardID":"00061359","focus_area":"2","focus_area_descr":"Democratic governance","lat":"42.67272","lon":"21.16688","name":"Pristina","outputID":"00077706","precision":"3","type":"PPLC"}],"title":"Parliamentary Development for Social Policies"},{"id":"00051398","subnational":[{"awardID":"00051398","focus_area":"4","focus_area_descr":"Environment & sustainable development","lat":"42.0265","lon":"20.65333","name":"Dragash s Kosovo","outputID":"00076321","precision":"3","type":"PPLA"}],"title":"Preparatory Assistance to Sustainable Develop.in Dragash"},{"id":"00044598","subnational":[],"title":"Programme Development"},{"id":"00048936","subnational":[{"awardID":"00048936","focus_area":"2","focus_area_descr":"Democratic governance","lat":"42.67272","lon":"21.16688","name":"Pristina, Kosovo","outputID":"00059348","precision":"3","type":"PPLC"}],"title":"Return and Reintegration in Kosovo"},{"id":"00058395","subnational":[],"title":"Social Inclusion and Development"},{"id":"00066550","subnational":[],"title":"Social Media for Innovative Local   Empowerment"},{"id":"00075228","subnational":[],"title":"Support for Low Emission Development in Kosovo"},{"id":"00062943","subnational":[],"title":"Support reintegration, self-reliance and language use"},{"id":"00068654","subnational":[],"title":"Support to Anti-Corruption Efforts in Kosovo"},{"id":"00050846","subnational":[],"title":"Support to Decentralisation in Kosovo"},{"id":"00051382","subnational":[],"title":"Support to Minority-Language Broadcasting Media"},{"id":"00061112","subnational":[{"awardID":"00061112","focus_area":"2","focus_area_descr":"Democratic governance","lat":"42.67272","lon":"21.16688","name":"Pristina","outputID":"00077288","precision":"3","type":"PPLC"}],"title":"Support to the Human Rights Advisory Panel Secretariat"},{"id":"00060065","subnational":[{"awardID":"00060065","focus_area":"2","focus_area_descr":"Democratic governance","lat":"42.38028","lon":"20.43083","name":"Gjakova","outputID":"00075431","precision":"3","type":"PPL"},{"awardID":"00060065","focus_area":"2","focus_area_descr":"Democratic governance","lat":"42.37056","lon":"21.15528","name":"Ferizaj, Kosovo","outputID":"00075431","precision":"3","type":"PPLA"},{"awardID":"00060065","focus_area":"2","focus_area_descr":"Democratic governance","lat":"42.0265","lon":"20.65333","name":"Dragash","outputID":"00075431","precision":"3","type":"PPLA"},{"awardID":"00060065","focus_area":"2","focus_area_descr":"Democratic governance","lat":"42.62","lon":"21.14694","name":"Caglavica","outputID":"00075431","precision":"3","type":"PPL"},{"awardID":"00060065","focus_area":"2","focus_area_descr":"Democratic governance","lat":"42.67272","lon":"21.16688","name":"Pristina, Kosovo","outputID":"00075431","precision":"3","type":"PPLC"}],"title":"Support to the Rule of Law and Access to Justice"},{"id":"00046363","subnational":[{"awardID":"00046363","focus_area":"-","focus_area_descr":"-","lat":"42.0265","lon":"20.65333","name":"Dragash, Dragas,Kosovo","outputID":"00055160","precision":"3","type":"PPLA"},{"awardID":"00046363","focus_area":"-","focus_area_descr":"-","lat":"42.38333","lon":"20.38333","name":"Gjakove","outputID":"00055160","precision":"4","type":"ADM1"},{"awardID":"00046363","focus_area":"-","focus_area_descr":"-","lat":"42.4353","lon":"20.4275","name":"Djakovica, Kosovo","outputID":"00055160","precision":"3","type":"PPL"},{"awardID":"00046363","focus_area":"-","focus_area_descr":"-","lat":"42.46045","lon":"21.46986","name":"Gjilan, Kosovo","outputID":"00055160","precision":"3","type":"PPLA"},{"awardID":"00046363","focus_area":"-","focus_area_descr":"-","lat":"42.46045","lon":"21.46986","name":"Gnjilane, Kosovo","outputID":"00055160","precision":"3","type":"PPLA"}],"title":"Support to UN Coordination"},{"id":"00058697","subnational":[{"awardID":"00058697","focus_area":"4","focus_area_descr":"Environment & sustainable development","lat":"42.67272","lon":"21.16688","name":"Pristina","outputID":"00073049","precision":"3","type":"PPLC"}],"title":"Sustainable development policies of central&local govern"},{"id":"00041050","subnational":[],"title":"Sustainable Partnerships for Assistance to Return"},{"id":"00051196","subnational":[],"title":"UNDP/UNV Umbrella Project for Kosovo"},{"id":"00062497","subnational":[],"title":"UNKT Joint Program on Domestic Violence in Kosovo"},{"id":"00013264","subnational":[],"title":"VBL"},{"id":"00045485","subnational":[{"awardID":"00045485","focus_area":"2","focus_area_descr":"Democratic governance","lat":"42.67272","lon":"21.16688","name":"Pristina, Kosovo","outputID":"00069640","precision":"3","type":"PPLC"}],"title":"Women's Safety and Security initiative"}]}