{"iso_num": null, "projects": [{"title": "programme development", "id": "00044598", "subnational": [{"outputID": "00052514", "output_locID": "00052514-1", "name": "Pristina", "focus_area": "1", "lat": "42.672720", "type": "PPLC", "awardID": "00044598", "lon": "21.166880", "precision": "1", "focus_area_descr": "Inclusive Growth"}]}, {"title": "kosovo public pulse opinion polls", "id": "00060569", "subnational": [{"outputID": "00106332", "output_locID": "00106332-1", "name": "Pristina", "focus_area": "7", "lat": "42.672720", "type": "PPLC", "awardID": "00060569", "lon": "21.166880", "precision": "1", "focus_area_descr": "Thought Leadership"}, {"outputID": "00088916", "output_locID": "00088916-1", "name": "Pristina", "focus_area": "7", "lat": "42.672720", "type": "PPLC", "awardID": "00060569", "lon": "21.166880", "precision": "1", "focus_area_descr": "Thought Leadership"}, {"outputID": "00076314", "output_locID": "00076314-1", "name": "Pristina", "focus_area": "7", "lat": "42.672720", "type": "PPLC", "awardID": "00060569", "lon": "21.166880", "precision": "1", "focus_area_descr": "Development Impact & Effectiveness"}]}, {"title": "aid for trade", "id": "00063661", "subnational": [{"outputID": "00080643", "output_locID": "00080643-1", "name": "Pristina", "focus_area": "1", "lat": "42.672720", "type": "PPLC", "awardID": "00063661", "lon": "21.166880", "precision": "1", "focus_area_descr": "Inclusive Growth"}, {"outputID": "00092504", "output_locID": "00092504-1", "name": "Pristina", "focus_area": "1", "lat": "42.672720", "type": "PPLC", "awardID": "00063661", "lon": "21.166880", "precision": "1", "focus_area_descr": "Inclusive Growth"}]}, {"title": "disaster risk reduction", "id": "00066266", "subnational": [{"outputID": "00086744", "output_locID": "00086744-1", "name": "Pristina", "focus_area": "5", "lat": "42.672720", "type": "PPLC", "awardID": "00066266", "lon": "21.166880", "precision": "1", "focus_area_descr": "Risk Reduction"}, {"outputID": "00101067", "output_locID": "00101067-1", "name": "Zvecan", "focus_area": "5", "lat": "42.907500", "type": "PPLA2", "awardID": "00066266", "lon": "20.840280", "precision": "1", "focus_area_descr": "Risk Reduction"}, {"outputID": "00101067", "output_locID": "00101067-2", "name": "Pristina", "focus_area": "5", "lat": "42.672720", "type": "PPLC", "awardID": "00066266", "lon": "21.166880", "precision": "1", "focus_area_descr": "Risk Reduction"}, {"outputID": "00101067", "output_locID": "00101067-3", "name": "Leposaviq", "focus_area": "5", "lat": "43.103890", "type": "PPLA2", "awardID": "00066266", "lon": "20.802780", "precision": "1", "focus_area_descr": "Risk Reduction"}, {"outputID": "00101067", "output_locID": "00101067-4", "name": "Mitrovica", "focus_area": "5", "lat": "42.883330", "type": "PPLA", "awardID": "00066266", "lon": "20.866670", "precision": "1", "focus_area_descr": "Risk Reduction"}, {"outputID": "00101067", "output_locID": "00101067-5", "name": "Istok", "focus_area": "5", "lat": "42.780830", "type": "PPLA2", "awardID": "00066266", "lon": "20.487500", "precision": "1", "focus_area_descr": "Risk Reduction"}, {"outputID": "00101067", "output_locID": "00101067-6", "name": "Gjilan", "focus_area": "5", "lat": "42.460450", "type": "PPLA", "awardID": "00066266", "lon": "21.469860", "precision": "1", "focus_area_descr": "Risk Reduction"}, {"outputID": "00082466", "output_locID": "00082466-1", "name": "Pristina", "focus_area": "5", "lat": "42.672720", "type": "PPLC", "awardID": "00066266", "lon": "21.166880", "precision": "1", "focus_area_descr": "Climate Change & Disaster Resilience"}]}, {"title": "capacity development facility for institutions", "id": "00070782", "subnational": [{"outputID": "00084601", "output_locID": "00084601-1", "name": "Pristina", "focus_area": "3", "lat": "42.672720", "type": "PPLC", "awardID": "00070782", "lon": "21.166880", "precision": "1", "focus_area_descr": "Basic Services"}, {"outputID": "00084627", "output_locID": "00084627-1", "name": "Pristina", "focus_area": "3", "lat": "42.672720", "type": "PPLC", "awardID": "00070782", "lon": "21.166880", "precision": "1", "focus_area_descr": "Responsive Institutions"}]}, {"title": "interdev 1", "id": "00079191", "subnational": [{"outputID": "00089261", "output_locID": "00089261-1", "name": "Ferizaj", "focus_area": "1", "lat": "42.370560", "type": "PPLA", "awardID": "00079191", "lon": "21.155280", "precision": "1", "focus_area_descr": "Inclusive Growth"}, {"outputID": "00089261", "output_locID": "00089261-2", "name": "Prizren", "focus_area": "1", "lat": "42.213890", "type": "PPLA", "awardID": "00079191", "lon": "20.739720", "precision": "1", "focus_area_descr": "Inclusive Growth"}, {"outputID": "00089261", "output_locID": "00089261-3", "name": "Pristina", "focus_area": "1", "lat": "42.672720", "type": "PPLC", "awardID": "00079191", "lon": "21.166880", "precision": "1", "focus_area_descr": "Inclusive Growth"}, {"outputID": "00089261", "output_locID": "00089261-4", "name": "Gjilan", "focus_area": "1", "lat": "42.460450", "type": "PPLA", "awardID": "00079191", "lon": "21.469860", "precision": "1", "focus_area_descr": "Inclusive Growth"}, {"outputID": "00104334", "output_locID": "00104334-1", "name": "Vitina", "focus_area": "1", "lat": "42.321390", "type": "PPLA2", "awardID": "00079191", "lon": "21.358330", "precision": "1", "focus_area_descr": "Inclusive Growth"}, {"outputID": "00104334", "output_locID": "00104334-2", "name": "\u0160trpce", "focus_area": "1", "lat": "42.239440", "type": "PPLA2", "awardID": "00079191", "lon": "21.027220", "precision": "1", "focus_area_descr": "Inclusive Growth"}, {"outputID": "00104334", "output_locID": "00104334-3", "name": "Dragash", "focus_area": "1", "lat": "42.026500", "type": "PPLA2", "awardID": "00079191", "lon": "20.653330", "precision": "1", "focus_area_descr": "Inclusive Growth"}, {"outputID": "00104340", "output_locID": "00104340-1", "name": "Vitina", "focus_area": "1", "lat": "42.321390", "type": "PPLA2", "awardID": "00079191", "lon": "21.358330", "precision": "1", "focus_area_descr": "Inclusive Growth"}, {"outputID": "00104340", "output_locID": "00104340-2", "name": "\u0160trpce", "focus_area": "1", "lat": "42.239440", "type": "PPLA2", "awardID": "00079191", "lon": "21.027220", "precision": "1", "focus_area_descr": "Inclusive Growth"}, {"outputID": "00104340", "output_locID": "00104340-3", "name": "Dragash", "focus_area": "1", "lat": "42.026500", "type": "PPLA2", "awardID": "00079191", "lon": "20.653330", "precision": "1", "focus_area_descr": "Inclusive Growth"}]}, {"title": "active labour market programmes 2", "id": "00080204", "subnational": [{"outputID": "00089976", "output_locID": "00089976-1", "name": "Ferizaj", "focus_area": "1", "lat": "42.370560", "type": "PPLA", "awardID": "00080204", "lon": "21.155280", "precision": "1", "focus_area_descr": "Inclusive Growth"}, {"outputID": "00089976", "output_locID": "00089976-2", "name": "Prizren", "focus_area": "1", "lat": "42.213890", "type": "PPLA", "awardID": "00080204", "lon": "20.739720", "precision": "1", "focus_area_descr": "Inclusive Growth"}, {"outputID": "00089976", "output_locID": "00089976-3", "name": "Pristina", "focus_area": "1", "lat": "42.672720", "type": "PPLC", "awardID": "00080204", "lon": "21.166880", "precision": "1", "focus_area_descr": "Inclusive Growth"}, {"outputID": "00089976", "output_locID": "00089976-4", "name": "Podujevo", "focus_area": "1", "lat": "42.910560", "type": "PPLA2", "awardID": "00080204", "lon": "21.193060", "precision": "1", "focus_area_descr": "Inclusive Growth"}, {"outputID": "00089976", "output_locID": "00089976-5", "name": "Pec", "focus_area": "1", "lat": "42.659130", "type": "PPLA", "awardID": "00080204", "lon": "20.288280", "precision": "1", "focus_area_descr": "Inclusive Growth"}, {"outputID": "00089976", "output_locID": "00089976-6", "name": "Mitrovica", "focus_area": "1", "lat": "42.883330", "type": "PPLA", "awardID": "00080204", "lon": "20.866670", "precision": "1", "focus_area_descr": "Inclusive Growth"}, {"outputID": "00089976", "output_locID": "00089976-7", "name": "Klina", "focus_area": "1", "lat": "42.621670", "type": "PPLA2", "awardID": "00080204", "lon": "20.577780", "precision": "1", "focus_area_descr": "Inclusive Growth"}, {"outputID": "00089976", "output_locID": "00089976-8", "name": "Gjilan", "focus_area": "1", "lat": "42.460450", "type": "PPLA", "awardID": "00080204", "lon": "21.469860", "precision": "1", "focus_area_descr": "Inclusive Growth"}, {"outputID": "00089976", "output_locID": "00089976-9", "name": "Gjakove", "focus_area": "1", "lat": "42.380280", "type": "PPLA", "awardID": "00080204", "lon": "20.430830", "precision": "1", "focus_area_descr": "Inclusive Growth"}, {"outputID": "00089977", "output_locID": "00089977-1", "name": "Ferizaj", "focus_area": "1", "lat": "42.370560", "type": "PPLA", "awardID": "00080204", "lon": "21.155280", "precision": "1", "focus_area_descr": "Inclusive Growth"}, {"outputID": "00089977", "output_locID": "00089977-2", "name": "Prizren", "focus_area": "1", "lat": "42.213890", "type": "PPLA", "awardID": "00080204", "lon": "20.739720", "precision": "1", "focus_area_descr": "Inclusive Growth"}, {"outputID": "00089977", "output_locID": "00089977-3", "name": "Rahovec", "focus_area": "1", "lat": "42.399440", "type": "PPLA2", "awardID": "00080204", "lon": "20.654720", "precision": "1", "focus_area_descr": "Inclusive Growth"}, {"outputID": "00089977", "output_locID": "00089977-4", "name": "Malisheve", "focus_area": "1", "lat": "42.482220", "type": "PPLA2", "awardID": "00080204", "lon": "20.745830", "precision": "1", "focus_area_descr": "Inclusive Growth"}, {"outputID": "00089977", "output_locID": "00089977-5", "name": "Klina", "focus_area": "1", "lat": "42.621670", "type": "PPLA2", "awardID": "00080204", "lon": "20.577780", "precision": "1", "focus_area_descr": "Inclusive Growth"}, {"outputID": "00089978", "output_locID": "00089978-1", "name": "Gjilan", "focus_area": "1", "lat": "42.460450", "type": "PPLA", "awardID": "00080204", "lon": "21.469860", "precision": "1", "focus_area_descr": "Inclusive Growth"}, {"outputID": "00090773", "output_locID": "00090773-1", "name": "Pristina", "focus_area": "1", "lat": "42.672720", "type": "PPLC", "awardID": "00080204", "lon": "21.166880", "precision": "1", "focus_area_descr": "Inclusive Growth"}, {"outputID": "00090773", "output_locID": "00090773-2", "name": "Podujevo", "focus_area": "1", "lat": "42.910560", "type": "PPLA2", "awardID": "00080204", "lon": "21.193060", "precision": "1", "focus_area_descr": "Inclusive Growth"}, {"outputID": "00090773", "output_locID": "00090773-3", "name": "Pec", "focus_area": "1", "lat": "42.659130", "type": "PPLA", "awardID": "00080204", "lon": "20.288280", "precision": "1", "focus_area_descr": "Inclusive Growth"}, {"outputID": "00090773", "output_locID": "00090773-4", "name": "Mitrovica", "focus_area": "1", "lat": "42.883330", "type": "PPLA", "awardID": "00080204", "lon": "20.866670", "precision": "1", "focus_area_descr": "Inclusive Growth"}, {"outputID": "00090773", "output_locID": "00090773-5", "name": "Gjakove", "focus_area": "1", "lat": "42.380280", "type": "PPLA", "awardID": "00080204", "lon": "20.430830", "precision": "1", "focus_area_descr": "Inclusive Growth"}]}, {"title": "support to strengthen the rule of law in kosovo", "id": "00084098", "subnational": [{"outputID": "00092278", "output_locID": "00092278-1", "name": "Pristina", "focus_area": "3", "lat": "42.672720", "type": "PPLC", "awardID": "00084098", "lon": "21.166880", "precision": "1", "focus_area_descr": "Basic Services"}, {"outputID": "00092278", "output_locID": "00092278-2", "name": "Mitrovica", "focus_area": "3", "lat": "42.883330", "type": "PPLA", "awardID": "00084098", "lon": "20.866670", "precision": "1", "focus_area_descr": "Basic Services"}, {"outputID": "00092277", "output_locID": "00092277-1", "name": "Pristina", "focus_area": "3", "lat": "42.672720", "type": "PPLC", "awardID": "00084098", "lon": "21.166880", "precision": "1", "focus_area_descr": "Responsive Institutions"}, {"outputID": "00092279", "output_locID": "00092279-1", "name": "Pristina", "focus_area": "3", "lat": "42.672720", "type": "PPLC", "awardID": "00084098", "lon": "21.166880", "precision": "1", "focus_area_descr": "Responsive Institutions"}]}, {"title": "crossborder drin basin management", "id": "00086486", "subnational": [{"outputID": "00093741", "output_locID": "00093741-1", "name": "Rahovec", "focus_area": "2", "lat": "42.399440", "type": "PPLA2", "awardID": "00086486", "lon": "20.654720", "precision": "1", "focus_area_descr": "Democratic Governance"}, {"outputID": "00093741", "output_locID": "00093741-2", "name": "Nashec", "focus_area": "2", "lat": "42.240280", "type": "PPLL", "awardID": "00086486", "lon": "20.652780", "precision": "1", "focus_area_descr": "Democratic Governance"}, {"outputID": "00093741", "output_locID": "00093741-3", "name": "Lukinaj", "focus_area": "2", "lat": "42.294170", "type": "PPL", "awardID": "00086486", "lon": "20.615280", "precision": "1", "focus_area_descr": "Democratic Governance"}, {"outputID": "00093741", "output_locID": "00093741-4", "name": "Krajk", "focus_area": "2", "lat": "42.282220", "type": "PPL", "awardID": "00086486", "lon": "20.660830", "precision": "1", "focus_area_descr": "Democratic Governance"}, {"outputID": "00093741", "output_locID": "00093741-5", "name": "Dobrushte", "focus_area": "2", "lat": "42.180830", "type": "PPL", "awardID": "00086486", "lon": "20.590280", "precision": "1", "focus_area_descr": "Democratic Governance"}, {"outputID": "00093741", "output_locID": "00093741-6", "name": "Bishtazhin", "focus_area": "2", "lat": "42.355560", "type": "PPL", "awardID": "00086486", "lon": "20.511940", "precision": "1", "focus_area_descr": "Democratic Governance"}]}, {"title": "global environment facility small grants", "id": "00086551", "subnational": [{"outputID": "00093778", "output_locID": "00093778-1", "name": "Pristina", "focus_area": "5", "lat": "42.672720", "type": "PPLC", "awardID": "00086551", "lon": "21.166880", "precision": "1", "focus_area_descr": "Risk Reduction"}]}, {"title": "joint programme on domestic violence in kosovo", "id": "00086571", "subnational": [{"outputID": "00093792", "output_locID": "00093792-1", "name": "Pristina", "focus_area": "4", "lat": "42.672720", "type": "PPLC", "awardID": "00086571", "lon": "21.166880", "precision": "1", "focus_area_descr": "Gender Equality"}, {"outputID": "00093792", "output_locID": "00093792-2", "name": "Leposaviq", "focus_area": "4", "lat": "43.103890", "type": "PPLA2", "awardID": "00086571", "lon": "20.802780", "precision": "1", "focus_area_descr": "Gender Equality"}, {"outputID": "00093792", "output_locID": "00093792-3", "name": "Mitrovica", "focus_area": "4", "lat": "42.883330", "type": "PPLA", "awardID": "00086571", "lon": "20.866670", "precision": "1", "focus_area_descr": "Gender Equality"}, {"outputID": "00093792", "output_locID": "00093792-4", "name": "Gjilan", "focus_area": "4", "lat": "42.460450", "type": "PPLA", "awardID": "00086571", "lon": "21.469860", "precision": "1", "focus_area_descr": "Gender Equality"}, {"outputID": "00093792", "output_locID": "00093792-5", "name": "Dragash", "focus_area": "4", "lat": "42.026500", "type": "PPLA2", "awardID": "00086571", "lon": "20.653330", "precision": "1", "focus_area_descr": "Gender Equality"}, {"outputID": "00093792", "output_locID": "00093792-6", "name": "Gjakove", "focus_area": "4", "lat": "42.380280", "type": "PPLA", "awardID": "00086571", "lon": "20.430830", "precision": "1", "focus_area_descr": "Gender Equality"}]}, {"title": "institutional strengthening of anti-corruption", "id": "00086608", "subnational": [{"outputID": "00093846", "output_locID": "00093846-1", "name": "Vitina", "focus_area": "2", "lat": "42.321390", "type": "PPLA2", "awardID": "00086608", "lon": "21.358330", "precision": "1", "focus_area_descr": "Democratic Governance"}, {"outputID": "00093846", "output_locID": "00093846-2", "name": "Prizren", "focus_area": "2", "lat": "42.213890", "type": "PPLA", "awardID": "00086608", "lon": "20.739720", "precision": "1", "focus_area_descr": "Democratic Governance"}, {"outputID": "00093846", "output_locID": "00093846-3", "name": "Pristina", "focus_area": "2", "lat": "42.672720", "type": "PPLC", "awardID": "00086608", "lon": "21.166880", "precision": "1", "focus_area_descr": "Democratic Governance"}, {"outputID": "00093846", "output_locID": "00093846-4", "name": "Pec", "focus_area": "2", "lat": "42.659130", "type": "PPLA", "awardID": "00086608", "lon": "20.288280", "precision": "1", "focus_area_descr": "Democratic Governance"}, {"outputID": "00093846", "output_locID": "00093846-5", "name": "Gracanica", "focus_area": "2", "lat": "42.601110", "type": "PPL", "awardID": "00086608", "lon": "21.195830", "precision": "1", "focus_area_descr": "Democratic Governance"}, {"outputID": "00093846", "output_locID": "00093846-6", "name": "Gjakove", "focus_area": "2", "lat": "42.380280", "type": "PPLA", "awardID": "00086608", "lon": "20.430830", "precision": "1", "focus_area_descr": "Democratic Governance"}, {"outputID": "00097356", "output_locID": "00097356-1", "name": "Prizren", "focus_area": "2", "lat": "42.213890", "type": "PPLA", "awardID": "00086608", "lon": "20.739720", "precision": "1", "focus_area_descr": "Democratic Governance"}, {"outputID": "00097356", "output_locID": "00097356-2", "name": "Klina", "focus_area": "2", "lat": "42.621670", "type": "PPLA2", "awardID": "00086608", "lon": "20.577780", "precision": "1", "focus_area_descr": "Democratic Governance"}, {"outputID": "00097357", "output_locID": "00097357-1", "name": "Pristina", "focus_area": "2", "lat": "42.672720", "type": "PPLC", "awardID": "00086608", "lon": "21.166880", "precision": "1", "focus_area_descr": "Democratic Governance"}, {"outputID": "00097357", "output_locID": "00097357-2", "name": "Pec", "focus_area": "2", "lat": "42.659130", "type": "PPLA", "awardID": "00086608", "lon": "20.288280", "precision": "1", "focus_area_descr": "Democratic Governance"}, {"outputID": "00097357", "output_locID": "00097357-3", "name": "Gjilan", "focus_area": "2", "lat": "42.460450", "type": "PPLA", "awardID": "00086608", "lon": "21.469860", "precision": "1", "focus_area_descr": "Democratic Governance"}, {"outputID": "00097357", "output_locID": "00097357-4", "name": "Gjakove", "focus_area": "2", "lat": "42.380280", "type": "PPLA", "awardID": "00086608", "lon": "20.430830", "precision": "1", "focus_area_descr": "Democratic Governance"}]}, {"title": "mosaic citizens perception on local governance", "id": "00089986", "subnational": [{"outputID": "00095981", "output_locID": "00095981-1", "name": "Pristina", "focus_area": "3", "lat": "42.672720", "type": "PPLC", "awardID": "00089986", "lon": "21.166880", "precision": "1", "focus_area_descr": "Basic Services"}]}, {"title": "confidence building through cultural protection", "id": "00089987", "subnational": [{"outputID": "00095982", "output_locID": "00095982-1", "name": "Ferizaj", "focus_area": "3", "lat": "42.370560", "type": "PPLA", "awardID": "00089987", "lon": "21.155280", "precision": "1", "focus_area_descr": "Basic Services"}, {"outputID": "00095982", "output_locID": "00095982-2", "name": "Pec", "focus_area": "3", "lat": "42.659130", "type": "PPLA", "awardID": "00089987", "lon": "20.288280", "precision": "1", "focus_area_descr": "Basic Services"}, {"outputID": "00095982", "output_locID": "00095982-3", "name": "Gjilan", "focus_area": "3", "lat": "42.460450", "type": "PPLA", "awardID": "00089987", "lon": "21.469860", "precision": "1", "focus_area_descr": "Basic Services"}]}, {"title": "skills development in kosovo", "id": "00089989", "subnational": [{"outputID": "00095984", "output_locID": "00095984-1", "name": "Pristina", "focus_area": "1", "lat": "42.672720", "type": "PPLC", "awardID": "00089989", "lon": "21.166880", "precision": "1", "focus_area_descr": "Inclusive Growth"}]}, {"title": "kosovo missing persons initative to increase stability", "id": "00099619", "subnational": [{"outputID": "00102910", "output_locID": "00102910-1", "name": "Pristina", "focus_area": "2", "lat": "42.672720", "type": "PPLC", "awardID": "00099619", "lon": "21.166880", "precision": "1", "focus_area_descr": "Democratic Governance"}]}, {"title": "kosovo safety and security programme", "id": "00100185", "subnational": [{"outputID": "00103256", "output_locID": "00103256-1", "name": "Pristina", "focus_area": "5", "lat": "42.672720", "type": "PPLC", "awardID": "00100185", "lon": "21.166880", "precision": "1", "focus_area_descr": "Risk Reduction"}, {"outputID": "00103731", "output_locID": "00103731-1", "name": "Ferizaj", "focus_area": "5", "lat": "42.370560", "type": "PPLA", "awardID": "00100185", "lon": "21.155280", "precision": "1", "focus_area_descr": "Risk Reduction"}, {"outputID": "00103731", "output_locID": "00103731-2", "name": "Mamu\u0161a", "focus_area": "5", "lat": "42.330830", "type": "PPLA2", "awardID": "00100185", "lon": "20.726940", "precision": "1", "focus_area_descr": "Risk Reduction"}, {"outputID": "00103731", "output_locID": "00103731-3", "name": "Gjilan", "focus_area": "5", "lat": "42.460450", "type": "PPLA", "awardID": "00100185", "lon": "21.469860", "precision": "1", "focus_area_descr": "Risk Reduction"}, {"outputID": "00103731", "output_locID": "00103731-4", "name": "Dragash", "focus_area": "5", "lat": "42.026500", "type": "PPLA2", "awardID": "00100185", "lon": "20.653330", "precision": "1", "focus_area_descr": "Risk Reduction"}]}, {"title": "gender based violence and access to justice", "id": "00109645", "subnational": []}, {"title": "support reintegration, self-reliance and language use", "id": "00062943", "subnational": [{"outputID": "00080858", "output_locID": "00080858-1", "name": "Pristina", "focus_area": "5", "lat": "42.672720", "type": "PPLC", "awardID": "00062943", "lon": "21.166880", "precision": "1", "focus_area_descr": "Risk Reduction"}, {"outputID": "00097415", "output_locID": "00097415-1", "name": "Pristina", "focus_area": "6", "lat": "42.672720", "type": "PPLC", "awardID": "00062943", "lon": "21.166880", "precision": "1", "focus_area_descr": "Early Recovery"}, {"outputID": "00087762", "output_locID": "00087762-1", "name": "Pristina", "focus_area": "6", "lat": "42.672720", "type": "PPLC", "awardID": "00062943", "lon": "21.166880", "precision": "1", "focus_area_descr": "Crisis Prevention & Recovery"}]}, {"title": "support to transitional justice in kosovo", "id": "00076799", "subnational": [{"outputID": "00087991", "output_locID": "00087991-1", "name": "Pristina", "focus_area": "3", "lat": "42.672720", "type": "PPLC", "awardID": "00076799", "lon": "21.166880", "precision": "1", "focus_area_descr": "Basic Services"}, {"outputID": "00087993", "output_locID": "00087993-1", "name": "Pristina", "focus_area": "3", "lat": "42.672720", "type": "PPLC", "awardID": "00076799", "lon": "21.166880", "precision": "1", "focus_area_descr": "Basic Services"}]}, {"title": "diaspora engagement for economic development ii", "id": "00082765", "subnational": [{"outputID": "00091536", "output_locID": "00091536-1", "name": "Pristina", "focus_area": "1", "lat": "42.672720", "type": "PPLC", "awardID": "00082765", "lon": "21.166880", "precision": "1", "focus_area_descr": "Inclusive Growth"}]}, {"title": "firearms explosives risk minimization", "id": "00083405", "subnational": [{"outputID": "00091896", "output_locID": "00091896-1", "name": "Pristina", "focus_area": "3", "lat": "42.672720", "type": "PPLC", "awardID": "00083405", "lon": "21.166880", "precision": "1", "focus_area_descr": "Basic Services"}]}, {"title": "support to impl. of the forest policy and strategy ph2", "id": "00086525", "subnational": [{"outputID": "00093761", "output_locID": "00093761-1", "name": "Pristina", "focus_area": "1", "lat": "42.672720", "type": "PPLC", "awardID": "00086525", "lon": "21.166880", "precision": "1", "focus_area_descr": "Inclusive Growth"}, {"outputID": "00093761", "output_locID": "00093761-2", "name": "Mitrovica", "focus_area": "1", "lat": "42.883330", "type": "PPLA", "awardID": "00086525", "lon": "20.866670", "precision": "1", "focus_area_descr": "Inclusive Growth"}]}, {"title": "action for municipal leadership and cooperation", "id": "00086591", "subnational": [{"outputID": "00093814", "output_locID": "00093814-1", "name": "Zvecan", "focus_area": "2", "lat": "42.907500", "type": "PPLA2", "awardID": "00086591", "lon": "20.840280", "precision": "1", "focus_area_descr": "Democratic Governance"}, {"outputID": "00093814", "output_locID": "00093814-2", "name": "Zubin Potok", "focus_area": "2", "lat": "42.914440", "type": "PPLA2", "awardID": "00086591", "lon": "20.689720", "precision": "1", "focus_area_descr": "Democratic Governance"}, {"outputID": "00093814", "output_locID": "00093814-3", "name": "Pristina", "focus_area": "2", "lat": "42.672720", "type": "PPLC", "awardID": "00086591", "lon": "21.166880", "precision": "1", "focus_area_descr": "Democratic Governance"}, {"outputID": "00093814", "output_locID": "00093814-4", "name": "Leposaviq", "focus_area": "2", "lat": "43.103890", "type": "PPLA2", "awardID": "00086591", "lon": "20.802780", "precision": "1", "focus_area_descr": "Democratic Governance"}, {"outputID": "00093814", "output_locID": "00093814-5", "name": "Mitrovica", "focus_area": "2", "lat": "42.883330", "type": "PPLA", "awardID": "00086591", "lon": "20.866670", "precision": "1", "focus_area_descr": "Democratic Governance"}]}, {"title": "modernization of public administration", "id": "00090402", "subnational": [{"outputID": "00096185", "output_locID": "00096185-1", "name": "Pristina", "focus_area": "2", "lat": "42.672720", "type": "PPLC", "awardID": "00090402", "lon": "21.166880", "precision": "1", "focus_area_descr": "Democratic Governance"}]}, {"title": "un support to mcc data", "id": "00098082", "subnational": [{"outputID": "00101546", "output_locID": "00101546-1", "name": "Pristina", "focus_area": "16", "lat": "42.672720", "type": "PPLC", "awardID": "00098082", "lon": "21.166880", "precision": "1", "focus_area_descr": "Organizational Results Area 9"}]}, {"title": "support to un coordination", "id": "00046363", "subnational": [{"outputID": "00055160", "output_locID": "00055160-1", "name": "Gjilan", "focus_area": "-", "lat": "42.460450", "type": "PPLA", "awardID": "00046363", "lon": "21.469860", "precision": "1", "focus_area_descr": "-"}, {"outputID": "00055160", "output_locID": "00055160-2", "name": "Gjilan", "focus_area": "-", "lat": "42.460450", "type": "PPLA", "awardID": "00046363", "lon": "21.469860", "precision": "1", "focus_area_descr": "-"}, {"outputID": "00055160", "output_locID": "00055160-3", "name": "Dragash", "focus_area": "-", "lat": "42.026500", "type": "PPLA", "awardID": "00046363", "lon": "20.653330", "precision": "1", "focus_area_descr": "-"}, {"outputID": "00055160", "output_locID": "00055160-4", "name": "Komuna e Gjakov\u00ebs", "focus_area": "-", "lat": "42.383330", "type": "ADM1", "awardID": "00046363", "lon": "20.383330", "precision": "1", "focus_area_descr": "-"}, {"outputID": "00082598", "output_locID": "00082598-1", "name": "Pristina", "focus_area": "-", "lat": "42.672720", "type": "PPLC", "awardID": "00046363", "lon": "21.166880", "precision": "1", "focus_area_descr": "-"}]}, {"title": "undp/unv umbrella project for kosovo", "id": "00051196", "subnational": [{"outputID": "00063620", "output_locID": "00063620-1", "name": "Pristina", "focus_area": "2", "lat": "42.672720", "type": "PPLC", "awardID": "00051196", "lon": "21.166880", "precision": "1", "focus_area_descr": "Democratic Governance"}]}, {"title": "sustainable development policies of central&local govern", "id": "00058697", "subnational": [{"outputID": "00073049", "output_locID": "00073049-1", "name": "Pristina", "focus_area": "2", "lat": "42.672720", "type": "PPLC", "awardID": "00058697", "lon": "21.166880", "precision": "1", "focus_area_descr": "Democratic Governance"}]}, {"title": "parliamentary development for social policies", "id": "00061359", "subnational": [{"outputID": "00077706", "output_locID": "00077706-1", "name": "Pristina", "focus_area": "2", "lat": "42.672720", "type": "PPLC", "awardID": "00061359", "lon": "21.166880", "precision": "1", "focus_area_descr": "Democratic Governance"}]}, {"title": "support to anti-corruption efforts in kosovo", "id": "00068654", "subnational": [{"outputID": "00083712", "output_locID": "00083712-1", "name": "Pristina", "focus_area": "2", "lat": "42.672720", "type": "PPLC", "awardID": "00068654", "lon": "21.166880", "precision": "1", "focus_area_descr": "Democratic Governance"}, {"outputID": "00084155", "output_locID": "00084155-1", "name": "Pristina", "focus_area": "2", "lat": "42.672720", "type": "PPLC", "awardID": "00068654", "lon": "21.166880", "precision": "1", "focus_area_descr": "Democratic Governance"}]}, {"title": "building better future for citizens of 2 municipalities", "id": "00069078", "subnational": [{"outputID": "00083862", "output_locID": "00083862-1", "name": "Pristina", "focus_area": "3", "lat": "42.672720", "type": "PPLC", "awardID": "00069078", "lon": "21.166880", "precision": "1", "focus_area_descr": "Responsive Institutions"}]}, {"title": "data for development", "id": "00071978", "subnational": [{"outputID": "00085215", "output_locID": "00085215-1", "name": "Pristina", "focus_area": "7", "lat": "42.672720", "type": "PPLC", "awardID": "00071978", "lon": "21.166880", "precision": "1", "focus_area_descr": "Development Impact & Effectiveness"}, {"outputID": "00085216", "output_locID": "00085216-1", "name": "Pristina", "focus_area": "7", "lat": "42.672720", "type": "PPLC", "awardID": "00071978", "lon": "21.166880", "precision": "1", "focus_area_descr": "Development Impact & Effectiveness"}]}, {"title": "support for low emission development in kosovo", "id": "00075228", "subnational": [{"outputID": "00087252", "output_locID": "00087252-1", "name": "Pristina", "focus_area": "1", "lat": "42.672720", "type": "PPLC", "awardID": "00075228", "lon": "21.166880", "precision": "1", "focus_area_descr": "Inclusive & Sustainable Growth"}]}, {"title": "kosovo small arms control initiative", "id": "00045950", "subnational": [{"outputID": "00060818", "output_locID": "00060818-1", "name": "Pristina", "focus_area": "3", "lat": "42.672720", "type": "PPLC", "awardID": "00045950", "lon": "21.166880", "precision": "1", "focus_area_descr": "Responsive Institutions"}]}, {"title": "local development for community stabilization ii", "id": "00048412", "subnational": [{"outputID": "00058545", "output_locID": "00058545-1", "name": "Mitrovic\u00eb", "focus_area": "3", "lat": "42.883330", "type": "PPLA", "awardID": "00048412", "lon": "20.866670", "precision": "1", "focus_area_descr": "Responsive Institutions"}]}, {"title": "management & operational support for kosovo institutions", "id": "00057054", "subnational": [{"outputID": "00070331", "output_locID": "00070331-1", "name": "Pristina", "focus_area": "5", "lat": "42.672720", "type": "PPLC", "awardID": "00057054", "lon": "21.166880", "precision": "1", "focus_area_descr": "Climate Change & Disaster Resilience"}]}, {"title": "unkt joint program on domestic violence in kosovo", "id": "00062497", "subnational": [{"outputID": "00080010", "output_locID": "00080010-1", "name": "Pristina", "focus_area": "4", "lat": "42.672720", "type": "PPLC", "awardID": "00062497", "lon": "21.166880", "precision": "1", "focus_area_descr": "Gender Equality"}]}, {"title": "diaspora engagement in economic development", "id": "00063655", "subnational": [{"outputID": "00080634", "output_locID": "00080634-1", "name": "Pristina", "focus_area": "1", "lat": "42.672720", "type": "PPLC", "awardID": "00063655", "lon": "21.166880", "precision": "1", "focus_area_descr": "Inclusive & Sustainable Growth"}]}, {"title": "social media for innovative local   empowerment", "id": "00066550", "subnational": [{"outputID": "00082707", "output_locID": "00082707-1", "name": "Pristina", "focus_area": "2", "lat": "42.672720", "type": "PPLC", "awardID": "00066550", "lon": "21.166880", "precision": "1", "focus_area_descr": "Democratic Governance"}]}, {"title": "kosovo rule of law", "id": "00044983", "subnational": [{"outputID": "00053055", "output_locID": "00053055-1", "name": "Pristina", "focus_area": "3", "lat": "42.672720", "type": "PPLC", "awardID": "00044983", "lon": "21.166880", "precision": "1", "focus_area_descr": "Responsive Institutions"}]}, {"title": "women's safety and security initiative", "id": "00045485", "subnational": [{"outputID": "00069640", "output_locID": "00069640-1", "name": "Pristina", "focus_area": "4", "lat": "42.672720", "type": "PPLC", "awardID": "00045485", "lon": "21.166880", "precision": "1", "focus_area_descr": "Gender Equality"}]}, {"title": "active labor market programme for youth", "id": "00049059", "subnational": [{"outputID": "00059584", "output_locID": "00059584-1", "name": "Pristina", "focus_area": "1", "lat": "42.672720", "type": "PPLC", "awardID": "00049059", "lon": "21.166880", "precision": "1", "focus_area_descr": "Inclusive & Sustainable Growth"}]}, {"title": "preparatory assistance to sustainable develop.in dragash", "id": "00051398", "subnational": [{"outputID": "00076321", "output_locID": "00076321-1", "name": "Dragash", "focus_area": "1", "lat": "42.026500", "type": "PPLA", "awardID": "00051398", "lon": "20.653330", "precision": "1", "focus_area_descr": "Inclusive & Sustainable Growth"}]}, {"title": "access to justice", "id": "00057371", "subnational": [{"outputID": "00081422", "output_locID": "00081422-1", "name": "Pristina", "focus_area": "4", "lat": "42.672720", "type": "PPLC", "awardID": "00057371", "lon": "21.166880", "precision": "1", "focus_area_descr": "Gender Equality"}]}, {"title": "capacity development facility for kosovo", "id": "00057923", "subnational": [{"outputID": "00074635", "output_locID": "00074635-1", "name": "Pristina", "focus_area": "3", "lat": "42.672720", "type": "PPLC", "awardID": "00057923", "lon": "21.166880", "precision": "1", "focus_area_descr": "Responsive Institutions"}, {"outputID": "00071736", "output_locID": "00071736-1", "name": "Pristina", "focus_area": "3", "lat": "42.672720", "type": "PPLC", "awardID": "00057923", "lon": "21.166880", "precision": "1", "focus_area_descr": "Responsive Institutions"}]}, {"title": "support to the rule of law and access to justice", "id": "00060065", "subnational": [{"outputID": "00075431", "output_locID": "00075431-1", "name": "Ferizaj", "focus_area": "3", "lat": "42.370560", "type": "PPLA", "awardID": "00060065", "lon": "21.155280", "precision": "1", "focus_area_descr": "Responsive Institutions"}, {"outputID": "00075431", "output_locID": "00075431-2", "name": "Pristina", "focus_area": "3", "lat": "42.672720", "type": "PPLC", "awardID": "00060065", "lon": "21.166880", "precision": "1", "focus_area_descr": "Responsive Institutions"}, {"outputID": "00075431", "output_locID": "00075431-3", "name": "Dragash", "focus_area": "3", "lat": "42.026500", "type": "PPLA", "awardID": "00060065", "lon": "20.653330", "precision": "1", "focus_area_descr": "Responsive Institutions"}, {"outputID": "00075431", "output_locID": "00075431-4", "name": "Gjakov\u00eb", "focus_area": "3", "lat": "42.380280", "type": "PPLA", "awardID": "00060065", "lon": "20.430830", "precision": "1", "focus_area_descr": "Responsive Institutions"}, {"outputID": "00075431", "output_locID": "00075431-5", "name": "\u00c7agllavica", "focus_area": "3", "lat": "42.620000", "type": "PPL", "awardID": "00060065", "lon": "21.146940", "precision": "1", "focus_area_descr": "Responsive Institutions"}]}, {"title": "enhancing women's participation in peace building", "id": "00068333", "subnational": [{"outputID": "00083588", "output_locID": "00083588-1", "name": "Pristina", "focus_area": "4", "lat": "42.672720", "type": "PPLC", "awardID": "00068333", "lon": "21.166880", "precision": "1", "focus_area_descr": "Gender Equality"}]}, {"title": "support to decentralisation in kosovo", "id": "00050846", "subnational": [{"outputID": "00062999", "output_locID": "00062999-1", "name": "Pristina", "focus_area": "-", "lat": "42.672720", "type": "PPLC", "awardID": "00050846", "lon": "21.166880", "precision": "1", "focus_area_descr": "-"}]}, {"title": "art gold kosovo programme", "id": "00051434", "subnational": [{"outputID": "00064046", "output_locID": "00064046-1", "name": "Dragash", "focus_area": "-", "lat": "42.026500", "type": "PPLA", "awardID": "00051434", "lon": "20.653330", "precision": "1", "focus_area_descr": "-"}]}, {"title": "kosovo partnership for anti-corruption", "id": "00057801", "subnational": [{"outputID": "00071537", "output_locID": "00071537-1", "name": "Pristina", "focus_area": "2", "lat": "42.672720", "type": "PPLC", "awardID": "00057801", "lon": "21.166880", "precision": "1", "focus_area_descr": "Democratic Governance"}]}, {"title": "social inclusion and development", "id": "00058395", "subnational": [{"outputID": "00072529", "output_locID": "00072529-1", "name": "Pristina", "focus_area": "-", "lat": "42.672720", "type": "PPLC", "awardID": "00058395", "lon": "21.166880", "precision": "1", "focus_area_descr": "-"}]}, {"title": "support to the human rights advisory panel secretariat", "id": "00061112", "subnational": [{"outputID": "00077288", "output_locID": "00077288-1", "name": "Pristina", "focus_area": "2", "lat": "42.672720", "type": "PPLC", "awardID": "00061112", "lon": "21.166880", "precision": "1", "focus_area_descr": "Democratic Governance"}]}, {"title": "justice and security", "id": "00056900", "subnational": []}, {"title": "population survey for the persons with disabilities", "id": "00060165", "subnational": []}, {"title": "association of the professional journalists of kosovo", "id": "00061321", "subnational": [{"outputID": "00077653", "output_locID": "00077653-1", "name": "Pristina", "focus_area": "-", "lat": "42.672720", "type": "PPLC", "awardID": "00061321", "lon": "21.166880", "precision": "1", "focus_area_descr": "-"}]}, {"title": "internally displaced peoples-kosovo,serbia & montenegro", "id": "00046721", "subnational": []}, {"title": "kosovo protection corps resettlement programme", "id": "00051221", "subnational": []}, {"title": "reducing hiv vulnerability", "id": "00060717", "subnational": []}, {"title": "return and reintegration in kosovo", "id": "00048936", "subnational": []}, {"title": "roadmap to the achievement of the mdgs in kosovo", "id": "00058108", "subnational": []}, {"title": "support to programme development", "id": "00047206", "subnational": []}, {"title": "support to security sector development", "id": "00047914", "subnational": []}, {"title": "sustainable partnerships for assistance to return", "id": "00041050", "subnational": []}], "op_unit": "KOS"}