{"iso_num":"508","op_unit":"MOZ","projects":[{"id":"00062383","subnational":[{"awardID":"00062383","focus_area":"3","focus_area_descr":"Crisis prevention & recovery","lat":"-18.25","lon":"35","name":"Mozambique","outputID":"00079862","output_locID":"00079862-1","precision":"9","type":"PCL"}],"title":"Adaptation in the Coastal Zones of Mozambique"},{"id":"00058248","subnational":[{"awardID":"00058248","focus_area":"3","focus_area_descr":"Crisis prevention & recovery","lat":"-18.25","lon":"35","name":"Mozambique","outputID":"00072288","output_locID":"00072288-1","precision":"9","type":"PCL"}],"title":"African Adaptation Programme & Mainstreaming in MOZ"},{"id":"00047928","subnational":[{"awardID":"00047928","focus_area":"3","focus_area_descr":"Crisis prevention & recovery","lat":"-24.4975","lon":"33.01333","name":"Guija","outputID":"00057849","output_locID":"00057849-1","precision":"3","type":"RES"},{"awardID":"00047928","focus_area":"3","focus_area_descr":"Crisis prevention & recovery","lat":"-23.5024","lon":"34.5657","name":"Mbala vala","outputID":"00057849","output_locID":"00057849-2","precision":"3","type":"PPL"},{"awardID":"00047928","focus_area":"3","focus_area_descr":"Crisis prevention & recovery","lat":"-24.03722","lon":"33.3425","name":"Nalazi","outputID":"00057849","output_locID":"00057849-3","precision":"4","type":"RES"},{"awardID":"00047928","focus_area":"3","focus_area_descr":"Crisis prevention & recovery","lat":"-23.93222","lon":"32.57778","name":"Nhanguenha","outputID":"00057849","output_locID":"00057849-4","precision":"4","type":"RES"}],"title":"Coping With Drought and Climate Change"},{"id":"00063755","subnational":[{"awardID":"00063755","focus_area":"2","focus_area_descr":"Democratic governance","lat":"-25.96553","lon":"32.58322","name":"Maputo","outputID":"00080671","output_locID":"00080671-1","precision":"3","type":"PPLC"}],"title":"Country Programme Coordination and Capacity Development"},{"id":"00046039","subnational":[{"awardID":"00046039","focus_area":"2","focus_area_descr":"Democratic governance","lat":"-25.96553","lon":"32.58322","name":"Maputo","outputID":"00054606","output_locID":"00054606-1","precision":"3","type":"PPLC"}],"title":"Country Programme Management"},{"id":"00064002","subnational":[{"awardID":"00064002","focus_area":"3","focus_area_descr":"Crisis prevention & recovery","lat":"-25.96553","lon":"32.58322","name":"Maputo","outputID":"00080863","output_locID":"00080863-1","precision":"3","type":"PPLC"}],"title":"Developing National Capacities for Green Human Developme"},{"id":"00056529","subnational":[{"awardID":"00056529","focus_area":"3","focus_area_descr":"Crisis prevention & recovery","lat":"-18.25","lon":"35","name":"Mozambique","outputID":"00069208","output_locID":"00069208-1","precision":"9","type":"PCL"}],"title":"DIPECHO - Knowledge management in DP and RR"},{"id":"00048260","subnational":[{"awardID":"00048260","focus_area":"2","focus_area_descr":"Democratic governance","lat":"-18.25","lon":"35","name":"Mozambique","outputID":"00077166","output_locID":"00077166-1","precision":"9","type":"PCL"},{"awardID":"00048260","focus_area":"-","focus_area_descr":"-","lat":"-18.25","lon":"35","name":"Mozambique","outputID":"00069447","output_locID":"00069447-1","precision":"9","type":"PCL"}],"title":"Electoral Assistance"},{"id":"00063617","subnational":[{"awardID":"00063617","focus_area":"2","focus_area_descr":"Democratic governance","lat":"-18.25","lon":"35","name":"Mozambique","outputID":"00080605","output_locID":"00080605-1","precision":"9","type":"PCL"},{"awardID":"00063617","focus_area":"2","focus_area_descr":"Democratic governance","lat":"-18.25","lon":"35","name":"Mozambique","outputID":"00080637","output_locID":"00080637-1","precision":"9","type":"PCL"}],"title":"Enhancing Dec and Loc Dev in Mozambique"},{"id":"00059708","subnational":[{"awardID":"00059708","focus_area":"2","focus_area_descr":"Democratic governance","lat":"-18.25","lon":"35","name":"Mozambique","outputID":"00074799","output_locID":"00074799-1","precision":"9","type":"PCL"}],"title":"Establishment of a National Volunteer Agency"},{"id":"00013710","subnational":[{"awardID":"00013710","focus_area":"2","focus_area_descr":"Democratic governance","lat":"-18.53268","lon":"35.3183","name":"Cheringoma","outputID":"00039087","output_locID":"00039087-1","precision":"3","type":"ADM2"}],"title":"ICT For Development"},{"id":"00063736","subnational":[{"awardID":"00063736","focus_area":"2","focus_area_descr":"Democratic governance","lat":"-18.25","lon":"35","name":"Mozambique","outputID":"00080661","output_locID":"00080661-1","precision":"9","type":"PCL"}],"title":"Improved Electoral Civil Responsibility"},{"id":"00063579","subnational":[{"awardID":"00063579","focus_area":"1","focus_area_descr":"Poverty reduction & MDG achievement","lat":"-18.25","lon":"35","name":"Mozambique","outputID":"00080588","output_locID":"00080588-1","precision":"9","type":"PCL"},{"awardID":"00063579","focus_area":"1","focus_area_descr":"Poverty reduction & MDG achievement","lat":"-18.25","lon":"35","name":"Mozambique","outputID":"00080630","output_locID":"00080630-1","precision":"9","type":"PCL"}],"title":"Local Economic Development for Increased Incomes"},{"id":"00013717","subnational":[{"awardID":"00013717","focus_area":"2","focus_area_descr":"Democratic governance","lat":"-18.25","lon":"35","name":"Mozambique","outputID":"00013717","output_locID":"00013717-1","precision":"9","type":"PCL"}],"title":"Local Government Reform"},{"id":"00013718","subnational":[{"awardID":"00013718","focus_area":"-","focus_area_descr":"-","lat":"-18.25","lon":"35","name":"Mozambique","outputID":"00013718","output_locID":"00013718-1","precision":"9","type":"PCL"}],"title":"NAPA for Mozambique"},{"id":"00065340","subnational":[{"awardID":"00065340","focus_area":"2","focus_area_descr":"Democratic governance","lat":"-25.96553","lon":"32.58322","name":"Maputo","outputID":"00081885","output_locID":"00081885-1","precision":"3","type":"PPLC"}],"title":"Parliament's Fiscal Oversight & Law Making"},{"id":"00070803","subnational":[{"awardID":"00070803","focus_area":"-","focus_area_descr":"-","lat":"-18.25","lon":"35","name":"Mozambique","outputID":"00084610","output_locID":"00084610-1","precision":"9","type":"PCL"}],"title":"Policy and Capacity Development Facility"},{"id":"00050773","subnational":[{"awardID":"00050773","focus_area":"3","focus_area_descr":"Crisis prevention & recovery","lat":"-12.5","lon":"39.4","name":"Cabo Delgado","outputID":"00062853","output_locID":"00062853-1","precision":"4","type":"ADM1"},{"awardID":"00050773","focus_area":"3","focus_area_descr":"Crisis prevention & recovery","lat":"-25.05194","lon":"33.64417","name":"Gaza","outputID":"00062853","output_locID":"00062853-2","precision":"4","type":"ADM1"},{"awardID":"00050773","focus_area":"3","focus_area_descr":"Crisis prevention & recovery","lat":"-17.87861","lon":"36.88833","name":"Zambezia","outputID":"00062853","output_locID":"00062853-3","precision":"4","type":"ADM1"}],"title":"Poverty and Environment Initiative, PEI II, MOZ"},{"id":"00013705","subnational":[{"awardID":"00013705","focus_area":"-","focus_area_descr":"-","lat":"-25.96553","lon":"32.58322","name":"Maputo city","outputID":"00013705","output_locID":"00013705-1","precision":"3","type":"PPLC"}],"title":"PSP"},{"id":"00059285","subnational":[{"awardID":"00059285","focus_area":"2","focus_area_descr":"Democratic governance","lat":"-15.46358","lon":"36.98167","name":"Gurue","outputID":"00074093","output_locID":"00074093-1","precision":"3","type":"PPL"}],"title":"Rapid Results Fund"},{"id":"00064436","subnational":[{"awardID":"00064436","focus_area":"2","focus_area_descr":"Democratic governance","lat":"-18.25","lon":"35","name":"Mozambique","outputID":"00081247","output_locID":"00081247-1","precision":"9","type":"PCL"}],"title":"Research and Capacity building on MDGs and HD"},{"id":"00063619","subnational":[{"awardID":"00063619","focus_area":"2","focus_area_descr":"Democratic governance","lat":"-18.25","lon":"35","name":"Mozambique","outputID":"00080609","output_locID":"00080609-1","precision":"9","type":"PCL"},{"awardID":"00063619","focus_area":"2","focus_area_descr":"Democratic governance","lat":"-18.25","lon":"35","name":"Mozambique","outputID":"00080649","output_locID":"00080649-1","precision":"9","type":"PCL"}],"title":"Strengthen Access to Justice, Rule of Law & Human Rights"},{"id":"00063225","subnational":[{"awardID":"00063225","focus_area":"3","focus_area_descr":"Crisis prevention & recovery","lat":"-18.25","lon":"35","name":"Mozambique","outputID":"00080475","output_locID":"00080475-1","precision":"9","type":"PCL"},{"awardID":"00063225","focus_area":"3","focus_area_descr":"Crisis prevention & recovery","lat":"-18.25","lon":"35","name":"Mozambique","outputID":"00080476","output_locID":"00080476-1","precision":"9","type":"PCL"},{"awardID":"00063225","focus_area":"3","focus_area_descr":"Crisis prevention & recovery","lat":"-18.25","lon":"35","name":"Mozambique","outputID":"00085449","output_locID":"00085449-1","precision":"9","type":"PCL"},{"awardID":"00063225","focus_area":"3","focus_area_descr":"Crisis prevention & recovery","lat":"-18.25","lon":"35","name":"Mozambique","outputID":"00087052","output_locID":"00087052-1","precision":"9","type":"PCL"}],"title":"Strengthening capacities and frameworks for DRR/ACC"},{"id":"00063772","subnational":[{"awardID":"00063772","focus_area":"2","focus_area_descr":"Democratic governance","lat":"-18.25","lon":"35","name":"Mozambique","outputID":"00080677","output_locID":"00080677-1","precision":"9","type":"PCL"}],"title":"Strengthening Civil Society Participation in Policy"},{"id":"00049421","subnational":[{"awardID":"00049421","focus_area":"3","focus_area_descr":"Crisis prevention & recovery","lat":"-17.769","lon":"35.058","name":"Caia","outputID":"00060256","output_locID":"00060256-1","precision":"3","type":"PPL"},{"awardID":"00049421","focus_area":"3","focus_area_descr":"Crisis prevention & recovery","lat":"-18.29083","lon":"35.94528","name":"Marromeu","outputID":"00060256","output_locID":"00060256-2","precision":"3","type":"PPL"},{"awardID":"00049421","focus_area":"3","focus_area_descr":"Crisis prevention & recovery","lat":"-17","lon":"35","name":"Mutarara","outputID":"00060256","output_locID":"00060256-3","precision":"3","type":"PPL"}],"title":"Strengthening Local Risk Management & Mainstreaming DRR"},{"id":"00046359","subnational":[{"awardID":"00046359","focus_area":"2","focus_area_descr":"Democratic governance","lat":"-25.96553","lon":"32.58322","name":"Maputo","outputID":"00072366","output_locID":"00072366-1","precision":"3","type":"PPLC"}],"title":"Support to Capacity Development"},{"id":"00063829","subnational":[{"awardID":"00063829","focus_area":"2","focus_area_descr":"Democratic governance","lat":"-18.25","lon":"35","name":"Mozambique","outputID":"00080698","output_locID":"00080698-1","precision":"9","type":"PCL"}],"title":"Support to develop the capacity for local HIV response"},{"id":"00046330","subnational":[{"awardID":"00046330","focus_area":"2","focus_area_descr":"Democratic governance","lat":"-18.25","lon":"35","name":"Mozambique","outputID":"00056048","output_locID":"00056048-1","precision":"9","type":"PCL"},{"awardID":"00046330","focus_area":"1","focus_area_descr":"Poverty reduction & MDG achievement","lat":"-12.5","lon":"39.4","name":"Cabo Delgado","outputID":"00061417","output_locID":"00061417-1","precision":"4","type":"ADM1"},{"awardID":"00046330","focus_area":"1","focus_area_descr":"Poverty reduction & MDG achievement","lat":"-25.05194","lon":"33.64417","name":"Gaza","outputID":"00061417","output_locID":"00061417-2","precision":"3","type":"PPLA"},{"awardID":"00046330","focus_area":"1","focus_area_descr":"Poverty reduction & MDG achievement","lat":"-15.03417","lon":"40.73583","name":"Ilha","outputID":"00061417","output_locID":"00061417-3","precision":"3","type":"PPL"},{"awardID":"00046330","focus_area":"1","focus_area_descr":"Poverty reduction & MDG achievement","lat":"-23.865","lon":"35.38333","name":"Inhambane","outputID":"00061417","output_locID":"00061417-4","precision":"3","type":"PPLA"},{"awardID":"00046330","focus_area":"1","focus_area_descr":"Poverty reduction & MDG achievement","lat":"-23.03229","lon":"35.26166","name":"Massinga","outputID":"00061417","output_locID":"00061417-5","precision":"3","type":"ADM2"},{"awardID":"00046330","focus_area":"1","focus_area_descr":"Poverty reduction & MDG achievement","lat":"-14.18111","lon":"40.52583","name":"Memba","outputID":"00061417","output_locID":"00061417-6","precision":"3","type":"PPL"},{"awardID":"00046330","focus_area":"1","focus_area_descr":"Poverty reduction & MDG achievement","lat":"-15.11646","lon":"39.2666","name":"Nampula","outputID":"00061417","output_locID":"00061417-7","precision":"3","type":"PPLA"},{"awardID":"00046330","focus_area":"-","focus_area_descr":"-","lat":"-18.25","lon":"35","name":"Mozambique","outputID":"00056046","output_locID":"00056046-1","precision":"9","type":"PCL"}],"title":"Support to Local Government Effectiveness and Efficiency"},{"id":"00057644","subnational":[{"awardID":"00057644","focus_area":"2","focus_area_descr":"Democratic governance","lat":"-18.25","lon":"35","name":"Mozambique","outputID":"00071309","output_locID":"00071309-1","precision":"9","type":"PCL"},{"awardID":"00057644","focus_area":"2","focus_area_descr":"Democratic governance","lat":"-15.46358","lon":"36.98167","name":"Gurue","outputID":"00071372","output_locID":"00071372-1","precision":"3","type":"PPL"},{"awardID":"00057644","focus_area":"2","focus_area_descr":"Democratic governance","lat":"-18.25","lon":"35","name":"Mozambique","outputID":"00071374","output_locID":"00071374-1","precision":"9","type":"PCL"},{"awardID":"00057644","focus_area":"2","focus_area_descr":"Democratic governance","lat":"-18.25","lon":"35","name":"Mozambique","outputID":"00071375","output_locID":"00071375-1","precision":"9","type":"PCL"}],"title":"Support to Millennium Villages Programme in Mozambique"},{"id":"00046584","subnational":[{"awardID":"00046584","focus_area":"3","focus_area_descr":"Crisis prevention & recovery","lat":"-18.25","lon":"35","name":"Mozambique","outputID":"00055562","output_locID":"00055562-1","precision":"9","type":"PCL"}],"title":"Support to the Floods and Cyclones 2007 in Mozambique"},{"id":"00063219","subnational":[{"awardID":"00063219","focus_area":"3","focus_area_descr":"Crisis prevention & recovery","lat":"-18.25","lon":"35","name":"Mozambique","outputID":"00080471","output_locID":"00080471-1","precision":"9","type":"PCL"}],"title":"Support to the National Demining Programme in Mozambique"},{"id":"00032264","subnational":[],"title":"Support to UN Coordination"},{"id":"00036068","subnational":[{"awardID":"00036068","focus_area":"2","focus_area_descr":"Democratic governance","lat":"-18.53268","lon":"35.3183","name":"Cheringoma","outputID":"00039005","output_locID":"00039005-1","precision":"3","type":"ADM2"},{"awardID":"00036068","focus_area":"2","focus_area_descr":"Democratic governance","lat":"-23.865","lon":"35.38333","name":"Inhambane","outputID":"00039005","output_locID":"00039005-2","precision":"3","type":"PPLA"},{"awardID":"00036068","focus_area":"2","focus_area_descr":"Democratic governance","lat":"-25.96553","lon":"32.58322","name":"Maputo city","outputID":"00039005","output_locID":"00039005-3","precision":"3","type":"PPLC"},{"awardID":"00036068","focus_area":"2","focus_area_descr":"Democratic governance","lat":"-23.03229","lon":"35.26166","name":"Massinga","outputID":"00039005","output_locID":"00039005-4","precision":"3","type":"ADM2"},{"awardID":"00036068","focus_area":"2","focus_area_descr":"Democratic governance","lat":"-16.5","lon":"39.25","name":"Moma","outputID":"00039005","output_locID":"00039005-5","precision":"3","type":"ADM2"},{"awardID":"00036068","focus_area":"2","focus_area_descr":"Democratic governance","lat":"-23.61747","lon":"35.32356","name":"Morrumbene","outputID":"00039005","output_locID":"00039005-6","precision":"3","type":"ADM2"},{"awardID":"00036068","focus_area":"2","focus_area_descr":"Democratic governance","lat":"-15.11646","lon":"39.2666","name":"Nampula","outputID":"00039005","output_locID":"00039005-7","precision":"3","type":"PPLA"},{"awardID":"00036068","focus_area":"2","focus_area_descr":"Democratic governance","lat":"-15.01897","lon":"38.21248","name":"Ribaue","outputID":"00039005","output_locID":"00039005-8","precision":"3","type":"ADM2"},{"awardID":"00036068","focus_area":"2","focus_area_descr":"Democratic governance","lat":"-19.84361","lon":"34.83889","name":"Sofala","outputID":"00039005","output_locID":"00039005-9","precision":"3","type":"PPLA"}],"title":"Supporting Citizen's Acces to Justice"},{"id":"00062668","subnational":[{"awardID":"00062668","focus_area":"3","focus_area_descr":"Crisis prevention & recovery","lat":"-18.25","lon":"35","name":"Mozambique","outputID":"00080157","output_locID":"00080157-1","precision":"9","type":"PCL"}],"title":"Sustainable Financing of Protected Area System - WWF"},{"id":"00062665","subnational":[{"awardID":"00062665","focus_area":"3","focus_area_descr":"Crisis prevention & recovery","lat":"-18.25","lon":"35","name":"Mozambique","outputID":"00080154","output_locID":"00080154-1","precision":"9","type":"PCL"}],"title":"Sustainable Financing of Protected Area System-Carr F"},{"id":"00060497","subnational":[{"awardID":"00060497","focus_area":"3","focus_area_descr":"Crisis prevention & recovery","lat":"-18.25","lon":"35","name":"Mozambique","outputID":"00076184","output_locID":"00076184-1","precision":"9","type":"PCL"}],"title":"Sustainable Financing of the Protected Area System - MOZ"},{"id":"00046333","subnational":[{"awardID":"00046333","focus_area":"1","focus_area_descr":"Poverty reduction & MDG achievement","lat":"-18.15","lon":"35","name":"Mozambique","outputID":"00055103","output_locID":"00055103-1","precision":"9","type":"PCL"},{"awardID":"00046333","focus_area":"-","focus_area_descr":"-","lat":"-18.15","lon":"35","name":"Mozambique","outputID":"00060966","output_locID":"00060966-1","precision":"9","type":"PCL"}],"title":"Trade and Private Sector Development"},{"id":"00050733","subnational":[{"awardID":"00050733","focus_area":"3","focus_area_descr":"Crisis prevention & recovery","lat":"-12.5","lon":"39.4","name":"Cabo Delgado","outputID":"00062797","output_locID":"00062797-1","precision":"4","type":"ADM1"},{"awardID":"00050733","focus_area":"3","focus_area_descr":"Crisis prevention & recovery","lat":"-25.05194","lon":"33.64417","name":"Gaza","outputID":"00062797","output_locID":"00062797-2","precision":"4","type":"ADM1"},{"awardID":"00050733","focus_area":"3","focus_area_descr":"Crisis prevention & recovery","lat":"-23.865","lon":"35.38333","name":"Inhambane","outputID":"00062797","output_locID":"00062797-3","precision":"4","type":"ADM1"},{"awardID":"00050733","focus_area":"3","focus_area_descr":"Crisis prevention & recovery","lat":"-25.96553","lon":"32.58322","name":"Maputo","outputID":"00062797","output_locID":"00062797-4","precision":"4","type":"ADM1"},{"awardID":"00050733","focus_area":"3","focus_area_descr":"Crisis prevention & recovery","lat":"-15.11646","lon":"39.2666","name":"Nampula","outputID":"00062797","output_locID":"00062797-5","precision":"4","type":"ADM1"},{"awardID":"00050733","focus_area":"3","focus_area_descr":"Crisis prevention & recovery","lat":"-13.31278","lon":"35.24056","name":"Niassa","outputID":"00062797","output_locID":"00062797-6","precision":"4","type":"ADM1"},{"awardID":"00050733","focus_area":"3","focus_area_descr":"Crisis prevention & recovery","lat":"-19.84361","lon":"34.83889","name":"Sofala","outputID":"00062797","output_locID":"00062797-7","precision":"4","type":"ADM1"},{"awardID":"00050733","focus_area":"3","focus_area_descr":"Crisis prevention & recovery","lat":"-17.87861","lon":"36.88833","name":"Zambezia","outputID":"00062797","output_locID":"00062797-8","precision":"4","type":"ADM1"},{"awardID":"00050733","focus_area":"2","focus_area_descr":"Democratic governance","lat":"-25.96553","lon":"32.58322","name":"Maputo","outputID":"00062798","output_locID":"00062798-1","precision":"3","type":"PPLC"}],"title":"Weapons Risk Mitigation:Mine Action & Small Arms Control"},{"id":"00041305","subnational":[],"title":"Accelerated Demining Programme"},{"id":"00036154","subnational":[{"awardID":"00036154","focus_area":"-","focus_area_descr":"-","lat":"-18.25","lon":"35","name":"Mozambique","outputID":"00039146","output_locID":"00039146-1","precision":"9","type":"PCL"}],"title":"Accelerated Demining Programme Phase III"},{"id":"00044403","subnational":[{"awardID":"00044403","focus_area":"-","focus_area_descr":"-","lat":"-18.25","lon":"35","name":"Mozambique","outputID":"00052192","output_locID":"00052192-1","precision":"9","type":"PCL"}],"title":"African Peer Review Mechanism (APRM)"},{"id":"00033411","subnational":[{"awardID":"00033411","focus_area":"-","focus_area_descr":"-","lat":"-23.03229","lon":"35.26166","name":"Massinga","outputID":"00034690","output_locID":"00034690-1","precision":"3","type":"ADM2"}],"title":"Assistance to PRM"},{"id":"00046182","subnational":[{"awardID":"00046182","focus_area":"-","focus_area_descr":"-","lat":"-18.25","lon":"35","name":"Mozambique","outputID":"00054860","output_locID":"00054860-1","precision":"9","type":"PCL"}],"title":"Building Inclusive Financial Sector in Mozambique"},{"id":"00032925","subnational":[],"title":"Capacity Building to IND"},{"id":"00046315","subnational":[{"awardID":"00046315","focus_area":"-","focus_area_descr":"-","lat":"-18.25","lon":"35","name":"Mozambique","outputID":"00055081","output_locID":"00055081-1","precision":"9","type":"PCL"}],"title":"Civil Society Empowerment"},{"id":"00046331","subnational":[{"awardID":"00046331","focus_area":"-","focus_area_descr":"-","lat":"-18.15","lon":"35","name":"Mozambique","outputID":"00054417","output_locID":"00054417-1","precision":"9","type":"PCL"},{"awardID":"00046331","focus_area":"-","focus_area_descr":"-","lat":"-18.15","lon":"35","name":"Mozambique","outputID":"00056050","output_locID":"00056050-1","precision":"9","type":"PCL"}],"title":"Civil Society participation and local development"},{"id":"00060007","subnational":[{"awardID":"00060007","focus_area":"-","focus_area_descr":"-","lat":"-18.25","lon":"35","name":"Mozambique","outputID":"00075315","output_locID":"00075315-1","precision":"9","type":"PCL"}],"title":"Climate Change-Induced Coastal Erosion"},{"id":"00046640","subnational":[],"title":"Crime Prevention (Police III & Small Arms & Ligth Weapo)"},{"id":"00046376","subnational":[{"awardID":"00046376","focus_area":"-","focus_area_descr":"-","lat":"-14.72028","lon":"40.33639","name":"Itoculo","outputID":"00055187","output_locID":"00055187-1","precision":"3","type":"PPL"}],"title":"Development Planning, Coordination and M & E"},{"id":"00013709","subnational":[],"title":"District Planning and Financing Project"},{"id":"00057112","subnational":[{"awardID":"00057112","focus_area":"-","focus_area_descr":"-","lat":"-13.31278","lon":"35.24056","name":"Lichinga","outputID":"00070440","output_locID":"00070440-1","precision":"3","type":"PPL"}],"title":"Environmental Mainstreaming CC in Mozambique"},{"id":"00025274","subnational":[],"title":"FLOOD - RELATED MINE ACTION"},{"id":"00046408","subnational":[{"awardID":"00046408","focus_area":"-","focus_area_descr":"-","lat":"-18.25","lon":"35","name":"Mozambique","outputID":"00055052","output_locID":"00055052-1","precision":"9","type":"PCL"},{"awardID":"00046408","focus_area":"-","focus_area_descr":"-","lat":"-18.25","lon":"35","name":"Mozambique","outputID":"00056874","output_locID":"00056874-1","precision":"9","type":"PCL"}],"title":"Hiv, AIDS and GENDER MAINSTREAMING"},{"id":"00013701","subnational":[],"title":"HIV/AIDS Operat. Plan of Zambezia Province"},{"id":"00025271","subnational":[],"title":"Institutional Supp. To The Nat. AIDS Council"},{"id":"00037533","subnational":[],"title":"Media Development in Mozambique - Phase III"},{"id":"00013703","subnational":[],"title":"National AIDS Council Institut. Capac. Dev."},{"id":"00013707","subnational":[],"title":"National Integrated Progarmme"},{"id":"00042955","subnational":[],"title":"NHDR 2003-2006"},{"id":"00046323","subnational":[{"awardID":"00046323","focus_area":"-","focus_area_descr":"-","lat":"-25.96553","lon":"32.58322","name":"Maputo","outputID":"00056614","output_locID":"00056614-1","precision":"3","type":"PPLC"}],"title":"Parliamentary Oversight"},{"id":"00013714","subnational":[],"title":"Partnership for Poverty Reduction in Mozamb."},{"id":"00057986","subnational":[],"title":"Protected Area System of Mozambique - PIMS No: 3938"},{"id":"00036388","subnational":[],"title":"Rural Development Strategy"},{"id":"00025275","subnational":[],"title":"Support For Capacity Bulding To The IND"},{"id":"00036334","subnational":[],"title":"Support to PRM"},{"id":"00013712","subnational":[{"awardID":"00013712","focus_area":"-","focus_area_descr":"-","lat":"-23.865","lon":"35.38333","name":"Inhambane","outputID":"00013712","output_locID":"00013712-1","precision":"3","type":"PPLA"}],"title":"SUPPORT TO PSR TRAINING COMPONENT"},{"id":"00036505","subnational":[],"title":"Support to the Parliament"},{"id":"00057916","subnational":[],"title":"Terminal Phase-Out Management Plan for Mozambique"},{"id":"00038632","subnational":[],"title":"UNAIDS PAF FUNDS"},{"id":"00013713","subnational":[],"title":"Upsteam Microfinance Capacity Building"},{"id":"00036154","subnational":[{"awardID":"00036154","focus_area":"-","focus_area_descr":"-","lat":"-18.25","lon":"35","name":"Mozambique","outputID":"00039146","output_locID":"00039146-1","precision":"9","type":"PCL"}],"title":"Accelerated Demining Programme Phase III"},{"id":"00044403","subnational":[{"awardID":"00044403","focus_area":"-","focus_area_descr":"-","lat":"-18.25","lon":"35","name":"Mozambique","outputID":"00052192","output_locID":"00052192-1","precision":"9","type":"PCL"}],"title":"African Peer Review Mechanism (APRM)"},{"id":"00033411","subnational":[{"awardID":"00033411","focus_area":"-","focus_area_descr":"-","lat":"-23.03229","lon":"35.26166","name":"Massinga","outputID":"00034690","output_locID":"00034690-1","precision":"3","type":"ADM2"}],"title":"Assistance to PRM"},{"id":"00046182","subnational":[{"awardID":"00046182","focus_area":"-","focus_area_descr":"-","lat":"-18.25","lon":"35","name":"Mozambique","outputID":"00054860","output_locID":"00054860-1","precision":"9","type":"PCL"}],"title":"Building Inclusive Financial Sector in Mozambique"},{"id":"00025272","subnational":[],"title":"Capacity Building For Disaster Management"},{"id":"00046315","subnational":[{"awardID":"00046315","focus_area":"-","focus_area_descr":"-","lat":"-18.25","lon":"35","name":"Mozambique","outputID":"00055081","output_locID":"00055081-1","precision":"9","type":"PCL"}],"title":"Civil Society Empowerment"},{"id":"00046331","subnational":[{"awardID":"00046331","focus_area":"-","focus_area_descr":"-","lat":"-18.15","lon":"35","name":"Mozambique","outputID":"00054417","output_locID":"00054417-1","precision":"9","type":"PCL"},{"awardID":"00046331","focus_area":"-","focus_area_descr":"-","lat":"-18.15","lon":"35","name":"Mozambique","outputID":"00056050","output_locID":"00056050-1","precision":"9","type":"PCL"}],"title":"Civil Society participation and local development"},{"id":"00060007","subnational":[{"awardID":"00060007","focus_area":"-","focus_area_descr":"-","lat":"-18.25","lon":"35","name":"Mozambique","outputID":"00075315","output_locID":"00075315-1","precision":"9","type":"PCL"}],"title":"Climate Change-Induced Coastal Erosion"},{"id":"00065351","subnational":[],"title":"COMMON SERVICES"},{"id":"00046640","subnational":[],"title":"Crime Prevention (Police III & Small Arms & Ligth Weapo)"},{"id":"00046376","subnational":[{"awardID":"00046376","focus_area":"-","focus_area_descr":"-","lat":"-14.72028","lon":"40.33639","name":"Itoculo","outputID":"00055187","output_locID":"00055187-1","precision":"3","type":"PPL"}],"title":"Development Planning, Coordination and M & E"},{"id":"00057112","subnational":[{"awardID":"00057112","focus_area":"-","focus_area_descr":"-","lat":"-13.31278","lon":"35.24056","name":"Lichinga","outputID":"00070440","output_locID":"00070440-1","precision":"3","type":"PPL"}],"title":"Environmental Mainstreaming CC in Mozambique"},{"id":"00046408","subnational":[{"awardID":"00046408","focus_area":"-","focus_area_descr":"-","lat":"-18.25","lon":"35","name":"Mozambique","outputID":"00055052","output_locID":"00055052-1","precision":"9","type":"PCL"},{"awardID":"00046408","focus_area":"-","focus_area_descr":"-","lat":"-18.25","lon":"35","name":"Mozambique","outputID":"00056874","output_locID":"00056874-1","precision":"9","type":"PCL"}],"title":"Hiv, AIDS and GENDER MAINSTREAMING"},{"id":"00025287","subnational":[],"title":"NAT. ENVIRONMENTAL MGMT PROGRAM"},{"id":"00046323","subnational":[{"awardID":"00046323","focus_area":"-","focus_area_descr":"-","lat":"-25.96553","lon":"32.58322","name":"Maputo","outputID":"00056614","output_locID":"00056614-1","precision":"3","type":"PPLC"}],"title":"Parliamentary Oversight"},{"id":"00013712","subnational":[{"awardID":"00013712","focus_area":"-","focus_area_descr":"-","lat":"-23.865","lon":"35.38333","name":"Inhambane","outputID":"00013712","output_locID":"00013712-1","precision":"3","type":"PPLA"}],"title":"SUPPORT TO PSR TRAINING COMPONENT"},{"id":"00025295","subnational":[],"title":"SUPPORT TO SIFAP"}]}