{"iso_num": null, "projects": [{"title": "support to un coordination", "id": "00032264", "subnational": []}, {"title": "supporting citizen's acces to justice", "id": "00036068", "subnational": [{"outputID": "00039005", "output_locID": "00039005-1", "name": "Cheringoma District", "focus_area": "3", "lat": "-18.532680", "type": "ADM2", "awardID": "00036068", "lon": "35.318300", "precision": "1", "focus_area_descr": "Responsive Institutions"}, {"outputID": "00039005", "output_locID": "00039005-2", "name": "Inhambane", "focus_area": "3", "lat": "-23.865000", "type": "PPLA", "awardID": "00036068", "lon": "35.383330", "precision": "1", "focus_area_descr": "Responsive Institutions"}, {"outputID": "00039005", "output_locID": "00039005-3", "name": "Maputo", "focus_area": "3", "lat": "-25.965530", "type": "PPLC", "awardID": "00036068", "lon": "32.583220", "precision": "1", "focus_area_descr": "Responsive Institutions"}, {"outputID": "00039005", "output_locID": "00039005-4", "name": "Massinga District", "focus_area": "3", "lat": "-23.032290", "type": "ADM2", "awardID": "00036068", "lon": "35.261660", "precision": "1", "focus_area_descr": "Responsive Institutions"}, {"outputID": "00039005", "output_locID": "00039005-5", "name": "Circunscr\u00ec\u00e7\u00e3o de Moma", "focus_area": "3", "lat": "-16.500000", "type": "ADM2", "awardID": "00036068", "lon": "39.250000", "precision": "1", "focus_area_descr": "Responsive Institutions"}, {"outputID": "00039005", "output_locID": "00039005-6", "name": "Morrumbene District", "focus_area": "3", "lat": "-23.617470", "type": "ADM2", "awardID": "00036068", "lon": "35.323560", "precision": "1", "focus_area_descr": "Responsive Institutions"}, {"outputID": "00039005", "output_locID": "00039005-7", "name": "Nampula", "focus_area": "3", "lat": "-15.116460", "type": "PPLA", "awardID": "00036068", "lon": "39.266600", "precision": "1", "focus_area_descr": "Responsive Institutions"}, {"outputID": "00039005", "output_locID": "00039005-8", "name": "Ribaue", "focus_area": "3", "lat": "-15.018970", "type": "ADM2", "awardID": "00036068", "lon": "38.212480", "precision": "1", "focus_area_descr": "Responsive Institutions"}, {"outputID": "00039005", "output_locID": "00039005-9", "name": "Beira", "focus_area": "3", "lat": "-19.843610", "type": "PPLA", "awardID": "00036068", "lon": "34.838890", "precision": "1", "focus_area_descr": "Responsive Institutions"}]}, {"title": "trade and private sector development", "id": "00046333", "subnational": [{"outputID": "00055103", "output_locID": "00055103-1", "name": "Republic of Mozambique", "focus_area": "1", "lat": "-18.250000", "type": "PCLI", "awardID": "00046333", "lon": "35.000000", "precision": "1", "focus_area_descr": "Inclusive & Sustainable Growth"}]}, {"title": "financing of protected area system - wwf", "id": "00062668", "subnational": [{"outputID": "00080157", "output_locID": "00080157-1", "name": "Republic of Mozambique", "focus_area": "2", "lat": "-18.250000", "type": "PCLI", "awardID": "00062668", "lon": "35.000000", "precision": "1", "focus_area_descr": "Democratic Governance"}]}, {"title": "financing of protected area system - carr foundation", "id": "00062665", "subnational": [{"outputID": "00080154", "output_locID": "00080154-1", "name": "Republic of Mozambique", "focus_area": "1", "lat": "-18.250000", "type": "PCLI", "awardID": "00062665", "lon": "35.000000", "precision": "1", "focus_area_descr": "Inclusive & Sustainable Growth"}]}, {"title": "adaptation in the coastal zones of mozambique", "id": "00062383", "subnational": [{"outputID": "00079862", "output_locID": "00079862-1", "name": "Republic of Mozambique", "focus_area": "1", "lat": "-18.250000", "type": "PCLI", "awardID": "00062383", "lon": "35.000000", "precision": "1", "focus_area_descr": "Inclusive & Sustainable Growth"}]}, {"title": "strengthening capacities and frameworks for drr/acc", "id": "00063225", "subnational": [{"outputID": "00085449", "output_locID": "00085449-1", "name": "Republic of Mozambique", "focus_area": "6", "lat": "-18.250000", "type": "PCLI", "awardID": "00063225", "lon": "35.000000", "precision": "1", "focus_area_descr": "Crisis Prevention & Recovery"}, {"outputID": "00080476", "output_locID": "00080476-1", "name": "Republic of Mozambique", "focus_area": "5", "lat": "-18.250000", "type": "PCLI", "awardID": "00063225", "lon": "35.000000", "precision": "1", "focus_area_descr": "Climate Change & Disaster Resilience"}, {"outputID": "00087052", "output_locID": "00087052-1", "name": "Republic of Mozambique", "focus_area": "6", "lat": "-18.250000", "type": "PCLI", "awardID": "00063225", "lon": "35.000000", "precision": "1", "focus_area_descr": "Crisis Prevention & Recovery"}, {"outputID": "00080475", "output_locID": "00080475-1", "name": "Republic of Mozambique", "focus_area": "5", "lat": "-18.250000", "type": "PCLI", "awardID": "00063225", "lon": "35.000000", "precision": "1", "focus_area_descr": "Climate Change & Disaster Resilience"}]}, {"title": "enhancing dec and loc dev in mozambique", "id": "00063617", "subnational": [{"outputID": "00080605", "output_locID": "00080605-1", "name": "Republic of Mozambique", "focus_area": "3", "lat": "-18.250000", "type": "PCLI", "awardID": "00063617", "lon": "35.000000", "precision": "1", "focus_area_descr": "Responsive Institutions"}, {"outputID": "00080637", "output_locID": "00080637-1", "name": "Republic of Mozambique", "focus_area": "3", "lat": "-18.250000", "type": "PCLI", "awardID": "00063617", "lon": "35.000000", "precision": "1", "focus_area_descr": "Responsive Institutions"}]}, {"title": "strengthen access to justice, rule of law & human rights", "id": "00063619", "subnational": [{"outputID": "00080609", "output_locID": "00080609-1", "name": "Republic of Mozambique", "focus_area": "3", "lat": "-18.250000", "type": "PCLI", "awardID": "00063619", "lon": "35.000000", "precision": "1", "focus_area_descr": "Responsive Institutions"}, {"outputID": "00080649", "output_locID": "00080649-1", "name": "Republic of Mozambique", "focus_area": "3", "lat": "-18.250000", "type": "PCLI", "awardID": "00063619", "lon": "35.000000", "precision": "1", "focus_area_descr": "Responsive Institutions"}]}, {"title": "support to the national demining programme in mozambique", "id": "00063219", "subnational": [{"outputID": "00080471", "output_locID": "00080471-1", "name": "Republic of Mozambique", "focus_area": "-", "lat": "-18.250000", "type": "PCLI", "awardID": "00063219", "lon": "35.000000", "precision": "1", "focus_area_descr": "-"}]}, {"title": "improved electoral civil responsibility", "id": "00063736", "subnational": [{"outputID": "00080661", "output_locID": "00080661-1", "name": "Republic of Mozambique", "focus_area": "2", "lat": "-18.250000", "type": "PCLI", "awardID": "00063736", "lon": "35.000000", "precision": "1", "focus_area_descr": "Democratic Governance"}]}, {"title": "local economic development for increased incomes", "id": "00063579", "subnational": [{"outputID": "00080630", "output_locID": "00080630-1", "name": "Republic of Mozambique", "focus_area": "3", "lat": "-18.250000", "type": "PCLI", "awardID": "00063579", "lon": "35.000000", "precision": "1", "focus_area_descr": "Responsive Institutions"}, {"outputID": "00080588", "output_locID": "00080588-1", "name": "Republic of Mozambique", "focus_area": "1", "lat": "-18.250000", "type": "PCLI", "awardID": "00063579", "lon": "35.000000", "precision": "1", "focus_area_descr": "Inclusive & Sustainable Growth"}]}, {"title": "support to develop the capacity for local hiv response", "id": "00063829", "subnational": [{"outputID": "00080698", "output_locID": "00080698-1", "name": "Republic of Mozambique", "focus_area": "3", "lat": "-18.250000", "type": "PCLI", "awardID": "00063829", "lon": "35.000000", "precision": "1", "focus_area_descr": "Responsive Institutions"}]}, {"title": "country programme coordination and capacity development", "id": "00063755", "subnational": [{"outputID": "00080671", "output_locID": "00080671-1", "name": "Maputo", "focus_area": "-", "lat": "-25.965530", "type": "PPLC", "awardID": "00063755", "lon": "32.583220", "precision": "1", "focus_area_descr": "-"}]}, {"title": "development of right to food law", "id": "00063883", "subnational": [{"outputID": "00080748", "output_locID": "00080748-1", "name": "Republic of Mozambique", "focus_area": "1", "lat": "-18.250000", "type": "PCLI", "awardID": "00063883", "lon": "35.000000", "precision": "1", "focus_area_descr": "Inclusive & Sustainable Growth"}]}, {"title": "strengthening civil society participation in policy", "id": "00063772", "subnational": [{"outputID": "00080677", "output_locID": "00080677-1", "name": "Republic of Mozambique", "focus_area": "2", "lat": "-18.250000", "type": "PCLI", "awardID": "00063772", "lon": "35.000000", "precision": "1", "focus_area_descr": "Democratic Governance"}]}, {"title": "research and capacity building on mdgs and hd", "id": "00064436", "subnational": [{"outputID": "00081247", "output_locID": "00081247-1", "name": "Republic of Mozambique", "focus_area": "7", "lat": "-18.250000", "type": "PCLI", "awardID": "00064436", "lon": "35.000000", "precision": "1", "focus_area_descr": "Development Impact & Effectiveness"}]}, {"title": "developing national capacities for green human developme", "id": "00064002", "subnational": [{"outputID": "00080863", "output_locID": "00080863-1", "name": "Maputo", "focus_area": "1", "lat": "-25.965530", "type": "PPLC", "awardID": "00064002", "lon": "32.583220", "precision": "1", "focus_area_descr": "Inclusive & Sustainable Growth"}]}, {"title": "sustainable financing of the protected area system - moz", "id": "00060497", "subnational": [{"outputID": "00076184", "output_locID": "00076184-1", "name": "Republic of Mozambique", "focus_area": "2", "lat": "-18.250000", "type": "PCLI", "awardID": "00060497", "lon": "35.000000", "precision": "1", "focus_area_descr": "Democratic Governance"}]}, {"title": "sunred - sustainable managment of natural resources", "id": "00084563", "subnational": []}, {"title": "parliament's fiscal oversight & law making", "id": "00065340", "subnational": [{"outputID": "00081885", "output_locID": "00081885-1", "name": "Maputo", "focus_area": "2", "lat": "-25.965530", "type": "PPLC", "awardID": "00065340", "lon": "32.583220", "precision": "1", "focus_area_descr": "Democratic Governance"}]}, {"title": "african adaptation programme & mainstreaming in moz", "id": "00058248", "subnational": [{"outputID": "00072288", "output_locID": "00072288-1", "name": "Mozambique", "focus_area": "8", "lat": "-18.25", "type": "PCL", "awardID": "00058248", "lon": "35", "precision": "9", "focus_area_descr": "South-South"}]}, {"title": "coping with drought and climate change", "id": "00047928", "subnational": [{"outputID": "00057849", "output_locID": "00057849-1", "name": "Guija", "focus_area": "6", "lat": "-24.4975", "type": "RES", "awardID": "00047928", "lon": "33.01333", "precision": "3", "focus_area_descr": "Crisis Prevention & Recovery"}, {"outputID": "00057849", "output_locID": "00057849-2", "name": "Mbala vala", "focus_area": "6", "lat": "-23.5024", "type": "PPL", "awardID": "00047928", "lon": "34.5657", "precision": "3", "focus_area_descr": "Crisis Prevention & Recovery"}, {"outputID": "00057849", "output_locID": "00057849-3", "name": "Nalazi", "focus_area": "6", "lat": "-24.03722", "type": "RES", "awardID": "00047928", "lon": "33.3425", "precision": "4", "focus_area_descr": "Crisis Prevention & Recovery"}, {"outputID": "00057849", "output_locID": "00057849-4", "name": "Nhanguenha", "focus_area": "6", "lat": "-23.93222", "type": "RES", "awardID": "00047928", "lon": "32.57778", "precision": "4", "focus_area_descr": "Crisis Prevention & Recovery"}]}, {"title": "country programme management", "id": "00046039", "subnational": [{"outputID": "00054606", "output_locID": "00054606-1", "name": "Maputo", "focus_area": "2", "lat": "-25.96553", "type": "PPLC", "awardID": "00046039", "lon": "32.58322", "precision": "3", "focus_area_descr": "Democratic Governance"}]}, {"title": "dipecho - knowledge management in dp and rr", "id": "00056529", "subnational": [{"outputID": "00069208", "output_locID": "00069208-1", "name": "Mozambique", "focus_area": "6", "lat": "-18.25", "type": "PCL", "awardID": "00056529", "lon": "35", "precision": "9", "focus_area_descr": "Crisis Prevention & Recovery"}]}, {"title": "electoral assistance", "id": "00048260", "subnational": [{"outputID": "00077166", "output_locID": "00077166-1", "name": "Mozambique", "focus_area": "2", "lat": "-18.25", "type": "PCL", "awardID": "00048260", "lon": "35", "precision": "9", "focus_area_descr": "Democratic Governance"}]}, {"title": "establishment of a national volunteer agency", "id": "00059708", "subnational": [{"outputID": "00074799", "output_locID": "00074799-1", "name": "Mozambique", "focus_area": "2", "lat": "-18.25", "type": "PCL", "awardID": "00059708", "lon": "35", "precision": "9", "focus_area_descr": "Democratic Governance"}]}, {"title": "ict for development", "id": "00013710", "subnational": [{"outputID": "00039087", "output_locID": "00039087-1", "name": "Cheringoma", "focus_area": "2", "lat": "-18.53268", "type": "ADM2", "awardID": "00013710", "lon": "35.3183", "precision": "3", "focus_area_descr": "Democratic Governance"}]}, {"title": "local government reform", "id": "00013717", "subnational": [{"outputID": "00013717", "output_locID": "00013717-1", "name": "Mozambique", "focus_area": "2", "lat": "-18.25", "type": "PCL", "awardID": "00013717", "lon": "35", "precision": "9", "focus_area_descr": "Democratic Governance"}]}, {"title": "napa for mozambique", "id": "00013718", "subnational": [{"outputID": "00013718", "output_locID": "00013718-1", "name": "Mozambique", "focus_area": "-", "lat": "-18.25", "type": "PCL", "awardID": "00013718", "lon": "35", "precision": "9", "focus_area_descr": "-"}]}, {"title": "policy and capacity development facility", "id": "00070803", "subnational": [{"outputID": "00084610", "output_locID": "00084610-1", "name": "Mozambique", "focus_area": "-", "lat": "-18.25", "type": "PCL", "awardID": "00070803", "lon": "35", "precision": "9", "focus_area_descr": "-"}]}, {"title": "poverty and environment initiative, pei ii, moz", "id": "00050773", "subnational": [{"outputID": "00062853", "output_locID": "00062853-1", "name": "Cabo Delgado", "focus_area": "6", "lat": "-12.5", "type": "ADM1", "awardID": "00050773", "lon": "39.4", "precision": "4", "focus_area_descr": "Crisis Prevention & Recovery"}, {"outputID": "00062853", "output_locID": "00062853-2", "name": "Gaza", "focus_area": "6", "lat": "-25.05194", "type": "ADM1", "awardID": "00050773", "lon": "33.64417", "precision": "4", "focus_area_descr": "Crisis Prevention & Recovery"}, {"outputID": "00062853", "output_locID": "00062853-3", "name": "Zambezia", "focus_area": "6", "lat": "-17.87861", "type": "ADM1", "awardID": "00050773", "lon": "36.88833", "precision": "4", "focus_area_descr": "Crisis Prevention & Recovery"}]}, {"title": "psp", "id": "00013705", "subnational": [{"outputID": "00013705", "output_locID": "00013705-1", "name": "Maputo city", "focus_area": "-", "lat": "-25.96553", "type": "PPLC", "awardID": "00013705", "lon": "32.58322", "precision": "3", "focus_area_descr": "-"}]}, {"title": "rapid results fund", "id": "00059285", "subnational": [{"outputID": "00074093", "output_locID": "00074093-1", "name": "Gurue", "focus_area": "2", "lat": "-15.46358", "type": "PPL", "awardID": "00059285", "lon": "36.98167", "precision": "3", "focus_area_descr": "Democratic Governance"}]}, {"title": "strengthening local risk management & mainstreaming drr", "id": "00049421", "subnational": [{"outputID": "00060256", "output_locID": "00060256-1", "name": "Caia", "focus_area": "6", "lat": "-17.769", "type": "PPL", "awardID": "00049421", "lon": "35.058", "precision": "3", "focus_area_descr": "Crisis Prevention & Recovery"}, {"outputID": "00060256", "output_locID": "00060256-2", "name": "Marromeu", "focus_area": "6", "lat": "-18.29083", "type": "PPL", "awardID": "00049421", "lon": "35.94528", "precision": "3", "focus_area_descr": "Crisis Prevention & Recovery"}, {"outputID": "00060256", "output_locID": "00060256-3", "name": "Mutarara", "focus_area": "6", "lat": "-17", "type": "PPL", "awardID": "00049421", "lon": "35", "precision": "3", "focus_area_descr": "Crisis Prevention & Recovery"}]}, {"title": "support to capacity development", "id": "00046359", "subnational": [{"outputID": "00072366", "output_locID": "00072366-1", "name": "Maputo", "focus_area": "2", "lat": "-25.96553", "type": "PPLC", "awardID": "00046359", "lon": "32.58322", "precision": "3", "focus_area_descr": "Democratic Governance"}]}, {"title": "support to local government effectiveness and efficiency", "id": "00046330", "subnational": [{"outputID": "00056048", "output_locID": "00056048-1", "name": "Mozambique", "focus_area": "2", "lat": "-18.25", "type": "PCL", "awardID": "00046330", "lon": "35", "precision": "9", "focus_area_descr": "Democratic Governance"}, {"outputID": "00061417", "output_locID": "00061417-1", "name": "Cabo Delgado", "focus_area": "1", "lat": "-12.5", "type": "ADM1", "awardID": "00046330", "lon": "39.4", "precision": "4", "focus_area_descr": "Inclusive & Sustainable Growth"}, {"outputID": "00061417", "output_locID": "00061417-2", "name": "Gaza", "focus_area": "1", "lat": "-25.05194", "type": "PPLA", "awardID": "00046330", "lon": "33.64417", "precision": "3", "focus_area_descr": "Inclusive & Sustainable Growth"}, {"outputID": "00061417", "output_locID": "00061417-3", "name": "Ilha", "focus_area": "1", "lat": "-15.03417", "type": "PPL", "awardID": "00046330", "lon": "40.73583", "precision": "3", "focus_area_descr": "Inclusive & Sustainable Growth"}, {"outputID": "00061417", "output_locID": "00061417-4", "name": "Inhambane", "focus_area": "1", "lat": "-23.865", "type": "PPLA", "awardID": "00046330", "lon": "35.38333", "precision": "3", "focus_area_descr": "Inclusive & Sustainable Growth"}, {"outputID": "00061417", "output_locID": "00061417-5", "name": "Massinga", "focus_area": "1", "lat": "-23.03229", "type": "ADM2", "awardID": "00046330", "lon": "35.26166", "precision": "3", "focus_area_descr": "Inclusive & Sustainable Growth"}, {"outputID": "00061417", "output_locID": "00061417-6", "name": "Memba", "focus_area": "1", "lat": "-14.18111", "type": "PPL", "awardID": "00046330", "lon": "40.52583", "precision": "3", "focus_area_descr": "Inclusive & Sustainable Growth"}, {"outputID": "00061417", "output_locID": "00061417-7", "name": "Nampula", "focus_area": "1", "lat": "-15.11646", "type": "PPLA", "awardID": "00046330", "lon": "39.2666", "precision": "3", "focus_area_descr": "Inclusive & Sustainable Growth"}]}, {"title": "support to millennium villages programme in mozambique", "id": "00057644", "subnational": [{"outputID": "00071309", "output_locID": "00071309-1", "name": "Mozambique", "focus_area": "2", "lat": "-18.25", "type": "PCL", "awardID": "00057644", "lon": "35", "precision": "9", "focus_area_descr": "Democratic Governance"}, {"outputID": "00071372", "output_locID": "00071372-1", "name": "Gurue", "focus_area": "2", "lat": "-15.46358", "type": "PPL", "awardID": "00057644", "lon": "36.98167", "precision": "3", "focus_area_descr": "Democratic Governance"}, {"outputID": "00071374", "output_locID": "00071374-1", "name": "Mozambique", "focus_area": "2", "lat": "-18.25", "type": "PCL", "awardID": "00057644", "lon": "35", "precision": "9", "focus_area_descr": "Democratic Governance"}, {"outputID": "00071375", "output_locID": "00071375-1", "name": "Mozambique", "focus_area": "2", "lat": "-18.25", "type": "PCL", "awardID": "00057644", "lon": "35", "precision": "9", "focus_area_descr": "Democratic Governance"}]}, {"title": "support to the floods and cyclones 2007 in mozambique", "id": "00046584", "subnational": [{"outputID": "00055562", "output_locID": "00055562-1", "name": "Mozambique", "focus_area": "6", "lat": "-18.25", "type": "PCL", "awardID": "00046584", "lon": "35", "precision": "9", "focus_area_descr": "Crisis Prevention & Recovery"}]}, {"title": "weapons risk mitigation:mine action & small arms control", "id": "00050733", "subnational": [{"outputID": "00062797", "output_locID": "00062797-1", "name": "Cabo Delgado", "focus_area": "6", "lat": "-12.5", "type": "ADM1", "awardID": "00050733", "lon": "39.4", "precision": "4", "focus_area_descr": "Crisis Prevention & Recovery"}, {"outputID": "00062797", "output_locID": "00062797-2", "name": "Gaza", "focus_area": "6", "lat": "-25.05194", "type": "ADM1", "awardID": "00050733", "lon": "33.64417", "precision": "4", "focus_area_descr": "Crisis Prevention & Recovery"}, {"outputID": "00062797", "output_locID": "00062797-3", "name": "Inhambane", "focus_area": "6", "lat": "-23.865", "type": "ADM1", "awardID": "00050733", "lon": "35.38333", "precision": "4", "focus_area_descr": "Crisis Prevention & Recovery"}, {"outputID": "00062797", "output_locID": "00062797-4", "name": "Maputo", "focus_area": "6", "lat": "-25.96553", "type": "ADM1", "awardID": "00050733", "lon": "32.58322", "precision": "4", "focus_area_descr": "Crisis Prevention & Recovery"}, {"outputID": "00062797", "output_locID": "00062797-5", "name": "Nampula", "focus_area": "6", "lat": "-15.11646", "type": "ADM1", "awardID": "00050733", "lon": "39.2666", "precision": "4", "focus_area_descr": "Crisis Prevention & Recovery"}, {"outputID": "00062797", "output_locID": "00062797-6", "name": "Niassa", "focus_area": "6", "lat": "-13.31278", "type": "ADM1", "awardID": "00050733", "lon": "35.24056", "precision": "4", "focus_area_descr": "Crisis Prevention & Recovery"}, {"outputID": "00062797", "output_locID": "00062797-7", "name": "Sofala", "focus_area": "6", "lat": "-19.84361", "type": "ADM1", "awardID": "00050733", "lon": "34.83889", "precision": "4", "focus_area_descr": "Crisis Prevention & Recovery"}, {"outputID": "00062797", "output_locID": "00062797-8", "name": "Zambezia", "focus_area": "6", "lat": "-17.87861", "type": "ADM1", "awardID": "00050733", "lon": "36.88833", "precision": "4", "focus_area_descr": "Crisis Prevention & Recovery"}, {"outputID": "00062798", "output_locID": "00062798-1", "name": "Maputo", "focus_area": "2", "lat": "-25.96553", "type": "PPLC", "awardID": "00050733", "lon": "32.58322", "precision": "3", "focus_area_descr": "Democratic Governance"}]}, {"title": "accelerated demining programme", "id": "00041305", "subnational": []}, {"title": "accelerated demining programme phase iii", "id": "00036154", "subnational": []}, {"title": "african peer review mechanism (aprm)", "id": "00044403", "subnational": []}, {"title": "assistance to prm", "id": "00033411", "subnational": []}, {"title": "building inclusive financial sector in mozambique", "id": "00046182", "subnational": []}, {"title": "capacity building to ind", "id": "00032925", "subnational": []}, {"title": "civil society empowerment", "id": "00046315", "subnational": []}, {"title": "civil society participation and local development", "id": "00046331", "subnational": []}, {"title": "climate change-induced coastal erosion", "id": "00060007", "subnational": []}, {"title": "crime prevention (police iii & small arms & ligth weapo)", "id": "00046640", "subnational": []}, {"title": "development planning, coordination and m & e", "id": "00046376", "subnational": []}, {"title": "district planning and financing project", "id": "00013709", "subnational": []}, {"title": "environmental mainstreaming cc in mozambique", "id": "00057112", "subnational": []}, {"title": "flood - related mine action", "id": "00025274", "subnational": []}, {"title": "hiv, aids and gender mainstreaming", "id": "00046408", "subnational": []}, {"title": "hiv/aids operat. plan of zambezia province", "id": "00013701", "subnational": []}, {"title": "institutional supp. to the nat. aids council", "id": "00025271", "subnational": []}, {"title": "media development in mozambique - phase iii", "id": "00037533", "subnational": []}, {"title": "national aids council institut. capac. dev.", "id": "00013703", "subnational": []}, {"title": "national integrated progarmme", "id": "00013707", "subnational": []}, {"title": "nhdr 2003-2006", "id": "00042955", "subnational": []}, {"title": "parliamentary oversight", "id": "00046323", "subnational": []}, {"title": "partnership for poverty reduction in mozamb.", "id": "00013714", "subnational": []}, {"title": "protected area system of mozambique - pims no: 3938", "id": "00057986", "subnational": []}, {"title": "rural development strategy", "id": "00036388", "subnational": []}, {"title": "support for capacity bulding to the ind", "id": "00025275", "subnational": []}, {"title": "support to prm", "id": "00036334", "subnational": []}, {"title": "support to psr training component", "id": "00013712", "subnational": []}, {"title": "support to the parliament", "id": "00036505", "subnational": []}, {"title": "terminal phase-out management plan for mozambique", "id": "00057916", "subnational": []}, {"title": "unaids paf funds", "id": "00038632", "subnational": []}, {"title": "upsteam microfinance capacity building", "id": "00013713", "subnational": []}, {"title": "extractive industries for sustainable development", "id": "00083288", "subnational": []}, {"title": "capacity building for disaster management", "id": "00025272", "subnational": []}, {"title": "common services", "id": "00065351", "subnational": []}, {"title": "nat. environmental mgmt program", "id": "00025287", "subnational": []}, {"title": "support to sifap", "id": "00025295", "subnational": []}], "op_unit": "MOZ"}