{"iso_num":"508","op_unit":"MOZ","projects":[{"id":"00062383","subnational":[],"title":"Adaptation in the Coastal Zones of Mozambique"},{"id":"00058248","subnational":[{"awardID":"00058248","lat":"-18.25","lon":"35","name":"Mozambique","precision":"9","type":"PCL"}],"title":"African Adaptation Programme & Mainstreaming in MOZ"},{"id":"00047928","subnational":[{"awardID":"00047928","lat":"-23.5024","lon":"34.5657","name":"Mbala vala","precision":"3","type":"PPL"},{"awardID":"00047928","lat":"-23.93222","lon":"32.57778","name":"Nhanguenha","precision":"3","type":"RES"},{"awardID":"00047928","lat":"-24.03722","lon":"33.3425","name":"Nalazi","precision":"3","type":"RES"},{"awardID":"00047928","lat":"-24.4975","lon":"33.01333","name":"Guija","precision":"3","type":"RES"}],"title":"Coping With Drought and Climate Change"},{"id":"00063755","subnational":[],"title":"Country Programme Coordination and Capacity Development"},{"id":"00046039","subnational":[],"title":"Country Programme Management"},{"id":"00064002","subnational":[],"title":"Developing National Capacities for Green Human Developme"},{"id":"00063617","subnational":[],"title":"Enhancing Dec and Loc Dev in Mozambique"},{"id":"00013710","subnational":[{"awardID":"00013710","lat":"-18.53268","lon":"35.3183","name":"Cheringoma","precision":"3","type":"ADM2"}],"title":"ICT For Development"},{"id":"00063736","subnational":[],"title":"Improved Electoral Civil Responsibility"},{"id":"00063579","subnational":[],"title":"Local Economic Development for Increased Incomes"},{"id":"00013717","subnational":[],"title":"Local Government Reform"},{"id":"00013718","subnational":[],"title":"NAPA for Mozambique"},{"id":"00065340","subnational":[],"title":"Parliament's Fiscal Oversight & Law Making"},{"id":"00070803","subnational":[],"title":"Policy and Capacity Development Facility"},{"id":"00050773","subnational":[{"awardID":"00050773","lat":"-12.5","lon":"39.4","name":"Cabo Delgado","precision":"4","type":"ADM1"},{"awardID":"00050773","lat":"-25.05194","lon":"33.64417","name":"Gaza","precision":"4","type":"ADM1"},{"awardID":"00050773","lat":"-17.87861","lon":"36.88833","name":"Zambezia","precision":"4","type":"ADM1"}],"title":"Poverty and Environment Initiative, PEI II, MOZ"},{"id":"00013705","subnational":[{"awardID":"00013705","lat":"-25.96553","lon":"32.58322","name":"Maputo city","precision":"3","type":"PPLC"}],"title":"PSP"},{"id":"00059285","subnational":[{"awardID":"00059285","lat":"-15.46358","lon":"36.98167","name":"Gurue","precision":"3","type":"PPL"}],"title":"Rapid Results Fund"},{"id":"00064436","subnational":[],"title":"Research and Capacity building on MDGs and HD"},{"id":"00063619","subnational":[],"title":"Strengthen Access to Justice, Rule of Law & Human Rights"},{"id":"00063225","subnational":[],"title":"Strengthening capacities and frameworks for DRR/ACC"},{"id":"00063772","subnational":[],"title":"Strengthening Civil Society Participation in Policy"},{"id":"00049421","subnational":[{"awardID":"00049421","lat":"-17","lon":"35","name":"Mutarara","precision":"3","type":"PPL"},{"awardID":"00049421","lat":"-17.769","lon":"35.058","name":"Caia","precision":"3","type":"PPL"},{"awardID":"00049421","lat":"-18.29083","lon":"35.94528","name":"Marromeu","precision":"3","type":"PPL"}],"title":"Strengthening Local Risk Management & Mainstreaming DRR"},{"id":"00046359","subnational":[],"title":"Support to Capacity Development"},{"id":"00063829","subnational":[],"title":"Support to develop the capacity for local HIV response"},{"id":"00046330","subnational":[{"awardID":"00046330","lat":"-18.25","lon":"35","name":"Mozambique","precision":"9","type":"PCL"},{"awardID":"00046330","lat":"-15.11646","lon":"39.2666","name":"Nampula","precision":"3","type":"PPLA"},{"awardID":"00046330","lat":"-12.5","lon":"39.4","name":"Cabo Delgado","precision":"3","type":"ADM1"},{"awardID":"00046330","lat":"-25.05194","lon":"33.64417","name":"Gaza","precision":"3","type":"PPLA"},{"awardID":"00046330","lat":"-23.03229","lon":"35.26166","name":"Massinga","precision":"3","type":"ADM2"},{"awardID":"00046330","lat":"-14.18111","lon":"40.52583","name":"Memba","precision":"3","type":"PPL"},{"awardID":"00046330","lat":"-15.03417","lon":"40.73583","name":"Ilha","precision":"3","type":"PPL"},{"awardID":"00046330","lat":"-23.865","lon":"35.38333","name":"Inhambane","precision":"3","type":"PPLA"}],"title":"Support to Local Government Effectiveness and Efficiency"},{"id":"00057644","subnational":[{"awardID":"00057644","lat":"-18.25","lon":"35","name":"Mozambique","precision":"9","type":"PCL"},{"awardID":"00057644","lat":"-15.46358","lon":"36.98167","name":"Gurue","precision":"3","type":"PPL"},{"awardID":"00057644","lat":"-18.25","lon":"35","name":"Mozambique","precision":"9","type":"PCL"},{"awardID":"00057644","lat":"-18.25","lon":"35","name":"Mozambique","precision":"9","type":"PCL"}],"title":"Support to Millennium Villages Programme in Mozambique"},{"id":"00046584","subnational":[],"title":"Support to the Floods and Cyclones 2007 in Mozambique"},{"id":"00063219","subnational":[],"title":"Support to the National Demining Programme in Mozambique"},{"id":"00036068","subnational":[{"awardID":"00036068","lat":"-25.96553","lon":"32.58322","name":"Maputo city","precision":"3","type":"PPLC"},{"awardID":"00036068","lat":"-23.865","lon":"35.38333","name":"Inhambane","precision":"3","type":"PPLA"},{"awardID":"00036068","lat":"-19.84361","lon":"34.83889","name":"Sofala","precision":"3","type":"PPLA"},{"awardID":"00036068","lat":"-15.11646","lon":"39.2666","name":"Nampula","precision":"3","type":"PPLA"},{"awardID":"00036068","lat":"-23.61747","lon":"35.32356","name":"Morrumbene","precision":"3","type":"ADM2"},{"awardID":"00036068","lat":"-23.03229","lon":"35.26166","name":"Massinga","precision":"3","type":"ADM2"},{"awardID":"00036068","lat":"-18.53268","lon":"35.3183","name":"Cheringoma","precision":"3","type":"ADM2"},{"awardID":"00036068","lat":"-16.5","lon":"39.25","name":"Moma","precision":"3","type":"ADM2"},{"awardID":"00036068","lat":"-15.01897","lon":"38.21248","name":"Ribaue","precision":"3","type":"ADM2"}],"title":"Supporting Citizen's Acces to Justice"},{"id":"00062668","subnational":[],"title":"Sustainable Financing of Protected Area System - WWF"},{"id":"00062665","subnational":[],"title":"Sustainable Financing of Protected Area System-Carr F"},{"id":"00060497","subnational":[],"title":"Sustainable Financing of the Protected Area System - MOZ"},{"id":"00046333","subnational":[{"awardID":"00046333","lat":"-18.15","lon":"35","name":"Mozambique","precision":"9","type":"PCL"}],"title":"Trade and Private Sector Development"},{"id":"00050733","subnational":[{"awardID":"00050733","lat":"-13.31278","lon":"35.24056","name":"Niassa","precision":"4","type":"ADM1"},{"awardID":"00050733","lat":"-12.5","lon":"39.4","name":"Cabo Delgado","precision":"4","type":"ADM1"},{"awardID":"00050733","lat":"-15.11646","lon":"39.2666","name":"Nampula","precision":"4","type":"ADM1"},{"awardID":"00050733","lat":"-17.87861","lon":"36.88833","name":"Zambezia","precision":"4","type":"ADM1"},{"awardID":"00050733","lat":"-19.84361","lon":"34.83889","name":"Sofala","precision":"4","type":"ADM1"},{"awardID":"00050733","lat":"-23.865","lon":"35.38333","name":"Inhambane","precision":"4","type":"ADM1"},{"awardID":"00050733","lat":"-25.05194","lon":"33.64417","name":"Gaza","precision":"4","type":"ADM1"},{"awardID":"00050733","lat":"-25.96553","lon":"32.58322","name":"Maputo","precision":"4","type":"ADM1"},{"awardID":"00050733","lat":"-25.96553","lon":"32.58322","name":"Maputo","precision":"3","type":"PPLC"}],"title":"Weapons Risk Mitigation:Mine Action & Small Arms Control"}]}