{"iso_num": null, "projects": [{"title": "sustainable financing of the protected area system - moz", "id": "00060497", "subnational": [{"outputID": "00076184", "output_locID": "00076184-1", "name": "Gorongosa District", "focus_area": "2", "lat": "-18.609000", "type": "ADM2", "awardID": "00060497", "lon": "34.238000", "precision": "1", "focus_area_descr": "Democratic Governance"}]}, {"title": "adaptation in the coastal zones of mozambique", "id": "00062383", "subnational": [{"outputID": "00079862", "output_locID": "00079862-1", "name": "Maputo", "focus_area": "1", "lat": "-25.965530", "type": "PPLC", "awardID": "00062383", "lon": "32.583220", "precision": "1", "focus_area_descr": "Inclusive & Sustainable Growth"}, {"outputID": "00079862", "output_locID": "00079862-2", "name": "Pemba", "focus_area": "1", "lat": "-13.018010", "type": "ADM2", "awardID": "00062383", "lon": "40.531300", "precision": "1", "focus_area_descr": "Inclusive & Sustainable Growth"}, {"outputID": "00079862", "output_locID": "00079862-3", "name": "Pebane District", "focus_area": "1", "lat": "-17.263780", "type": "ADM2", "awardID": "00062383", "lon": "38.136980", "precision": "1", "focus_area_descr": "Inclusive & Sustainable Growth"}, {"outputID": "00079862", "output_locID": "00079862-4", "name": "Inharrime District", "focus_area": "1", "lat": "-24.469550", "type": "ADM2", "awardID": "00062383", "lon": "35.039570", "precision": "1", "focus_area_descr": "Inclusive & Sustainable Growth"}]}, {"title": "financing of protected area system - carr foundation", "id": "00062665", "subnational": [{"outputID": "00080154", "output_locID": "00080154-1", "name": "Gorongosa District", "focus_area": "1", "lat": "-18.609000", "type": "ADM2", "awardID": "00062665", "lon": "34.238000", "precision": "1", "focus_area_descr": "Inclusive & Sustainable Growth"}]}, {"title": "support to the national demining programme in mozambique", "id": "00063219", "subnational": [{"outputID": "00080471", "output_locID": "00080471-1", "name": "Sofala Province", "focus_area": "0", "lat": "-19.200000", "type": "ADM1", "awardID": "00063219", "lon": "34.800000", "precision": "1", "focus_area_descr": "SP_NONE_APPLIES"}, {"outputID": "00080471", "output_locID": "00080471-2", "name": "Nampula", "focus_area": "0", "lat": "-15.000000", "type": "ADM1", "awardID": "00063219", "lon": "39.000000", "precision": "1", "focus_area_descr": "SP_NONE_APPLIES"}, {"outputID": "00080471", "output_locID": "00080471-3", "name": "Maputo", "focus_area": "0", "lat": "-25.965530", "type": "PPLC", "awardID": "00063219", "lon": "32.583220", "precision": "1", "focus_area_descr": "SP_NONE_APPLIES"}, {"outputID": "00080471", "output_locID": "00080471-4", "name": "Manica Province", "focus_area": "0", "lat": "-19.000000", "type": "ADM1", "awardID": "00063219", "lon": "33.500000", "precision": "1", "focus_area_descr": "SP_NONE_APPLIES"}, {"outputID": "00080471", "output_locID": "00080471-5", "name": "Inhambane Province", "focus_area": "0", "lat": "-23.000000", "type": "ADM1", "awardID": "00063219", "lon": "34.500000", "precision": "1", "focus_area_descr": "SP_NONE_APPLIES"}, {"outputID": "00080471", "output_locID": "00080471-6", "name": "Gaza Province", "focus_area": "0", "lat": "-23.500000", "type": "ADM1", "awardID": "00063219", "lon": "33.000000", "precision": "1", "focus_area_descr": "SP_NONE_APPLIES"}]}, {"title": "strengthening capacities and frameworks for drr/acc", "id": "00063225", "subnational": [{"outputID": "00080475", "output_locID": "00080475-1", "name": "Gaza Province", "focus_area": "5", "lat": "-23.500000", "type": "ADM1", "awardID": "00063225", "lon": "33.000000", "precision": "1", "focus_area_descr": "Climate Change & Disaster Resilience"}, {"outputID": "00085449", "output_locID": "00085449-1", "name": "Nampula", "focus_area": "6", "lat": "-15.000000", "type": "ADM1", "awardID": "00063225", "lon": "39.000000", "precision": "1", "focus_area_descr": "Crisis Prevention & Recovery"}, {"outputID": "00087052", "output_locID": "00087052-1", "name": "Gaza Province", "focus_area": "6", "lat": "-23.500000", "type": "ADM1", "awardID": "00063225", "lon": "33.000000", "precision": "1", "focus_area_descr": "Crisis Prevention & Recovery"}, {"outputID": "00080476", "output_locID": "00080476-1", "name": "Maputo", "focus_area": "5", "lat": "-25.965530", "type": "PPLC", "awardID": "00063225", "lon": "32.583220", "precision": "1", "focus_area_descr": "Climate Change & Disaster Resilience"}]}, {"title": "strengthen access to justice, rule of law & human rights", "id": "00063619", "subnational": [{"outputID": "00080609", "output_locID": "00080609-1", "name": "Mozambique", "focus_area": "3", "lat": "-18.250000", "type": "PCLI", "awardID": "00063619", "lon": "35.000000", "precision": "1", "focus_area_descr": "Responsive Institutions"}, {"outputID": "00080649", "output_locID": "00080649-1", "name": "Mozambique", "focus_area": "3", "lat": "-18.250000", "type": "PCLI", "awardID": "00063619", "lon": "35.000000", "precision": "1", "focus_area_descr": "Responsive Institutions"}, {"outputID": "00080649", "output_locID": "00080649-2", "name": "Maputo", "focus_area": "3", "lat": "-25.965530", "type": "PPLC", "awardID": "00063619", "lon": "32.583220", "precision": "1", "focus_area_descr": "Responsive Institutions"}]}, {"title": "country programme coordination and capacity development", "id": "00063755", "subnational": [{"outputID": "00080671", "output_locID": "00080671-1", "name": "Maputo", "focus_area": "0", "lat": "-25.965530", "type": "PPLC", "awardID": "00063755", "lon": "32.583220", "precision": "1", "focus_area_descr": "SP_NONE_APPLIES"}]}, {"title": "sunred - sustainable managment of natural resources", "id": "00084563", "subnational": [{"outputID": "00092517", "output_locID": "00092517-1", "name": "Maputo", "focus_area": "7", "lat": "-25.965530", "type": "PPLC", "awardID": "00084563", "lon": "32.583220", "precision": "1", "focus_area_descr": "Development Impact & Effectiveness"}]}, {"title": "psp", "id": "00013705", "subnational": [{"outputID": "00013705", "output_locID": "00013705-1", "name": "Maputo", "focus_area": "0", "lat": "-25.965530", "type": "PPLC", "awardID": "00013705", "lon": "32.583220", "precision": "1", "focus_area_descr": "SP_NONE_APPLIES"}]}, {"title": "napa for mozambique", "id": "00013718", "subnational": [{"outputID": "00013718", "output_locID": "00013718-1", "name": "Mozambique", "focus_area": "-", "lat": "-18.250000", "type": "PCLI", "awardID": "00013718", "lon": "35.000000", "precision": "1", "focus_area_descr": "-"}]}, {"title": "support to un coordination", "id": "00032264", "subnational": [{"outputID": "00032982", "output_locID": "00032982-1", "name": "Maputo", "focus_area": "16", "lat": "-25.965530", "type": "PPLC", "awardID": "00032264", "lon": "32.583220", "precision": "1", "focus_area_descr": "Organizational Results Area 9"}]}, {"title": "trade and private sector development", "id": "00046333", "subnational": [{"outputID": "00055103", "output_locID": "00055103-1", "name": "Maputo", "focus_area": "1", "lat": "-25.965530", "type": "PPLC", "awardID": "00046333", "lon": "32.583220", "precision": "1", "focus_area_descr": "Inclusive & Sustainable Growth"}, {"outputID": "00060966", "output_locID": "00060966-1", "name": "Gaza Province", "focus_area": "-", "lat": "-23.500000", "type": "ADM1", "awardID": "00046333", "lon": "33.000000", "precision": "1", "focus_area_descr": "-"}]}, {"title": "coping with drought and climate change", "id": "00047928", "subnational": [{"outputID": "00057849", "output_locID": "00057849-1", "name": "Lago Nhanguenha", "focus_area": "0", "lat": "-23.932220", "type": "LK", "awardID": "00047928", "lon": "32.577780", "precision": "1", "focus_area_descr": "SP_NONE_APPLIES"}, {"outputID": "00057849", "output_locID": "00057849-2", "name": "Guija", "focus_area": "0", "lat": "-24.167200", "type": "ADM2", "awardID": "00047928", "lon": "33.121400", "precision": "1", "focus_area_descr": "SP_NONE_APPLIES"}]}, {"title": "strengthening local risk management & mainstreaming drr", "id": "00049421", "subnational": [{"outputID": "00060256", "output_locID": "00060256-1", "name": "Mutarara", "focus_area": "5", "lat": "-17.440000", "type": "PPL", "awardID": "00049421", "lon": "35.073890", "precision": "1", "focus_area_descr": "Climate Change & Disaster Resilience"}, {"outputID": "00060256", "output_locID": "00060256-2", "name": "Massacaiana", "focus_area": "5", "lat": "-20.794720", "type": "PPL", "awardID": "00049421", "lon": "34.389440", "precision": "1", "focus_area_descr": "Climate Change & Disaster Resilience"}, {"outputID": "00060256", "output_locID": "00060256-3", "name": "Marromeu", "focus_area": "5", "lat": "-18.290830", "type": "PPL", "awardID": "00049421", "lon": "35.945280", "precision": "1", "focus_area_descr": "Climate Change & Disaster Resilience"}]}, {"title": "weapons risk mitigation:mine action & small arms control", "id": "00050733", "subnational": [{"outputID": "00062797", "output_locID": "00062797-1", "name": "Prov\u00edncia de Zamb\u00e9zia", "focus_area": "0", "lat": "-17.000000", "type": "ADM1", "awardID": "00050733", "lon": "37.000000", "precision": "1", "focus_area_descr": "SP_NONE_APPLIES"}, {"outputID": "00062797", "output_locID": "00062797-2", "name": "Sofala Province", "focus_area": "0", "lat": "-19.200000", "type": "ADM1", "awardID": "00050733", "lon": "34.800000", "precision": "1", "focus_area_descr": "SP_NONE_APPLIES"}, {"outputID": "00062797", "output_locID": "00062797-3", "name": "Niassa Province", "focus_area": "0", "lat": "-13.000000", "type": "ADM1", "awardID": "00050733", "lon": "36.700000", "precision": "1", "focus_area_descr": "SP_NONE_APPLIES"}, {"outputID": "00062797", "output_locID": "00062797-4", "name": "Nampula", "focus_area": "0", "lat": "-15.000000", "type": "ADM1", "awardID": "00050733", "lon": "39.000000", "precision": "1", "focus_area_descr": "SP_NONE_APPLIES"}, {"outputID": "00062797", "output_locID": "00062797-5", "name": "Inhambane Province", "focus_area": "0", "lat": "-23.000000", "type": "ADM1", "awardID": "00050733", "lon": "34.500000", "precision": "1", "focus_area_descr": "SP_NONE_APPLIES"}, {"outputID": "00062797", "output_locID": "00062797-6", "name": "Gaza Province", "focus_area": "0", "lat": "-23.500000", "type": "ADM1", "awardID": "00050733", "lon": "33.000000", "precision": "1", "focus_area_descr": "SP_NONE_APPLIES"}, {"outputID": "00062797", "output_locID": "00062797-7", "name": "Cabo Delgado Province", "focus_area": "0", "lat": "-12.500000", "type": "ADM1", "awardID": "00050733", "lon": "39.400000", "precision": "1", "focus_area_descr": "SP_NONE_APPLIES"}, {"outputID": "00062797", "output_locID": "00062797-8", "name": "Maputo", "focus_area": "0", "lat": "-25.965280", "type": "ADM1", "awardID": "00050733", "lon": "32.589170", "precision": "1", "focus_area_descr": "SP_NONE_APPLIES"}, {"outputID": "00062798", "output_locID": "00062798-1", "name": "Maputo", "focus_area": "-", "lat": "-25.965530", "type": "PPLC", "awardID": "00050733", "lon": "32.583220", "precision": "1", "focus_area_descr": "-"}]}, {"title": "poverty and environment initiative, pei ii, moz", "id": "00050773", "subnational": [{"outputID": "00062853", "output_locID": "00062853-1", "name": "Prov\u00edncia de Zamb\u00e9zia", "focus_area": "0", "lat": "-17.000000", "type": "ADM1", "awardID": "00050773", "lon": "37.000000", "precision": "1", "focus_area_descr": "SP_NONE_APPLIES"}, {"outputID": "00062853", "output_locID": "00062853-2", "name": "Gaza Province", "focus_area": "0", "lat": "-23.500000", "type": "ADM1", "awardID": "00050773", "lon": "33.000000", "precision": "1", "focus_area_descr": "SP_NONE_APPLIES"}, {"outputID": "00062853", "output_locID": "00062853-3", "name": "Cabo Delgado Province", "focus_area": "0", "lat": "-12.500000", "type": "ADM1", "awardID": "00050773", "lon": "39.400000", "precision": "1", "focus_area_descr": "SP_NONE_APPLIES"}]}, {"title": "financing of protected area system - wwf", "id": "00062668", "subnational": [{"outputID": "00080157", "output_locID": "00080157-1", "name": "Gorongosa District", "focus_area": "2", "lat": "-18.609000", "type": "ADM2", "awardID": "00062668", "lon": "34.238000", "precision": "1", "focus_area_descr": "Democratic Governance"}]}, {"title": "local economic development for increased incomes", "id": "00063579", "subnational": [{"outputID": "00080588", "output_locID": "00080588-1", "name": "Mozambique", "focus_area": "1", "lat": "-18.250000", "type": "PCLI", "awardID": "00063579", "lon": "35.000000", "precision": "1", "focus_area_descr": "Inclusive & Sustainable Growth"}, {"outputID": "00080630", "output_locID": "00080630-1", "name": "Mozambique", "focus_area": "3", "lat": "-18.250000", "type": "PCLI", "awardID": "00063579", "lon": "35.000000", "precision": "1", "focus_area_descr": "Responsive Institutions"}]}, {"title": "enhancing dec and loc dev in mozambique", "id": "00063617", "subnational": [{"outputID": "00080605", "output_locID": "00080605-1", "name": "Maputo", "focus_area": "3", "lat": "-25.965530", "type": "PPLC", "awardID": "00063617", "lon": "32.583220", "precision": "1", "focus_area_descr": "Responsive Institutions"}, {"outputID": "00080637", "output_locID": "00080637-1", "name": "Nampula", "focus_area": "3", "lat": "-15.000000", "type": "ADM1", "awardID": "00063617", "lon": "39.000000", "precision": "1", "focus_area_descr": "Responsive Institutions"}, {"outputID": "00080637", "output_locID": "00080637-2", "name": "Gaza Province", "focus_area": "3", "lat": "-23.500000", "type": "ADM1", "awardID": "00063617", "lon": "33.000000", "precision": "1", "focus_area_descr": "Responsive Institutions"}, {"outputID": "00080637", "output_locID": "00080637-3", "name": "Cabo Delgado Province", "focus_area": "3", "lat": "-12.500000", "type": "ADM1", "awardID": "00063617", "lon": "39.400000", "precision": "1", "focus_area_descr": "Responsive Institutions"}]}, {"title": "improved electoral civil responsibility", "id": "00063736", "subnational": [{"outputID": "00080661", "output_locID": "00080661-1", "name": "Mozambique", "focus_area": "2", "lat": "-18.250000", "type": "PCLI", "awardID": "00063736", "lon": "35.000000", "precision": "1", "focus_area_descr": "Democratic Governance"}, {"outputID": "00080661", "output_locID": "00080661-2", "name": "Maputo", "focus_area": "2", "lat": "-25.965530", "type": "PPLC", "awardID": "00063736", "lon": "32.583220", "precision": "1", "focus_area_descr": "Democratic Governance"}]}, {"title": "strengthening civil society participation in policy", "id": "00063772", "subnational": [{"outputID": "00080677", "output_locID": "00080677-1", "name": "Mozambique", "focus_area": "2", "lat": "-18.250000", "type": "PCLI", "awardID": "00063772", "lon": "35.000000", "precision": "1", "focus_area_descr": "Democratic Governance"}]}, {"title": "support to develop the capacity for local hiv response", "id": "00063829", "subnational": [{"outputID": "00080698", "output_locID": "00080698-1", "name": "Mozambique", "focus_area": "3", "lat": "-18.250000", "type": "PCLI", "awardID": "00063829", "lon": "35.000000", "precision": "1", "focus_area_descr": "Responsive Institutions"}]}, {"title": "research and capacity building on mdgs and hd", "id": "00064436", "subnational": [{"outputID": "00081247", "output_locID": "00081247-1", "name": "Maputo", "focus_area": "7", "lat": "-25.965530", "type": "PPLC", "awardID": "00064436", "lon": "32.583220", "precision": "1", "focus_area_descr": "Development Impact & Effectiveness"}]}, {"title": "parliament's fiscal oversight & law making", "id": "00065340", "subnational": [{"outputID": "00081885", "output_locID": "00081885-1", "name": "Maputo", "focus_area": "2", "lat": "-25.965530", "type": "PPLC", "awardID": "00065340", "lon": "32.583220", "precision": "1", "focus_area_descr": "Democratic Governance"}]}, {"title": "policy and capacity development facility", "id": "00070803", "subnational": [{"outputID": "00084610", "output_locID": "00084610-1", "name": "Mozambique", "focus_area": "0", "lat": "-18.250000", "type": "PCLI", "awardID": "00070803", "lon": "35.000000", "precision": "1", "focus_area_descr": "SP_NONE_APPLIES"}]}, {"title": "extractive industries for sustainable development", "id": "00083288", "subnational": [{"outputID": "00091838", "output_locID": "00091838-1", "name": "Nampula", "focus_area": "2", "lat": "-15.000000", "type": "ADM1", "awardID": "00083288", "lon": "39.000000", "precision": "1", "focus_area_descr": "Democratic Governance"}, {"outputID": "00091838", "output_locID": "00091838-2", "name": "Cabo Delgado Province", "focus_area": "2", "lat": "-12.500000", "type": "ADM1", "awardID": "00083288", "lon": "39.400000", "precision": "1", "focus_area_descr": "Democratic Governance"}, {"outputID": "00091838", "output_locID": "00091838-3", "name": "Maputo", "focus_area": "2", "lat": "-25.965280", "type": "ADM1", "awardID": "00083288", "lon": "32.589170", "precision": "1", "focus_area_descr": "Democratic Governance"}]}, {"title": "social cohesion and peace building programme", "id": "00088622", "subnational": [{"outputID": "00095193", "output_locID": "00095193-1", "name": "Maputo", "focus_area": "-", "lat": "-25.965530", "type": "PPLC", "awardID": "00088622", "lon": "32.583220", "precision": "1", "focus_area_descr": "-"}]}, {"title": "pims 5474 mozambique conservancies and wildlife", "id": "00091350", "subnational": [{"outputID": "00096632", "output_locID": "00096632-1", "name": "Mozambique", "focus_area": "2", "lat": "-18.250000", "type": "PCLI", "awardID": "00091350", "lon": "35.000000", "precision": "1", "focus_area_descr": "Democratic Governance"}]}, {"title": "supporting citizen's acces to justice", "id": "00036068", "subnational": [{"outputID": "00039005", "output_locID": "00039005-1", "name": "Nampula", "focus_area": "3", "lat": "-15.116460", "type": "PPLA", "awardID": "00036068", "lon": "39.266600", "precision": "1", "focus_area_descr": "Responsive Institutions"}, {"outputID": "00039005", "output_locID": "00039005-2", "name": "Circunscr\u00ec\u00e7\u00e3o de Moma", "focus_area": "3", "lat": "-16.500000", "type": "ADM2", "awardID": "00036068", "lon": "39.250000", "precision": "1", "focus_area_descr": "Responsive Institutions"}, {"outputID": "00039005", "output_locID": "00039005-3", "name": "Maputo", "focus_area": "3", "lat": "-25.965530", "type": "PPLC", "awardID": "00036068", "lon": "32.583220", "precision": "1", "focus_area_descr": "Responsive Institutions"}, {"outputID": "00039005", "output_locID": "00039005-4", "name": "Inhambane", "focus_area": "3", "lat": "-23.865000", "type": "PPLA", "awardID": "00036068", "lon": "35.383330", "precision": "1", "focus_area_descr": "Responsive Institutions"}, {"outputID": "00039005", "output_locID": "00039005-5", "name": "Beira", "focus_area": "3", "lat": "-19.843610", "type": "PPLA", "awardID": "00036068", "lon": "34.838890", "precision": "1", "focus_area_descr": "Responsive Institutions"}, {"outputID": "00039005", "output_locID": "00039005-6", "name": "Ribaue", "focus_area": "3", "lat": "-15.018970", "type": "ADM2", "awardID": "00036068", "lon": "38.212480", "precision": "1", "focus_area_descr": "Responsive Institutions"}, {"outputID": "00039005", "output_locID": "00039005-7", "name": "Cheringoma District", "focus_area": "3", "lat": "-18.532680", "type": "ADM2", "awardID": "00036068", "lon": "35.318300", "precision": "1", "focus_area_descr": "Responsive Institutions"}, {"outputID": "00039005", "output_locID": "00039005-8", "name": "Massinga District", "focus_area": "3", "lat": "-23.032290", "type": "ADM2", "awardID": "00036068", "lon": "35.261660", "precision": "1", "focus_area_descr": "Responsive Institutions"}, {"outputID": "00039005", "output_locID": "00039005-9", "name": "Morrumbene District", "focus_area": "3", "lat": "-23.617470", "type": "ADM2", "awardID": "00036068", "lon": "35.323560", "precision": "1", "focus_area_descr": "Responsive Institutions"}, {"outputID": "00039006", "output_locID": "00039006-1", "name": "Nampula", "focus_area": "-", "lat": "-15.116460", "type": "PPLA", "awardID": "00036068", "lon": "39.266600", "precision": "1", "focus_area_descr": "-"}, {"outputID": "00039006", "output_locID": "00039006-2", "name": "Circunscr\u00ec\u00e7\u00e3o de Moma", "focus_area": "-", "lat": "-16.500000", "type": "ADM2", "awardID": "00036068", "lon": "39.250000", "precision": "1", "focus_area_descr": "-"}, {"outputID": "00039006", "output_locID": "00039006-3", "name": "Maputo", "focus_area": "-", "lat": "-25.965530", "type": "PPLC", "awardID": "00036068", "lon": "32.583220", "precision": "1", "focus_area_descr": "-"}, {"outputID": "00039006", "output_locID": "00039006-4", "name": "Inhambane", "focus_area": "-", "lat": "-23.865000", "type": "PPLA", "awardID": "00036068", "lon": "35.383330", "precision": "1", "focus_area_descr": "-"}, {"outputID": "00039006", "output_locID": "00039006-5", "name": "Beira", "focus_area": "-", "lat": "-19.843610", "type": "PPLA", "awardID": "00036068", "lon": "34.838890", "precision": "1", "focus_area_descr": "-"}, {"outputID": "00039006", "output_locID": "00039006-6", "name": "Ribaue", "focus_area": "-", "lat": "-15.018970", "type": "ADM2", "awardID": "00036068", "lon": "38.212480", "precision": "1", "focus_area_descr": "-"}, {"outputID": "00039006", "output_locID": "00039006-7", "name": "Cheringoma District", "focus_area": "-", "lat": "-18.532680", "type": "ADM2", "awardID": "00036068", "lon": "35.318300", "precision": "1", "focus_area_descr": "-"}, {"outputID": "00039006", "output_locID": "00039006-8", "name": "Massinga District", "focus_area": "-", "lat": "-23.032290", "type": "ADM2", "awardID": "00036068", "lon": "35.261660", "precision": "1", "focus_area_descr": "-"}, {"outputID": "00039006", "output_locID": "00039006-9", "name": "Morrumbene District", "focus_area": "-", "lat": "-23.617470", "type": "ADM2", "awardID": "00036068", "lon": "35.323560", "precision": "1", "focus_area_descr": "-"}, {"outputID": "00070221", "output_locID": "00070221-1", "name": "Nampula", "focus_area": "-", "lat": "-15.116460", "type": "PPLA", "awardID": "00036068", "lon": "39.266600", "precision": "1", "focus_area_descr": "-"}, {"outputID": "00070221", "output_locID": "00070221-2", "name": "Circunscr\u00ec\u00e7\u00e3o de Moma", "focus_area": "-", "lat": "-16.500000", "type": "ADM2", "awardID": "00036068", "lon": "39.250000", "precision": "1", "focus_area_descr": "-"}, {"outputID": "00070221", "output_locID": "00070221-3", "name": "Maputo", "focus_area": "-", "lat": "-25.965530", "type": "PPLC", "awardID": "00036068", "lon": "32.583220", "precision": "1", "focus_area_descr": "-"}, {"outputID": "00070221", "output_locID": "00070221-4", "name": "Inhambane", "focus_area": "-", "lat": "-23.865000", "type": "PPLA", "awardID": "00036068", "lon": "35.383330", "precision": "1", "focus_area_descr": "-"}, {"outputID": "00070221", "output_locID": "00070221-5", "name": "Beira", "focus_area": "-", "lat": "-19.843610", "type": "PPLA", "awardID": "00036068", "lon": "34.838890", "precision": "1", "focus_area_descr": "-"}, {"outputID": "00070221", "output_locID": "00070221-6", "name": "Ribaue", "focus_area": "-", "lat": "-15.018970", "type": "ADM2", "awardID": "00036068", "lon": "38.212480", "precision": "1", "focus_area_descr": "-"}, {"outputID": "00070221", "output_locID": "00070221-7", "name": "Cheringoma District", "focus_area": "-", "lat": "-18.532680", "type": "ADM2", "awardID": "00036068", "lon": "35.318300", "precision": "1", "focus_area_descr": "-"}, {"outputID": "00070221", "output_locID": "00070221-8", "name": "Massinga District", "focus_area": "-", "lat": "-23.032290", "type": "ADM2", "awardID": "00036068", "lon": "35.261660", "precision": "1", "focus_area_descr": "-"}, {"outputID": "00070221", "output_locID": "00070221-9", "name": "Morrumbene District", "focus_area": "-", "lat": "-23.617470", "type": "ADM2", "awardID": "00036068", "lon": "35.323560", "precision": "1", "focus_area_descr": "-"}]}, {"title": "environmental mainstreaming cc in mozambique", "id": "00057112", "subnational": [{"outputID": "00070440", "output_locID": "00070440-1", "name": "Lichinga", "focus_area": "-", "lat": "-13.312780", "type": "PPLA", "awardID": "00057112", "lon": "35.240560", "precision": "1", "focus_area_descr": "-"}]}, {"title": "developing national capacities for green human developme", "id": "00064002", "subnational": [{"outputID": "00080863", "output_locID": "00080863-1", "name": "Maputo", "focus_area": "1", "lat": "-25.965530", "type": "PPLC", "awardID": "00064002", "lon": "32.583220", "precision": "1", "focus_area_descr": "Inclusive & Sustainable Growth"}]}, {"title": "ict for development", "id": "00013710", "subnational": [{"outputID": "00039087", "output_locID": "00039087-1", "name": "Cheringoma District", "focus_area": "-", "lat": "-18.532680", "type": "ADM2", "awardID": "00013710", "lon": "35.318300", "precision": "1", "focus_area_descr": "-"}]}, {"title": "capacity building to ind", "id": "00032925", "subnational": []}, {"title": "african peer review mechanism (aprm)", "id": "00044403", "subnational": [{"outputID": "00052192", "output_locID": "00052192-1", "name": "Mozambique", "focus_area": "0", "lat": "-18.250000", "type": "PCLI", "awardID": "00044403", "lon": "35.000000", "precision": "1", "focus_area_descr": "SP_NONE_APPLIES"}]}, {"title": "parliamentary oversight", "id": "00046323", "subnational": [{"outputID": "00056614", "output_locID": "00056614-1", "name": "Maputo", "focus_area": "-", "lat": "-25.965530", "type": "PPLC", "awardID": "00046323", "lon": "32.583220", "precision": "1", "focus_area_descr": "-"}]}, {"title": "african adaptation programme & mainstreaming in moz", "id": "00058248", "subnational": [{"outputID": "00072288", "output_locID": "00072288-1", "name": "Mozambique", "focus_area": "0", "lat": "-18.250000", "type": "PCLI", "awardID": "00058248", "lon": "35.000000", "precision": "1", "focus_area_descr": "SP_NONE_APPLIES"}]}, {"title": "development of right to food law", "id": "00063883", "subnational": [{"outputID": "00080748", "output_locID": "00080748-1", "name": "Mozambique", "focus_area": "1", "lat": "-18.250000", "type": "PCLI", "awardID": "00063883", "lon": "35.000000", "precision": "1", "focus_area_descr": "Inclusive & Sustainable Growth"}, {"outputID": "00080748", "output_locID": "00080748-2", "name": "Maputo", "focus_area": "1", "lat": "-25.965530", "type": "PPLC", "awardID": "00063883", "lon": "32.583220", "precision": "1", "focus_area_descr": "Inclusive & Sustainable Growth"}]}, {"title": "country programme management", "id": "00046039", "subnational": [{"outputID": "00054606", "output_locID": "00054606-1", "name": "Maputo", "focus_area": "0", "lat": "-25.965530", "type": "PPLC", "awardID": "00046039", "lon": "32.583220", "precision": "1", "focus_area_descr": "SP_NONE_APPLIES"}]}, {"title": "support to local government effectiveness and efficiency", "id": "00046330", "subnational": [{"outputID": "00056048", "output_locID": "00056048-1", "name": "Mozambique", "focus_area": "-", "lat": "-18.250000", "type": "PCLI", "awardID": "00046330", "lon": "35.000000", "precision": "1", "focus_area_descr": "-"}, {"outputID": "00054463", "output_locID": "00054463-1", "name": "Xai-Xai", "focus_area": "-", "lat": "-25.051940", "type": "PPLA", "awardID": "00046330", "lon": "33.644170", "precision": "1", "focus_area_descr": "-"}, {"outputID": "00054463", "output_locID": "00054463-2", "name": "Nampula", "focus_area": "-", "lat": "-15.116460", "type": "PPLA", "awardID": "00046330", "lon": "39.266600", "precision": "1", "focus_area_descr": "-"}, {"outputID": "00054463", "output_locID": "00054463-3", "name": "Cabo Delgado Province", "focus_area": "-", "lat": "-12.500000", "type": "ADM1", "awardID": "00046330", "lon": "39.400000", "precision": "1", "focus_area_descr": "-"}, {"outputID": "00055100", "output_locID": "00055100-1", "name": "Xai-Xai", "focus_area": "-", "lat": "-25.051940", "type": "PPLA", "awardID": "00046330", "lon": "33.644170", "precision": "1", "focus_area_descr": "-"}, {"outputID": "00055100", "output_locID": "00055100-2", "name": "Nampula", "focus_area": "-", "lat": "-15.116460", "type": "PPLA", "awardID": "00046330", "lon": "39.266600", "precision": "1", "focus_area_descr": "-"}, {"outputID": "00055100", "output_locID": "00055100-3", "name": "Cabo Delgado Province", "focus_area": "-", "lat": "-12.500000", "type": "ADM1", "awardID": "00046330", "lon": "39.400000", "precision": "1", "focus_area_descr": "-"}, {"outputID": "00056045", "output_locID": "00056045-1", "name": "Xai-Xai", "focus_area": "-", "lat": "-25.051940", "type": "PPLA", "awardID": "00046330", "lon": "33.644170", "precision": "1", "focus_area_descr": "-"}, {"outputID": "00056045", "output_locID": "00056045-2", "name": "Nampula", "focus_area": "-", "lat": "-15.116460", "type": "PPLA", "awardID": "00046330", "lon": "39.266600", "precision": "1", "focus_area_descr": "-"}, {"outputID": "00056045", "output_locID": "00056045-3", "name": "Cabo Delgado Province", "focus_area": "-", "lat": "-12.500000", "type": "ADM1", "awardID": "00046330", "lon": "39.400000", "precision": "1", "focus_area_descr": "-"}, {"outputID": "00056046", "output_locID": "00056046-1", "name": "Mozambique", "focus_area": "-", "lat": "-18.250000", "type": "PCLI", "awardID": "00046330", "lon": "35.000000", "precision": "1", "focus_area_descr": "-"}, {"outputID": "00061417", "output_locID": "00061417-1", "name": "Xai-Xai", "focus_area": "-", "lat": "-25.051940", "type": "PPLA", "awardID": "00046330", "lon": "33.644170", "precision": "1", "focus_area_descr": "-"}, {"outputID": "00061417", "output_locID": "00061417-2", "name": "Nampula", "focus_area": "-", "lat": "-15.116460", "type": "PPLA", "awardID": "00046330", "lon": "39.266600", "precision": "1", "focus_area_descr": "-"}, {"outputID": "00061417", "output_locID": "00061417-3", "name": "Ilha de Mo\u00e7ambique", "focus_area": "-", "lat": "-15.034170", "type": "PPL", "awardID": "00046330", "lon": "40.735830", "precision": "1", "focus_area_descr": "-"}, {"outputID": "00061417", "output_locID": "00061417-4", "name": "Memba", "focus_area": "-", "lat": "-14.181110", "type": "PPL", "awardID": "00046330", "lon": "40.525830", "precision": "1", "focus_area_descr": "-"}, {"outputID": "00061417", "output_locID": "00061417-5", "name": "Inhambane", "focus_area": "-", "lat": "-23.865000", "type": "PPLA", "awardID": "00046330", "lon": "35.383330", "precision": "1", "focus_area_descr": "-"}, {"outputID": "00061417", "output_locID": "00061417-6", "name": "Cabo Delgado Province", "focus_area": "-", "lat": "-12.500000", "type": "ADM1", "awardID": "00046330", "lon": "39.400000", "precision": "1", "focus_area_descr": "-"}, {"outputID": "00061417", "output_locID": "00061417-7", "name": "Massinga District", "focus_area": "-", "lat": "-23.032290", "type": "ADM2", "awardID": "00046330", "lon": "35.261660", "precision": "1", "focus_area_descr": "-"}]}, {"title": "support to capacity development", "id": "00046359", "subnational": [{"outputID": "00072366", "output_locID": "00072366-1", "name": "Maputo", "focus_area": "0", "lat": "-25.965530", "type": "PPLC", "awardID": "00046359", "lon": "32.583220", "precision": "1", "focus_area_descr": "SP_NONE_APPLIES"}]}, {"title": "support to the floods and cyclones 2007 in mozambique", "id": "00046584", "subnational": [{"outputID": "00055562", "output_locID": "00055562-1", "name": "Mozambique", "focus_area": "-", "lat": "-18.250000", "type": "PCLI", "awardID": "00046584", "lon": "35.000000", "precision": "1", "focus_area_descr": "-"}]}, {"title": "electoral assistance", "id": "00048260", "subnational": [{"outputID": "00077166", "output_locID": "00077166-1", "name": "Mozambique", "focus_area": "2", "lat": "-18.250000", "type": "PCLI", "awardID": "00048260", "lon": "35.000000", "precision": "1", "focus_area_descr": "Democratic Governance"}, {"outputID": "00069447", "output_locID": "00069447-1", "name": "Mozambique", "focus_area": "-", "lat": "-18.250000", "type": "PCLI", "awardID": "00048260", "lon": "35.000000", "precision": "1", "focus_area_descr": "-"}]}, {"title": "dipecho - knowledge management in dp and rr", "id": "00056529", "subnational": [{"outputID": "00069208", "output_locID": "00069208-1", "name": "Mozambique", "focus_area": "-", "lat": "-18.250000", "type": "PCLI", "awardID": "00056529", "lon": "35.000000", "precision": "1", "focus_area_descr": "-"}]}, {"title": "support to millennium villages programme in mozambique", "id": "00057644", "subnational": [{"outputID": "00071309", "output_locID": "00071309-1", "name": "Mozambique", "focus_area": "-", "lat": "-18.250000", "type": "PCLI", "awardID": "00057644", "lon": "35.000000", "precision": "1", "focus_area_descr": "-"}, {"outputID": "00071374", "output_locID": "00071374-1", "name": "Mozambique", "focus_area": "-", "lat": "-18.250000", "type": "PCLI", "awardID": "00057644", "lon": "35.000000", "precision": "1", "focus_area_descr": "-"}, {"outputID": "00071375", "output_locID": "00071375-1", "name": "Mozambique", "focus_area": "-", "lat": "-18.250000", "type": "PCLI", "awardID": "00057644", "lon": "35.000000", "precision": "1", "focus_area_descr": "-"}, {"outputID": "00071372", "output_locID": "00071372-1", "name": "Gurue District", "focus_area": "-", "lat": "-15.463580", "type": "ADM2", "awardID": "00057644", "lon": "36.981670", "precision": "1", "focus_area_descr": "-"}, {"outputID": "00071372", "output_locID": "00071372-2", "name": "Gurue District", "focus_area": "-", "lat": "-15.463580", "type": "ADM2", "awardID": "00057644", "lon": "36.981670", "precision": "1", "focus_area_descr": "-"}]}, {"title": "support to psr training component", "id": "00013712", "subnational": [{"outputID": "00013712", "output_locID": "00013712-1", "name": "Inhambane", "focus_area": "-", "lat": "-23.865000", "type": "PPLA", "awardID": "00013712", "lon": "35.383330", "precision": "1", "focus_area_descr": "-"}]}, {"title": "capacity building for disaster management", "id": "00025272", "subnational": []}, {"title": "nat. environmental mgmt program", "id": "00025287", "subnational": []}, {"title": "accelerated demining programme phase iii", "id": "00036154", "subnational": [{"outputID": "00039146", "output_locID": "00039146-1", "name": "Mozambique", "focus_area": "-", "lat": "-18.250000", "type": "PCLI", "awardID": "00036154", "lon": "35.000000", "precision": "1", "focus_area_descr": "-"}]}, {"title": "building inclusive financial sector in mozambique", "id": "00046182", "subnational": [{"outputID": "00054860", "output_locID": "00054860-1", "name": "Mozambique", "focus_area": "-", "lat": "-18.250000", "type": "PCLI", "awardID": "00046182", "lon": "35.000000", "precision": "1", "focus_area_descr": "-"}]}, {"title": "civil society empowerment", "id": "00046315", "subnational": [{"outputID": "00055081", "output_locID": "00055081-1", "name": "Nampula", "focus_area": "0", "lat": "-15.000000", "type": "ADM1", "awardID": "00046315", "lon": "39.000000", "precision": "1", "focus_area_descr": "SP_NONE_APPLIES"}, {"outputID": "00055081", "output_locID": "00055081-2", "name": "Gaza Province", "focus_area": "0", "lat": "-23.500000", "type": "ADM1", "awardID": "00046315", "lon": "33.000000", "precision": "1", "focus_area_descr": "SP_NONE_APPLIES"}, {"outputID": "00055081", "output_locID": "00055081-3", "name": "Cabo Delgado Province", "focus_area": "0", "lat": "-12.500000", "type": "ADM1", "awardID": "00046315", "lon": "39.400000", "precision": "1", "focus_area_descr": "SP_NONE_APPLIES"}, {"outputID": "00055081", "output_locID": "00055081-4", "name": "Maputo", "focus_area": "0", "lat": "-25.965280", "type": "ADM1", "awardID": "00046315", "lon": "32.589170", "precision": "1", "focus_area_descr": "SP_NONE_APPLIES"}]}, {"title": "civil society participation and local development", "id": "00046331", "subnational": [{"outputID": "00054417", "output_locID": "00054417-1", "name": "Mozambique", "focus_area": "-", "lat": "-18.250000", "type": "PCLI", "awardID": "00046331", "lon": "35.000000", "precision": "1", "focus_area_descr": "-"}, {"outputID": "00056050", "output_locID": "00056050-1", "name": "Mozambique", "focus_area": "-", "lat": "-18.250000", "type": "PCLI", "awardID": "00046331", "lon": "35.000000", "precision": "1", "focus_area_descr": "-"}]}, {"title": "development planning, coordination and m & e", "id": "00046376", "subnational": [{"outputID": "00055187", "output_locID": "00055187-1", "name": "Itoculo", "focus_area": "-", "lat": "-14.720280", "type": "PPL", "awardID": "00046376", "lon": "40.336390", "precision": "1", "focus_area_descr": "-"}, {"outputID": "00056409", "output_locID": "00056409-1", "name": "Nampula", "focus_area": "-", "lat": "-15.116460", "type": "PPLA", "awardID": "00046376", "lon": "39.266600", "precision": "1", "focus_area_descr": "-"}, {"outputID": "00056409", "output_locID": "00056409-2", "name": "Namiro", "focus_area": "-", "lat": "-14.184170", "type": "STM", "awardID": "00046376", "lon": "40.092780", "precision": "1", "focus_area_descr": "-"}, {"outputID": "00056409", "output_locID": "00056409-3", "name": "Moneia", "focus_area": "-", "lat": "-17.399170", "type": "PPL", "awardID": "00046376", "lon": "37.258330", "precision": "1", "focus_area_descr": "-"}, {"outputID": "00056409", "output_locID": "00056409-4", "name": "Aldeia de Lionde", "focus_area": "-", "lat": "-24.583060", "type": "PPL", "awardID": "00046376", "lon": "33.061110", "precision": "1", "focus_area_descr": "-"}, {"outputID": "00056409", "output_locID": "00056409-5", "name": "Itoculo", "focus_area": "-", "lat": "-14.720280", "type": "PPL", "awardID": "00046376", "lon": "40.336390", "precision": "1", "focus_area_descr": "-"}, {"outputID": "00056409", "output_locID": "00056409-6", "name": "Chibuto", "focus_area": "-", "lat": "-24.686670", "type": "PPL", "awardID": "00046376", "lon": "33.530560", "precision": "1", "focus_area_descr": "-"}, {"outputID": "00056409", "output_locID": "00056409-7", "name": "Chefe Maluata", "focus_area": "-", "lat": "-14.731940", "type": "PPL", "awardID": "00046376", "lon": "36.859440", "precision": "1", "focus_area_descr": "-"}]}, {"title": "hiv, aids and gender mainstreaming", "id": "00046408", "subnational": [{"outputID": "00055052", "output_locID": "00055052-1", "name": "Gaza Province", "focus_area": "-", "lat": "-23.500000", "type": "ADM1", "awardID": "00046408", "lon": "33.000000", "precision": "1", "focus_area_descr": "-"}, {"outputID": "00056874", "output_locID": "00056874-1", "name": "Maputo", "focus_area": "0", "lat": "-25.500000", "type": "ADM1", "awardID": "00046408", "lon": "32.333330", "precision": "1", "focus_area_descr": "SP_NONE_APPLIES"}]}, {"title": "crime prevention (police iii & small arms & ligth weapo)", "id": "00046640", "subnational": []}, {"title": "rapid results fund", "id": "00059285", "subnational": [{"outputID": "00074093", "output_locID": "00074093-1", "name": "Gurue District", "focus_area": "-", "lat": "-15.463580", "type": "ADM2", "awardID": "00059285", "lon": "36.981670", "precision": "1", "focus_area_descr": "-"}, {"outputID": "00074093", "output_locID": "00074093-2", "name": "Gurue District", "focus_area": "-", "lat": "-15.463580", "type": "ADM2", "awardID": "00059285", "lon": "36.981670", "precision": "1", "focus_area_descr": "-"}]}, {"title": "establishment of a national volunteer agency", "id": "00059708", "subnational": [{"outputID": "00074799", "output_locID": "00074799-1", "name": "Maputo", "focus_area": "2", "lat": "-25.965530", "type": "PPLC", "awardID": "00059708", "lon": "32.583220", "precision": "1", "focus_area_descr": "Democratic Governance"}]}, {"title": "climate change-induced coastal erosion", "id": "00060007", "subnational": [{"outputID": "00075315", "output_locID": "00075315-1", "name": "Mozambique", "focus_area": "-", "lat": "-18.250000", "type": "PCLI", "awardID": "00060007", "lon": "35.000000", "precision": "1", "focus_area_descr": "-"}]}, {"title": "common services", "id": "00065351", "subnational": []}, {"title": "accelerated demining programme", "id": "00041305", "subnational": []}, {"title": "assistance to prm", "id": "00033411", "subnational": []}, {"title": "district planning and financing project", "id": "00013709", "subnational": []}, {"title": "flood - related mine action", "id": "00025274", "subnational": []}, {"title": "hiv/aids operat. plan of zambezia province", "id": "00013701", "subnational": []}, {"title": "institutional supp. to the nat. aids council", "id": "00025271", "subnational": []}, {"title": "local government reform", "id": "00013717", "subnational": []}, {"title": "media development in mozambique - phase iii", "id": "00037533", "subnational": []}, {"title": "national aids council institut. capac. dev.", "id": "00013703", "subnational": []}, {"title": "national integrated progarmme", "id": "00013707", "subnational": []}, {"title": "nhdr 2003-2006", "id": "00042955", "subnational": []}, {"title": "partnership for poverty reduction in mozamb.", "id": "00013714", "subnational": []}, {"title": "protected area system of mozambique - pims no: 3938", "id": "00057986", "subnational": []}, {"title": "rural development strategy", "id": "00036388", "subnational": []}, {"title": "support for capacity bulding to the ind", "id": "00025275", "subnational": []}, {"title": "support to prm", "id": "00036334", "subnational": []}, {"title": "support to the parliament", "id": "00036505", "subnational": []}, {"title": "terminal phase-out management plan for mozambique", "id": "00057916", "subnational": []}, {"title": "unaids paf funds", "id": "00038632", "subnational": []}, {"title": "upsteam microfinance capacity building", "id": "00013713", "subnational": []}], "op_unit": "MOZ"}