{"iso_num":"516","op_unit":"NAM","projects":[{"id":"00048997","subnational":[],"title":"Benguela Current Strategic Action Plan Implementation"},{"id":"00046531","subnational":[],"title":"Benguela Current Strategic Action Plan: Initiation"},{"id":"00057940","subnational":[{"awardID":"00057940","lat":"-18.41667","lon":"19.75","name":"Kavango","precision":"4","type":"RES"},{"awardID":"00057940","lat":"-18","lon":"24.33333","name":"Chobe","precision":"4","type":"RES"},{"awardID":"00057940","lat":"-24.63333","lon":"17.96667","name":"Mariental","precision":"4","type":"RES"},{"awardID":"00057940","lat":"-22.55941","lon":"17.08323","name":"Windhoek","precision":"4","type":"RES"},{"awardID":"00057940","lat":"-18.83333","lon":"36.28333","name":"Zambezi","precision":"4","type":"RES"}],"title":"Building Foundation for Climate Change Adaptation"},{"id":"00046250","subnational":[{"awardID":"00046250","lat":"-22","lon":"17","name":"Namibia","precision":"9","type":"PCL"}],"title":"Community Capacity Enhancement"},{"id":"00043726","subnational":[{"awardID":"00043726","lat":"-18.41667","lon":"19.75","name":"Kavango","precision":"4","type":"ADM1"},{"awardID":"00043726","lat":"-18.41667","lon":"19.75","name":"Okavango","precision":"4","type":"ADM1"},{"awardID":"00043726","lat":"-19","lon":"16","name":"Etosha","precision":"3","type":"RES"},{"awardID":"00043726","lat":"-18.15","lon":"21.7","name":"Mahango","precision":"3","type":"PPL"},{"awardID":"00043726","lat":"-17.83333","lon":"23.75","name":"Caprivi","precision":"3","type":"ADM1"},{"awardID":"00043726","lat":"-23.08333","lon":"15.16667","name":"Namib Escarpment","precision":"3","type":"RES"}],"title":"Country Pilot Partnership for Sust. Land MGT: Adaptive M"},{"id":"00013955","subnational":[{"awardID":"00013955","lat":"-22","lon":"17","name":"Namibia","precision":"9","type":"PCL"}],"title":"CURRICULUM DEVELOPMENT"},{"id":"00064537","subnational":[],"title":"Development Effectiveness"},{"id":"00047920","subnational":[{"awardID":"00047920","lat":"-18.33333","lon":"14.83333","name":"Omusati","precision":"4","type":"ADM1"},{"awardID":"00047920","lat":"-18.5","lon":"15.75","name":"Oshana","precision":"4","type":"ADM1"},{"awardID":"00047920","lat":"-22","lon":"17","name":"Ohangwena","precision":"3","type":"PPL"}],"title":"Enhancing Institutional &Human Resource Capacity"},{"id":"00068204","subnational":[],"title":"Improving Policy&Practice Civil Society Capacity Build"},{"id":"00042145","subnational":[],"title":"Joint HIV/AIDS UN Workplace Programme"},{"id":"00059936","subnational":[{"awardID":"00059936","lat":"-22","lon":"17","name":"Namibia","precision":"9","type":"PCL"}],"title":"Namibia Energy Efficiency Programme in Buildings"},{"id":"00056953","subnational":[],"title":"Namibia Protected Landscape Conservation Areas Initiativ"},{"id":"00059705","subnational":[],"title":"Namibia Protected Landscape Conservation Areas Initiativ"},{"id":"00045927","subnational":[{"awardID":"00045927","lat":"-22","lon":"17","name":"Namibia","precision":"9","type":"PCL"}],"title":"Namibia RCO Budgets"},{"id":"00061154","subnational":[{"awardID":"00061154","lat":"-22","lon":"17","name":"Namibia","precision":"9","type":"PCL"}],"title":"Namibia's Third National Communication to the UNFCCC"},{"id":"00047922","subnational":[{"awardID":"00047922","lat":"-17.58333","lon":"16.75","name":"Namibia","precision":"9","type":"PCL"}],"title":"Piloting Climate Change Adaptation Measures"},{"id":"00013958","subnational":[{"awardID":"00013958","lat":"-22","lon":"17","name":"Namibia","precision":"9","type":"PCL"}],"title":"REDUCTION OF HUMAN POVERTY"},{"id":"00047136","subnational":[{"awardID":"00047136","lat":"-22","lon":"17","name":"Namibia","precision":"9","type":"PCL"}],"title":"Regional Councils & Local Authorities Capacity Building"},{"id":"00051106","subnational":[{"awardID":"00051106","lat":"-22","lon":"17","name":"Benguela","precision":"3","type":"PPL"}],"title":"Science Programme to support Ecosy AF in the BCLME Reg."},{"id":"00056930","subnational":[{"awardID":"00056930","lat":"-22","lon":"17","name":"Namibia","precision":"9","type":"PCL"}],"title":"Setting things right-towards gender equality and equity"},{"id":"00060681","subnational":[{"awardID":"00060681","lat":"-17.83333","lon":"23.75","name":"Caprivi","precision":"3","type":"ADM1"},{"awardID":"00060681","lat":"-17.58333","lon":"16.75","name":"Ohangwena","precision":"4","type":"ADM1"}],"title":"Strengthen Capacity for Disaster Preparedness, Response"},{"id":"00064895","subnational":[],"title":"Strengthening Capacities for Protected Area System Mgt"},{"id":"00046858","subnational":[{"awardID":"00046858","lat":"-22","lon":"17","name":"Namibia","precision":"9","type":"PCL"}],"title":"Strengthening capacities for Public Sector HIV and AIDS"},{"id":"00035028","subnational":[],"title":"Strengthening Protect Area Network MGT Initiation SPAN"},{"id":"00042087","subnational":[{"awardID":"00042087","lat":"-18.41667","lon":"19.75","name":"Namib Nukluft Park","precision":"3","type":"ADM1"},{"awardID":"00042087","lat":"-23.08333","lon":"15.16667","name":"Okavango Upper Zambezi Transfrontier Conservation Area","precision":"3","type":"RES"},{"awardID":"00042087","lat":"-17.8","lon":"22.56667","name":"Namib Desert Transfrontier Conservation Area","precision":"3","type":"PPL"},{"awardID":"00042087","lat":"-18.08333","lon":"23.48333","name":"Bwabwata","precision":"3","type":"PPL"},{"awardID":"00042087","lat":"-18.03333","lon":"24.01667","name":"Mudumu","precision":"3","type":"PPL"},{"awardID":"00042087","lat":"-27.91667","lon":"17.48333","name":"Mamili","precision":"3","type":"PPL"},{"awardID":"00042087","lat":"-22","lon":"17","name":"Ai Ais","precision":"3","type":"PCL"}],"title":"Strengthening Protected Areas Network  Management"},{"id":"00065909","subnational":[],"title":"Support for Enhanced Democratic Governance"},{"id":"00043105","subnational":[{"awardID":"00043105","lat":"-22","lon":"17","name":"Namibia","precision":"9","type":"PCL"}],"title":"Support to Gender Equality"},{"id":"00066373","subnational":[],"title":"Sustainable Management Namibia Forested Lands (NAFOLA)"},{"id":"00041586","subnational":[],"title":"UNAIDS PAF AND UBRAF HIGH IMPACT"},{"id":"00013954","subnational":[{"awardID":"00013954","lat":"-22","lon":"17","name":"Namibia","precision":"9","type":"PCL"}],"title":"UNV Capacity Building Support Programme"}]}