{"iso_num": null, "projects": [{"title": "unv capacity building support programme", "id": "00013954", "subnational": [{"outputID": "00013954", "output_locID": "00013954-1", "name": "Republic of Namibia", "focus_area": "7", "lat": "-22.000000", "type": "PCLI", "awardID": "00013954", "lon": "17.000000", "precision": "1", "focus_area_descr": "Development Impact & Effectiveness"}]}, {"title": "curriculum development", "id": "00013955", "subnational": [{"outputID": "00013955", "output_locID": "00013955-1", "name": "Republic of Namibia", "focus_area": "2", "lat": "-22.000000", "type": "PCLI", "awardID": "00013955", "lon": "17.000000", "precision": "1", "focus_area_descr": "Democratic Governance"}]}, {"title": "reduction of human poverty", "id": "00013958", "subnational": [{"outputID": "00013958", "output_locID": "00013958-1", "name": "Republic of Namibia", "focus_area": "7", "lat": "-22.000000", "type": "PCLI", "awardID": "00013958", "lon": "17.000000", "precision": "1", "focus_area_descr": "Development Impact & Effectiveness"}]}, {"title": "senior economist namibia", "id": "00033309", "subnational": []}, {"title": "unaids paf and ubraf high impact", "id": "00041586", "subnational": [{"outputID": "00087096", "output_locID": "00087096-1", "name": "Republic of Namibia", "focus_area": "3", "lat": "-22.000000", "type": "PCLI", "awardID": "00041586", "lon": "17.000000", "precision": "1", "focus_area_descr": "Responsive Institutions"}]}, {"title": "joint hiv/aids un workplace programme", "id": "00042145", "subnational": [{"outputID": "00048249", "output_locID": "00048249-1", "name": "Republic of Namibia", "focus_area": "-", "lat": "-22.000000", "type": "PCLI", "awardID": "00042145", "lon": "17.000000", "precision": "1", "focus_area_descr": "-"}]}, {"title": "support to gender equality", "id": "00043105", "subnational": [{"outputID": "00050100", "output_locID": "00050100-1", "name": "Republic of Namibia", "focus_area": "4", "lat": "-22.000000", "type": "PCLI", "awardID": "00043105", "lon": "17.000000", "precision": "1", "focus_area_descr": "Gender Equality"}]}, {"title": "namibia rco budgets", "id": "00045927", "subnational": [{"outputID": "00083863", "output_locID": "00083863-1", "name": "Republic of Namibia", "focus_area": "-", "lat": "-22.000000", "type": "PCLI", "awardID": "00045927", "lon": "17.000000", "precision": "1", "focus_area_descr": "-"}, {"outputID": "00054396", "output_locID": "00054396-1", "name": "Republic of Namibia", "focus_area": "-", "lat": "-22.000000", "type": "PCLI", "awardID": "00045927", "lon": "17.000000", "precision": "1", "focus_area_descr": "-"}]}, {"title": "strengthening capacities for improved hiv coordination", "id": "00046858", "subnational": [{"outputID": "00056027", "output_locID": "00056027-1", "name": "Republic of Namibia", "focus_area": "3", "lat": "-22.000000", "type": "PCLI", "awardID": "00046858", "lon": "17.000000", "precision": "1", "focus_area_descr": "Responsive Institutions"}]}, {"title": "regional councils & local authorities capacity building", "id": "00047136", "subnational": [{"outputID": "00056440", "output_locID": "00056440-1", "name": "Republic of Namibia", "focus_area": "3", "lat": "-22.000000", "type": "PCLI", "awardID": "00047136", "lon": "17.000000", "precision": "1", "focus_area_descr": "Responsive Institutions"}]}, {"title": "benguela current strategic action plan implementation", "id": "00048997", "subnational": [{"outputID": "00059476", "output_locID": "00059476-1", "name": "Republic of Namibia", "focus_area": "8", "lat": "-22.000000", "type": "PCLI", "awardID": "00048997", "lon": "17.000000", "precision": "1", "focus_area_descr": "South-South"}]}, {"title": "setting things right-towards gender equality and equity", "id": "00056930", "subnational": [{"outputID": "00070079", "output_locID": "00070079-1", "name": "Republic of Namibia", "focus_area": "-", "lat": "-22.000000", "type": "PCLI", "awardID": "00056930", "lon": "17.000000", "precision": "1", "focus_area_descr": "-"}]}, {"title": "namibia protected landscape conservation areas initiativ", "id": "00059705", "subnational": [{"outputID": "00074796", "output_locID": "00074796-1", "name": "Namib Desert", "focus_area": "2", "lat": "-23.000000", "type": "DSRT", "awardID": "00059705", "lon": "15.000000", "precision": "1", "focus_area_descr": "Democratic Governance"}, {"outputID": "00074796", "output_locID": "00074796-2", "name": "Namib Desert", "focus_area": "2", "lat": "-23.000000", "type": "DSRT", "awardID": "00059705", "lon": "15.000000", "precision": "1", "focus_area_descr": "Democratic Governance"}]}, {"title": "namibia energy efficiency programme in buildings", "id": "00059936", "subnational": [{"outputID": "00075195", "output_locID": "00075195-1", "name": "Republic of Namibia", "focus_area": "1", "lat": "-22.000000", "type": "PCLI", "awardID": "00059936", "lon": "17.000000", "precision": "1", "focus_area_descr": "Inclusive & Sustainable Growth"}]}, {"title": "strengthen capacity for disaster preparedness, response", "id": "00060681", "subnational": [{"outputID": "00076514", "output_locID": "00076514-1", "name": "Zambezi Region", "focus_area": "6", "lat": "-17.833330", "type": "ADM1", "awardID": "00060681", "lon": "23.750000", "precision": "1", "focus_area_descr": "Crisis Prevention & Recovery"}, {"outputID": "00076514", "output_locID": "00076514-2", "name": "Zambezi Region", "focus_area": "6", "lat": "-17.833330", "type": "ADM1", "awardID": "00060681", "lon": "23.750000", "precision": "1", "focus_area_descr": "Crisis Prevention & Recovery"}, {"outputID": "00076514", "output_locID": "00076514-3", "name": "Ohangwena", "focus_area": "6", "lat": "-17.583330", "type": "ADM1", "awardID": "00060681", "lon": "16.750000", "precision": "1", "focus_area_descr": "Crisis Prevention & Recovery"}]}, {"title": "namibia's third national communication to the unfccc", "id": "00061154", "subnational": [{"outputID": "00077356", "output_locID": "00077356-1", "name": "Republic of Namibia", "focus_area": "1", "lat": "-22.000000", "type": "PCLI", "awardID": "00061154", "lon": "17.000000", "precision": "1", "focus_area_descr": "Inclusive & Sustainable Growth"}]}, {"title": "development effectiveness", "id": "00064537", "subnational": [{"outputID": "00081292", "output_locID": "00081292-1", "name": "Republic of Namibia", "focus_area": "-", "lat": "-22.000000", "type": "PCLI", "awardID": "00064537", "lon": "17.000000", "precision": "1", "focus_area_descr": "-"}]}, {"title": "strengthening capacities for protected area system mgt", "id": "00064895", "subnational": [{"outputID": "00081550", "output_locID": "00081550-1", "name": "Republic of Namibia", "focus_area": "2", "lat": "-22.000000", "type": "PCLI", "awardID": "00064895", "lon": "17.000000", "precision": "1", "focus_area_descr": "Democratic Governance"}]}, {"title": "support for enhanced democratic governance", "id": "00065909", "subnational": [{"outputID": "00082247", "output_locID": "00082247-1", "name": "Republic of Namibia", "focus_area": "2", "lat": "-22.000000", "type": "PCLI", "awardID": "00065909", "lon": "17.000000", "precision": "1", "focus_area_descr": "Democratic Governance"}]}, {"title": "sustainable management namibia forested lands (nafola)", "id": "00066373", "subnational": [{"outputID": "00082565", "output_locID": "00082565-1", "name": "Republic of Namibia", "focus_area": "1", "lat": "-22.000000", "type": "PCLI", "awardID": "00066373", "lon": "17.000000", "precision": "1", "focus_area_descr": "Inclusive & Sustainable Growth"}]}, {"title": "improving policy&practice civil society capacity build", "id": "00068204", "subnational": [{"outputID": "00083537", "output_locID": "00083537-1", "name": "Republic of Namibia", "focus_area": "1", "lat": "-22.000000", "type": "PCLI", "awardID": "00068204", "lon": "17.000000", "precision": "1", "focus_area_descr": "Inclusive & Sustainable Growth"}]}, {"title": "concentrating solar power technology transfer for electr", "id": "00072612", "subnational": [{"outputID": "00085669", "output_locID": "00085669-1", "name": "Republic of Namibia", "focus_area": "1", "lat": "-22.000000", "type": "PCLI", "awardID": "00072612", "lon": "17.000000", "precision": "1", "focus_area_descr": "Inclusive & Sustainable Growth"}]}, {"title": "scaling up community resilience to climate variability a", "id": "00074292", "subnational": [{"outputID": "00086760", "output_locID": "00086760-1", "name": "Republic of Namibia", "focus_area": "1", "lat": "-22.000000", "type": "PCLI", "awardID": "00074292", "lon": "17.000000", "precision": "1", "focus_area_descr": "Inclusive & Sustainable Growth"}, {"outputID": "00086761", "output_locID": "00086761-1", "name": "Republic of Namibia", "focus_area": "2", "lat": "-22.000000", "type": "PCLI", "awardID": "00074292", "lon": "17.000000", "precision": "1", "focus_area_descr": "Democratic Governance"}]}, {"title": "namibia\u2019s biennial update report 1 to the unfccc", "id": "00076550", "subnational": []}, {"title": "protected areas system strengthening", "id": "00079312", "subnational": []}, {"title": "sustainable management of namibia's forested lands (nafo", "id": "00082143", "subnational": []}, {"title": "realizing the inclusive and sustainable development in t", "id": "00082539", "subnational": []}, {"title": "benguela current strategic action plan: initiation", "id": "00046531", "subnational": [{"outputID": "00055485", "output_locID": "00055485-1", "name": "Namibia", "focus_area": "5", "lat": "-22", "type": "PCL", "awardID": "00046531", "lon": "17", "precision": "9", "focus_area_descr": "Climate Change & Disaster Resilience"}]}, {"title": "building foundation for climate change adaptation", "id": "00057940", "subnational": [{"outputID": "00071760", "output_locID": "00071760-1", "name": "Chobe", "focus_area": "5", "lat": "-18", "type": "RES", "awardID": "00057940", "lon": "24.33333", "precision": "4", "focus_area_descr": "Climate Change & Disaster Resilience"}, {"outputID": "00071760", "output_locID": "00071760-2", "name": "Kavango", "focus_area": "5", "lat": "-18.41667", "type": "RES", "awardID": "00057940", "lon": "19.75", "precision": "4", "focus_area_descr": "Climate Change & Disaster Resilience"}, {"outputID": "00071760", "output_locID": "00071760-3", "name": "Mariental", "focus_area": "5", "lat": "-24.63333", "type": "RES", "awardID": "00057940", "lon": "17.96667", "precision": "4", "focus_area_descr": "Climate Change & Disaster Resilience"}, {"outputID": "00071760", "output_locID": "00071760-4", "name": "Windhoek", "focus_area": "5", "lat": "-22.55941", "type": "RES", "awardID": "00057940", "lon": "17.08323", "precision": "4", "focus_area_descr": "Climate Change & Disaster Resilience"}, {"outputID": "00071760", "output_locID": "00071760-5", "name": "Zambezi", "focus_area": "5", "lat": "-18.83333", "type": "RES", "awardID": "00057940", "lon": "36.28333", "precision": "4", "focus_area_descr": "Climate Change & Disaster Resilience"}]}, {"title": "community capacity enhancement", "id": "00046250", "subnational": [{"outputID": "00054951", "output_locID": "00054951-1", "name": "Namibia", "focus_area": "1", "lat": "-22", "type": "PCL", "awardID": "00046250", "lon": "17", "precision": "9", "focus_area_descr": "Inclusive & Sustainable Growth"}]}, {"title": "country pilot partnership for sust. land mgt: adaptive m", "id": "00043726", "subnational": [{"outputID": "00051123", "output_locID": "00051123-1", "name": "Caprivi", "focus_area": "5", "lat": "-17.83333", "type": "ADM1", "awardID": "00043726", "lon": "23.75", "precision": "4", "focus_area_descr": "Climate Change & Disaster Resilience"}, {"outputID": "00051123", "output_locID": "00051123-2", "name": "Etosha", "focus_area": "5", "lat": "-19", "type": "RES", "awardID": "00043726", "lon": "16", "precision": "4", "focus_area_descr": "Climate Change & Disaster Resilience"}, {"outputID": "00051123", "output_locID": "00051123-3", "name": "Mahango", "focus_area": "5", "lat": "-18.15", "type": "PPL", "awardID": "00043726", "lon": "21.7", "precision": "3", "focus_area_descr": "Climate Change & Disaster Resilience"}, {"outputID": "00051123", "output_locID": "00051123-4", "name": "Namib Escarpment", "focus_area": "5", "lat": "-23.08333", "type": "RES", "awardID": "00043726", "lon": "15.16667", "precision": "4", "focus_area_descr": "Climate Change & Disaster Resilience"}, {"outputID": "00051123", "output_locID": "00051123-5", "name": "Kavango", "focus_area": "5", "lat": "-18.41667", "type": "ADM1", "awardID": "00043726", "lon": "19.75", "precision": "4", "focus_area_descr": "Climate Change & Disaster Resilience"}, {"outputID": "00051123", "output_locID": "00051123-6", "name": "Okavango", "focus_area": "5", "lat": "-18.41667", "type": "ADM1", "awardID": "00043726", "lon": "19.75", "precision": "4", "focus_area_descr": "Climate Change & Disaster Resilience"}]}, {"title": "enhancing institutional &human resource capacity", "id": "00047920", "subnational": [{"outputID": "00057841", "output_locID": "00057841-1", "name": "Ohangwena", "focus_area": "5", "lat": "-22", "type": "PPL", "awardID": "00047920", "lon": "17", "precision": "3", "focus_area_descr": "Climate Change & Disaster Resilience"}, {"outputID": "00057841", "output_locID": "00057841-2", "name": "Omusati", "focus_area": "5", "lat": "-18.33333", "type": "ADM1", "awardID": "00047920", "lon": "14.83333", "precision": "4", "focus_area_descr": "Climate Change & Disaster Resilience"}, {"outputID": "00057841", "output_locID": "00057841-3", "name": "Oshana", "focus_area": "5", "lat": "-18.5", "type": "ADM1", "awardID": "00047920", "lon": "15.75", "precision": "4", "focus_area_descr": "Climate Change & Disaster Resilience"}]}, {"title": "namibia protected landscape conservation areas initiativ", "id": "00056953", "subnational": [{"outputID": "00070124", "output_locID": "00070124-1", "name": "Namibia", "focus_area": "5", "lat": "-22", "type": "PCL", "awardID": "00056953", "lon": "17", "precision": "9", "focus_area_descr": "Climate Change & Disaster Resilience"}]}, {"title": "namibia second nat comm to the  unfccc snc", "id": "00037648", "subnational": [{"outputID": "00041240", "output_locID": "00041240-1", "name": "Namibia", "focus_area": "5", "lat": "-22", "type": "PCL", "awardID": "00037648", "lon": "17", "precision": "9", "focus_area_descr": "Climate Change & Disaster Resilience"}]}, {"title": "piloting climate change adaptation measures", "id": "00047922", "subnational": [{"outputID": "00057843", "output_locID": "00057843-1", "name": "Namibia", "focus_area": "5", "lat": "-17.58333", "type": "PCL", "awardID": "00047922", "lon": "16.75", "precision": "9", "focus_area_descr": "Climate Change & Disaster Resilience"}]}, {"title": "preparation of initial national comm. to the unfccc inc", "id": "00013952", "subnational": []}, {"title": "science programme to support ecosy af in the bclme reg.", "id": "00051106", "subnational": [{"outputID": "00063477", "output_locID": "00063477-1", "name": "Benguela", "focus_area": "5", "lat": "-22", "type": "PPL", "awardID": "00051106", "lon": "17", "precision": "3", "focus_area_descr": "Climate Change & Disaster Resilience"}]}, {"title": "strengthening protect area network mgt initiation span", "id": "00035028", "subnational": [{"outputID": "00037513", "output_locID": "00037513-1", "name": "Namibia", "focus_area": "5", "lat": "-22", "type": "PCL", "awardID": "00035028", "lon": "17", "precision": "9", "focus_area_descr": "Climate Change & Disaster Resilience"}]}, {"title": "strengthening protected areas network  management", "id": "00042087", "subnational": [{"outputID": "00048171", "output_locID": "00048171-1", "name": "Ai Ais", "focus_area": "5", "lat": "-22", "type": "PCL", "awardID": "00042087", "lon": "17", "precision": "9", "focus_area_descr": "Climate Change & Disaster Resilience"}, {"outputID": "00048171", "output_locID": "00048171-2", "name": "Bwabwata", "focus_area": "5", "lat": "-18.08333", "type": "PPL", "awardID": "00042087", "lon": "23.48333", "precision": "3", "focus_area_descr": "Climate Change & Disaster Resilience"}, {"outputID": "00048171", "output_locID": "00048171-3", "name": "Mamili", "focus_area": "5", "lat": "-27.91667", "type": "PPL", "awardID": "00042087", "lon": "17.48333", "precision": "3", "focus_area_descr": "Climate Change & Disaster Resilience"}, {"outputID": "00048171", "output_locID": "00048171-4", "name": "Mudumu", "focus_area": "5", "lat": "-18.03333", "type": "PPL", "awardID": "00042087", "lon": "24.01667", "precision": "3", "focus_area_descr": "Climate Change & Disaster Resilience"}, {"outputID": "00048171", "output_locID": "00048171-5", "name": "Namib Desert Transfrontier Conservation Area", "focus_area": "5", "lat": "-17.8", "type": "PPL", "awardID": "00042087", "lon": "22.56667", "precision": "3", "focus_area_descr": "Climate Change & Disaster Resilience"}, {"outputID": "00048171", "output_locID": "00048171-6", "name": "Namib Nukluft Park", "focus_area": "5", "lat": "-18.41667", "type": "ADM1", "awardID": "00042087", "lon": "19.75", "precision": "4", "focus_area_descr": "Climate Change & Disaster Resilience"}, {"outputID": "00048171", "output_locID": "00048171-7", "name": "Okavango Upper Zambezi Transfrontier Conservation Area", "focus_area": "5", "lat": "-23.08333", "type": "RES", "awardID": "00042087", "lon": "15.16667", "precision": "4", "focus_area_descr": "Climate Change & Disaster Resilience"}]}, {"title": "unaids small grants fund", "id": "00035963", "subnational": []}, {"title": "benguela current large marine ecosystem -bclme", "id": "00039901", "subnational": []}, {"title": "capacity enhancement for global environ mgt", "id": "00046421", "subnational": [{"outputID": "00055289", "output_locID": "00055289-1", "name": "Namibia", "focus_area": "-", "lat": "-22", "type": "PCL", "awardID": "00046421", "lon": "17", "precision": "9", "focus_area_descr": "-"}]}, {"title": "namibia concentrating solar power : initiation", "id": "00059910", "subnational": [{"outputID": "00075156", "output_locID": "00075156-1", "name": "Namibia", "focus_area": "-", "lat": "-22", "type": "PCL", "awardID": "00059910", "lon": "17", "precision": "9", "focus_area_descr": "-"}]}, {"title": "namibia energy efficiency  programme: initiation", "id": "00056959", "subnational": [{"outputID": "00070131", "output_locID": "00070131-1", "name": "Namibia", "focus_area": "-", "lat": "-22", "type": "PCL", "awardID": "00056959", "lon": "17", "precision": "9", "focus_area_descr": "-"}]}, {"title": "namibia renewable energy programme phase ii namrep", "id": "00045670", "subnational": [{"outputID": "00054005", "output_locID": "00054005-1", "name": "Namibia", "focus_area": "-", "lat": "-22", "type": "PCL", "awardID": "00045670", "lon": "17", "precision": "9", "focus_area_descr": "-"}]}, {"title": "strengthening of the national statistical system", "id": "00046334", "subnational": [{"outputID": "00055104", "output_locID": "00055104-1", "name": "Namibia", "focus_area": "-", "lat": "-22", "type": "PCL", "awardID": "00046334", "lon": "17", "precision": "9", "focus_area_descr": "-"}]}, {"title": "flood emergency support", "id": "00049946", "subnational": []}, {"title": "institutionalisation of the bcc by the 3 countries", "id": "00050975", "subnational": []}, {"title": "national capacity self assmt for global environ mgtncsa", "id": "00013959", "subnational": []}, {"title": "preparatory assistance for  institutional set up bcc", "id": "00050093", "subnational": []}, {"title": "support to the acc on the implementation of the ac act", "id": "00046546", "subnational": []}, {"title": "training & capacity building to implement eaf in bclme", "id": "00049916", "subnational": []}, {"title": "transformational leadership", "id": "00046311", "subnational": []}], "op_unit": "NAM"}