{"iso_num":"566","op_unit":"NGA","projects":[{"id":"00059851","subnational":[{"awardID":"00059851","lat":"10","lon":"8","name":"Nigeria","precision":"9","type":"PCL"}],"title":"4221: Less Burnt for A Clean Earth (FSP)"},{"id":"00060087","subnational":[{"awardID":"00060087","lat":"7.44982","lon":"6.32209","name":"Okene","precision":"9","type":"ADM2"}],"title":"Africa Adaptation Program NGR (AAP PIMS 4374  FullNGA)"},{"id":"00058226","subnational":[{"awardID":"00058226","lat":"7.25256","lon":"5.19312","name":"Akure","precision":"9","type":"PPLA"}],"title":"Capacity Development Project for Successful CPAP Impleme"},{"id":"00056855","subnational":[{"awardID":"00056855","lat":"10","lon":"8","name":"Nigeria","precision":"9","type":"PCL"},{"awardID":"00056855","lat":"7.93333","lon":"4.58333","name":"Onde","precision":"9","type":"PPL"},{"awardID":"00056855","lat":"10.28969","lon":"11.16729","name":"Gombe","precision":"9","type":"PPLA"},{"awardID":"00056855","lat":"7.55","lon":"4.53333","name":"Ife","precision":"9","type":"ADM2"},{"awardID":"00056855","lat":"10","lon":"8","name":"Nigeria","precision":"9","type":"PCL"},{"awardID":"00056855","lat":"10","lon":"8","name":"Nigeria","precision":"9","type":"PCL"},{"awardID":"00056855","lat":"10","lon":"8","name":"Nigeria","precision":"9","type":"PCL"},{"awardID":"00056855","lat":"10","lon":"8","name":"Nigeria","precision":"9","type":"PCL"}],"title":"Capacity for Governance Programme & Conflict Management"},{"id":"00056741","subnational":[{"awardID":"00056741","lat":"10","lon":"8","name":"Nigeria","precision":"9","type":"PCL"},{"awardID":"00056741","lat":"10","lon":"8","name":"Nigeria","precision":"9","type":"PCL"},{"awardID":"00056741","lat":"11.747","lon":"11.9608","name":"Damaturu","precision":"9","type":"PPLA"},{"awardID":"00056741","lat":"11.5221","lon":"13.68558","name":"Bama","precision":"9","type":"PPL"},{"awardID":"00056741","lat":"11.7091","lon":"11.0694","name":"Potiskum","precision":"9","type":"PPL"}],"title":"Economic Governance Programme"},{"id":"00056740","subnational":[{"awardID":"00056740","lat":"12.8791","lon":"10.4526","name":"Nguru","precision":"9","type":"PPL"},{"awardID":"00056740","lat":"13.06092","lon":"5.23902","name":"Sokoto","precision":"9","type":"PPLA"},{"awardID":"00056740","lat":"8.66667","lon":"3.38333","name":"Shaki","precision":"9","type":"PPL"}],"title":"Environmental Resources and Risks"},{"id":"00073459","subnational":[],"title":"Extension of Institutional Strengthening Project VII"},{"id":"00074071","subnational":[],"title":"GOVERNANCE & PEACE BUILDING"},{"id":"00037239","subnational":[{"awardID":"00037239","lat":"11.747","lon":"11.9608","name":"Damaturu","precision":"9","type":"PPLA"}],"title":"Governance and Human Rights"},{"id":"00056766","subnational":[{"awardID":"00056766","lat":"9.06853","lon":"7.48375","name":"Abuja","precision":"3","type":"PPLC"},{"awardID":"00056766","lat":"9.06853","lon":"7.48375","name":"Abuja","precision":"3","type":"PPLC"}],"title":"Governance of the Country Response to HIV & AIDS"},{"id":"00061826","subnational":[{"awardID":"00061826","lat":"10","lon":"8","name":"Nigeria","precision":"9","type":"PCL"}],"title":"Hydrocholrofluorocarbon Phase out  Management Plan"},{"id":"00064798","subnational":[],"title":"Mainstreaming SMC Issues into MDG Based Planning"},{"id":"00067494","subnational":[],"title":"Nigeria REDD+ Readiness Programme"},{"id":"00014091","subnational":[],"title":"NIGERIAN DIASPORA TRUST FUN"},{"id":"00036231","subnational":[{"awardID":"00036231","lat":"8.66667","lon":"3.38333","name":"Shaki","precision":"9","type":"PPL"}],"title":"Nigerian Diaspora Trust Fund"},{"id":"00014090","subnational":[],"title":"Phase-Out Plan For Elimination Of CFCs in Nigeria"},{"id":"00061066","subnational":[],"title":"PIMS 2047 - Niger Delta Biodiversity Programme"},{"id":"00060200","subnational":[],"title":"PIMS 4122 Nigeria: Promoting Energy Efficiency"},{"id":"00036908","subnational":[{"awardID":"00036908","lat":"13.06092","lon":"5.23902","name":"Sokoto","precision":"9","type":"PPLA"}],"title":"Poverty Reduction Support Programme"},{"id":"00056776","subnational":[{"awardID":"00056776","lat":"9.06853","lon":"7.48375","name":"Abuja","precision":"3","type":"PPLC"},{"awardID":"00056776","lat":"9.06853","lon":"7.48375","name":"Abuja","precision":"3","type":"PPLC"},{"awardID":"00056776","lat":"9.06853","lon":"7.48375","name":"Abuja","precision":"3","type":"PPLC"},{"awardID":"00056776","lat":"9.06853","lon":"7.48375","name":"Abuja","precision":"3","type":"PPLC"},{"awardID":"00056776","lat":"9.06853","lon":"7.48375","name":"Abuja","precision":"3","type":"PPLC"}],"title":"Private Sector Develoment Programme"},{"id":"00037453","subnational":[{"awardID":"00037453","lat":"10","lon":"8","name":"Nigeria","precision":"9","type":"PCL"}],"title":"Second Communication to Climate Change Convention"},{"id":"00059641","subnational":[{"awardID":"00059641","lat":"6.81609","lon":"3.91588","name":"Ode","precision":"9","type":"PPL"}],"title":"Support to Strengthen WA Peace Support Operations"},{"id":"00060294","subnational":[{"awardID":"00060294","lat":"9.08333","lon":"6.01667","name":"Bida","precision":"9","type":"PPL"}],"title":"Territorial Approach to Climate Change"},{"id":"00036050","subnational":[{"awardID":"00036050","lat":"7.55","lon":"3.43333","name":"Eruwa","precision":"9","type":"PPL"}],"title":"TOURISM MASTER PLAN"}]}