{"iso_num": null, "projects": [{"title": "nigerian diaspora trust fun", "id": "00014091", "subnational": []}, {"title": "programme support to resident coordination", "id": "00031445", "subnational": [{"outputID": "00031559", "output_locID": "00031559-1", "name": "Federal Republic of Nigeria", "focus_area": "-", "lat": "10.000000", "type": "PCLI", "awardID": "00031445", "lon": "8.000000", "precision": "1", "focus_area_descr": "-"}, {"outputID": "00056129", "output_locID": "00056129-1", "name": "Nigeria", "focus_area": "-", "lat": "10", "type": "PCL", "awardID": "00031445", "lon": "8", "precision": "9", "focus_area_descr": "-"}]}, {"title": "joint donor basket fund for nigeria's 2007 election", "id": "00044749", "subnational": [{"outputID": "00052725", "output_locID": "00052725-1", "name": "Sapele", "focus_area": "2", "lat": "5.322080", "type": "PPL", "awardID": "00044749", "lon": "6.294960", "precision": "1", "focus_area_descr": "Democratic Governance"}]}, {"title": "2005 census support initiative in nigeria", "id": "00038410", "subnational": [{"outputID": "00042547", "output_locID": "00042547-1", "name": "Abuja", "focus_area": "1", "lat": "9.057850", "type": "PPLC", "awardID": "00038410", "lon": "7.495080", "precision": "1", "focus_area_descr": "Inclusive & Sustainable Growth"}]}, {"title": "private sector develoment programme", "id": "00056776", "subnational": [{"outputID": "00081432", "output_locID": "00081432-1", "name": "Federal Republic of Nigeria", "focus_area": "8", "lat": "10.000000", "type": "PCLI", "awardID": "00056776", "lon": "8.000000", "precision": "1", "focus_area_descr": "South-South"}, {"outputID": "00069702", "output_locID": "00069702-1", "name": "Abuja", "focus_area": "8", "lat": "9.057850", "type": "PPLC", "awardID": "00056776", "lon": "7.495080", "precision": "1", "focus_area_descr": "South-South"}, {"outputID": "00069703", "output_locID": "00069703-1", "name": "Abuja", "focus_area": "8", "lat": "9.057850", "type": "PPLC", "awardID": "00056776", "lon": "7.495080", "precision": "1", "focus_area_descr": "South-South"}, {"outputID": "00069705", "output_locID": "00069705-1", "name": "Abuja", "focus_area": "8", "lat": "9.057850", "type": "PPLC", "awardID": "00056776", "lon": "7.495080", "precision": "1", "focus_area_descr": "South-South"}, {"outputID": "00071738", "output_locID": "00071738-1", "name": "Abuja", "focus_area": "8", "lat": "9.057850", "type": "PPLC", "awardID": "00056776", "lon": "7.495080", "precision": "1", "focus_area_descr": "South-South"}, {"outputID": "00069706", "output_locID": "00069706-1", "name": "Abuja", "focus_area": "8", "lat": "9.06853", "type": "PPLC", "awardID": "00056776", "lon": "7.48375", "precision": "3", "focus_area_descr": "South-South"}, {"outputID": "00069704", "output_locID": "00069704-1", "name": "Abuja", "focus_area": "8", "lat": "9.06853", "type": "PPLC", "awardID": "00056776", "lon": "7.48375", "precision": "3", "focus_area_descr": "South-South"}]}, {"title": "environmental resources and risks", "id": "00056740", "subnational": [{"outputID": "00069614", "output_locID": "00069614-1", "name": "Tyorngurum", "focus_area": "1", "lat": "7.123900", "type": "PPL", "awardID": "00056740", "lon": "8.633300", "precision": "1", "focus_area_descr": "Inclusive & Sustainable Growth"}, {"outputID": "00069913", "output_locID": "00069913-1", "name": "Sokoto", "focus_area": "1", "lat": "13.060920", "type": "PPLA", "awardID": "00056740", "lon": "5.239020", "precision": "1", "focus_area_descr": "Inclusive & Sustainable Growth"}, {"outputID": "00084352", "output_locID": "00084352-1", "name": "Federal Republic of Nigeria", "focus_area": "1", "lat": "10.000000", "type": "PCLI", "awardID": "00056740", "lon": "8.000000", "precision": "1", "focus_area_descr": "Inclusive & Sustainable Growth"}, {"outputID": "00069914", "output_locID": "00069914-1", "name": "Ugwan Shakidi", "focus_area": "1", "lat": "10.885980", "type": "PPL", "awardID": "00056740", "lon": "4.409940", "precision": "1", "focus_area_descr": "Inclusive & Sustainable Growth"}, {"outputID": "00070780", "output_locID": "00070780-1", "name": "Eruwa", "focus_area": "-", "lat": "7.55", "type": "PPL", "awardID": "00056740", "lon": "3.43333", "precision": "3", "focus_area_descr": "-"}]}, {"title": "capacity for governance programme & conflict management", "id": "00056855", "subnational": [{"outputID": "00069949", "output_locID": "00069949-1", "name": "Federal Republic of Nigeria", "focus_area": "2", "lat": "10.000000", "type": "PCLI", "awardID": "00056855", "lon": "8.000000", "precision": "1", "focus_area_descr": "Democratic Governance"}, {"outputID": "00069950", "output_locID": "00069950-1", "name": "Osonde", "focus_area": "2", "lat": "7.183330", "type": "PPL", "awardID": "00056855", "lon": "3.933330", "precision": "1", "focus_area_descr": "Democratic Governance"}, {"outputID": "00069956", "output_locID": "00069956-1", "name": "Federal Republic of Nigeria", "focus_area": "5", "lat": "10.000000", "type": "PCLI", "awardID": "00056855", "lon": "8.000000", "precision": "1", "focus_area_descr": "Climate Change & Disaster Resilience"}, {"outputID": "00069954", "output_locID": "00069954-1", "name": "Ifedayo Local Government Area", "focus_area": "5", "lat": "7.977630", "type": "ADM2", "awardID": "00056855", "lon": "4.988920", "precision": "1", "focus_area_descr": "Climate Change & Disaster Resilience"}, {"outputID": "00069951", "output_locID": "00069951-1", "name": "Gombe", "focus_area": "2", "lat": "10.289690", "type": "PPLA", "awardID": "00056855", "lon": "11.167290", "precision": "1", "focus_area_descr": "Democratic Governance"}, {"outputID": "00070730", "output_locID": "00070730-1", "name": "Federal Republic of Nigeria", "focus_area": "3", "lat": "10.000000", "type": "PCLI", "awardID": "00056855", "lon": "8.000000", "precision": "1", "focus_area_descr": "Responsive Institutions"}, {"outputID": "00082221", "output_locID": "00082221-1", "name": "Federal Republic of Nigeria", "focus_area": "5", "lat": "10.000000", "type": "PCLI", "awardID": "00056855", "lon": "8.000000", "precision": "1", "focus_area_descr": "Climate Change & Disaster Resilience"}, {"outputID": "00071836", "output_locID": "00071836-1", "name": "Nigeria", "focus_area": "2", "lat": "10", "type": "PCL", "awardID": "00056855", "lon": "8", "precision": "9", "focus_area_descr": "Democratic Governance"}, {"outputID": "00077647", "output_locID": "00077647-1", "name": "Nigeria", "focus_area": "2", "lat": "10", "type": "PCL", "awardID": "00056855", "lon": "8", "precision": "9", "focus_area_descr": "Democratic Governance"}, {"outputID": "00069955", "output_locID": "00069955-1", "name": "Nigeria", "focus_area": "-", "lat": "10", "type": "PCL", "awardID": "00056855", "lon": "8", "precision": "9", "focus_area_descr": "-"}]}, {"title": "support to 2007 election obsevation mission for nigeria", "id": "00046519", "subnational": [{"outputID": "00055471", "output_locID": "00055471-1", "name": "Federal Republic of Nigeria", "focus_area": "-", "lat": "10.000000", "type": "PCLI", "awardID": "00046519", "lon": "8.000000", "precision": "1", "focus_area_descr": "-"}]}, {"title": "nigeria redd+ readiness programme", "id": "00067494", "subnational": [{"outputID": "00083230", "output_locID": "00083230-1", "name": "Federal Republic of Nigeria", "focus_area": "1", "lat": "10.000000", "type": "PCLI", "awardID": "00067494", "lon": "8.000000", "precision": "1", "focus_area_descr": "Inclusive & Sustainable Growth"}]}, {"title": "chemicals management phase vi (nir/sev/62/ins/130)", "id": "00061553", "subnational": [{"outputID": "00078028", "output_locID": "00078028-1", "name": "Minna", "focus_area": "1", "lat": "9.613890", "type": "PPLA", "awardID": "00061553", "lon": "6.556940", "precision": "1", "focus_area_descr": "Inclusive & Sustainable Growth"}]}, {"title": "hydrocholrofluorocarbon phase out  management plan", "id": "00061826", "subnational": [{"outputID": "00078785", "output_locID": "00078785-1", "name": "Federal Republic of Nigeria", "focus_area": "1", "lat": "10.000000", "type": "PCLI", "awardID": "00061826", "lon": "8.000000", "precision": "1", "focus_area_descr": "Inclusive & Sustainable Growth"}]}, {"title": "pims 2047 -niger delta biodiversity conservation project", "id": "00061066", "subnational": [{"outputID": "00077181", "output_locID": "00077181-1", "name": "Federal Republic of Nigeria", "focus_area": "1", "lat": "10.000000", "type": "PCLI", "awardID": "00061066", "lon": "8.000000", "precision": "1", "focus_area_descr": "Inclusive & Sustainable Growth"}]}, {"title": "governance & peace building", "id": "00074071", "subnational": [{"outputID": "00087018", "output_locID": "00087018-1", "name": "Federal Republic of Nigeria", "focus_area": "5", "lat": "10.000000", "type": "PCLI", "awardID": "00074071", "lon": "8.000000", "precision": "1", "focus_area_descr": "Climate Change & Disaster Resilience"}, {"outputID": "00086688", "output_locID": "00086688-1", "name": "Federal Republic of Nigeria", "focus_area": "2", "lat": "10.000000", "type": "PCLI", "awardID": "00074071", "lon": "8.000000", "precision": "1", "focus_area_descr": "Democratic Governance"}, {"outputID": "00086630", "output_locID": "00086630-1", "name": "Federal Republic of Nigeria", "focus_area": "3", "lat": "10.000000", "type": "PCLI", "awardID": "00074071", "lon": "8.000000", "precision": "1", "focus_area_descr": "Responsive Institutions"}]}, {"title": "4221: less burnt for a clean earth (fsp)", "id": "00059851", "subnational": [{"outputID": "00075041", "output_locID": "00075041-1", "name": "Federal Republic of Nigeria", "focus_area": "1", "lat": "10.000000", "type": "PCLI", "awardID": "00059851", "lon": "8.000000", "precision": "1", "focus_area_descr": "Inclusive & Sustainable Growth"}]}, {"title": "ppg: sustainable fuelwood management in nigeria", "id": "00081911", "subnational": []}, {"title": "strengthening the capacity of west africa peace support", "id": "00079882", "subnational": []}, {"title": "eu support to ecowas reg. peace sec. & stability mandate", "id": "00082508", "subnational": []}, {"title": "towards a sustainable development path", "id": "00078891", "subnational": []}, {"title": "equitable and sustainable economic growth", "id": "00078979", "subnational": []}, {"title": "good governance & peace building", "id": "00078949", "subnational": []}, {"title": "ppg: promoting low carbon energy solutions in nigeria", "id": "00076333", "subnational": []}, {"title": "election observation mission", "id": "00014089", "subnational": []}, {"title": "poverty reduction support programme", "id": "00036908", "subnational": [{"outputID": "00059869", "output_locID": "00059869-1", "name": "Sokoto", "focus_area": "1", "lat": "8.450000", "type": "PPL", "awardID": "00036908", "lon": "4.433330", "precision": "1", "focus_area_descr": "Inclusive & Sustainable Growth"}]}, {"title": "enugu state poverty reduction programme", "id": "00040190", "subnational": []}, {"title": "cross river poverty reduction programme", "id": "00040234", "subnational": []}, {"title": "projet des villages du mill\u00e9naire (mv1) - senegal", "id": "00043328", "subnational": [{"outputID": "00050512", "output_locID": "00050512-1", "name": "Federal Republic of Nigeria", "focus_area": "1", "lat": "10.000000", "type": "PCLI", "awardID": "00043328", "lon": "8.000000", "precision": "1", "focus_area_descr": "Inclusive & Sustainable Growth"}, {"outputID": "00050515", "output_locID": "00050515-1", "name": "Republic of Uganda", "focus_area": "1", "lat": "1.250000", "type": "PCLI", "awardID": "00043328", "lon": "32.500000", "precision": "1", "focus_area_descr": "Inclusive & Sustainable Growth"}]}, {"title": "economic governance programme", "id": "00056741", "subnational": [{"outputID": "00069699", "output_locID": "00069699-1", "name": "Colare Potiskum", "focus_area": "1", "lat": "11.094160", "type": "PPL", "awardID": "00056741", "lon": "11.532460", "precision": "1", "focus_area_descr": "Inclusive & Sustainable Growth"}, {"outputID": "00069618", "output_locID": "00069618-1", "name": "Federal Republic of Nigeria", "focus_area": "1", "lat": "10.000000", "type": "PCLI", "awardID": "00056741", "lon": "8.000000", "precision": "1", "focus_area_descr": "Inclusive & Sustainable Growth"}, {"outputID": "00069697", "output_locID": "00069697-1", "name": "Damaturu", "focus_area": "1", "lat": "11.746970", "type": "PPLA", "awardID": "00056741", "lon": "11.960830", "precision": "1", "focus_area_descr": "Inclusive & Sustainable Growth"}, {"outputID": "00069617", "output_locID": "00069617-1", "name": "Federal Republic of Nigeria", "focus_area": "1", "lat": "10.000000", "type": "PCLI", "awardID": "00056741", "lon": "8.000000", "precision": "1", "focus_area_descr": "Inclusive & Sustainable Growth"}, {"outputID": "00069696", "output_locID": "00069696-1", "name": "Nigeria", "focus_area": "1", "lat": "10", "type": "PCL", "awardID": "00056741", "lon": "8", "precision": "9", "focus_area_descr": "Inclusive & Sustainable Growth"}, {"outputID": "00069698", "output_locID": "00069698-1", "name": "Bama", "focus_area": "1", "lat": "11.5221", "type": "PPL", "awardID": "00056741", "lon": "13.68558", "precision": "3", "focus_area_descr": "Inclusive & Sustainable Growth"}]}, {"title": "governance of the country response to hiv & aids", "id": "00056766", "subnational": [{"outputID": "00069687", "output_locID": "00069687-1", "name": "Abuja", "focus_area": "1", "lat": "9.057850", "type": "PPLC", "awardID": "00056766", "lon": "7.495080", "precision": "1", "focus_area_descr": "Inclusive & Sustainable Growth"}, {"outputID": "00069686", "output_locID": "00069686-1", "name": "Abuja", "focus_area": "1", "lat": "9.057850", "type": "PPLC", "awardID": "00056766", "lon": "7.495080", "precision": "1", "focus_area_descr": "Inclusive & Sustainable Growth"}, {"outputID": "00087434", "output_locID": "00087434-1", "name": "Nigeria", "focus_area": "1", "lat": "10", "type": "PCL", "awardID": "00056766", "lon": "8", "precision": "9", "focus_area_descr": "Inclusive & Sustainable Growth"}, {"outputID": "00069688", "output_locID": "00069688-1", "name": "Abuja", "focus_area": "-", "lat": "9.06853", "type": "PPLC", "awardID": "00056766", "lon": "7.48375", "precision": "3", "focus_area_descr": "-"}]}, {"title": "capacity development project for successful cpap impleme", "id": "00058226", "subnational": [{"outputID": "00072251", "output_locID": "00072251-1", "name": "Akure", "focus_area": "3", "lat": "7.252560", "type": "PPLA", "awardID": "00058226", "lon": "5.193120", "precision": "1", "focus_area_descr": "Responsive Institutions"}]}, {"title": "support to strengthen wa peace support operations", "id": "00059641", "subnational": [{"outputID": "00074660", "output_locID": "00074660-1", "name": "Yola Mbodewa", "focus_area": "5", "lat": "8.480500", "type": "PPL", "awardID": "00059641", "lon": "10.564150", "precision": "1", "focus_area_descr": "Climate Change & Disaster Resilience"}]}, {"title": "pims 4122 nigeria: promoting energy efficiency", "id": "00060200", "subnational": [{"outputID": "00075698", "output_locID": "00075698-1", "name": "Federal Republic of Nigeria", "focus_area": "1", "lat": "10.000000", "type": "PCLI", "awardID": "00060200", "lon": "8.000000", "precision": "1", "focus_area_descr": "Inclusive & Sustainable Growth"}]}, {"title": "territorial approach to climate change", "id": "00060294", "subnational": [{"outputID": "00075853", "output_locID": "00075853-1", "name": "Bidawa", "focus_area": "1", "lat": "13.387380", "type": "PPL", "awardID": "00060294", "lon": "13.222350", "precision": "1", "focus_area_descr": "Inclusive & Sustainable Growth"}]}, {"title": "extension of institutional strengthening project vii", "id": "00073459", "subnational": [{"outputID": "00086252", "output_locID": "00086252-1", "name": "Federal Republic of Nigeria", "focus_area": "1", "lat": "10.000000", "type": "PCLI", "awardID": "00073459", "lon": "8.000000", "precision": "1", "focus_area_descr": "Inclusive & Sustainable Growth"}]}, {"title": "africa adaptation program ngr (aap pims 4374  fullnga)", "id": "00060087", "subnational": [{"outputID": "00075472", "output_locID": "00075472-1", "name": "Okene", "focus_area": "5", "lat": "7.44982", "type": "ADM2", "awardID": "00060087", "lon": "6.32209", "precision": "3", "focus_area_descr": "Climate Change & Disaster Resilience"}]}, {"title": "governance and human rights", "id": "00037239", "subnational": [{"outputID": "00051459", "output_locID": "00051459-1", "name": "Damaturu", "focus_area": "2", "lat": "11.747", "type": "PPL", "awardID": "00037239", "lon": "11.9608", "precision": "3", "focus_area_descr": "Democratic Governance"}]}, {"title": "mainstreaming smc issues into mdg based planning", "id": "00064798", "subnational": [{"outputID": "00081433", "output_locID": "00081433-1", "name": "Nigeria", "focus_area": "5", "lat": "10", "type": "PCL", "awardID": "00064798", "lon": "8", "precision": "9", "focus_area_descr": "Climate Change & Disaster Resilience"}]}, {"title": "phase-out plan for elimination of cfcs in nigeria", "id": "00014090", "subnational": [{"outputID": "00014090", "output_locID": "00014090-1", "name": "Nigeria", "focus_area": "5", "lat": "10", "type": "PCL", "awardID": "00014090", "lon": "8", "precision": "9", "focus_area_descr": "Climate Change & Disaster Resilience"}]}, {"title": "second communication to climate change convention", "id": "00037453", "subnational": [{"outputID": "00040987", "output_locID": "00040987-1", "name": "Nigeria", "focus_area": "5", "lat": "10", "type": "PCL", "awardID": "00037453", "lon": "8", "precision": "9", "focus_area_descr": "Climate Change & Disaster Resilience"}]}, {"title": "tourism master plan", "id": "00036050", "subnational": [{"outputID": "00038988", "output_locID": "00038988-1", "name": "Eruwa", "focus_area": "5", "lat": "7.55", "type": "PPL", "awardID": "00036050", "lon": "3.43333", "precision": "3", "focus_area_descr": "Climate Change & Disaster Resilience"}]}, {"title": "adamawa state -effective communication strategy", "id": "00039663", "subnational": []}, {"title": "communication to the unfccc", "id": "00014067", "subnational": []}, {"title": "gma awards", "id": "00041674", "subnational": [{"outputID": "00047621", "output_locID": "00047621-1", "name": "Nigeria", "focus_area": "-", "lat": "10", "type": "PCL", "awardID": "00041674", "lon": "8", "precision": "9", "focus_area_descr": "-"}]}, {"title": "mdgs promotion", "id": "00041540", "subnational": []}, {"title": "niger state energy and environment programme", "id": "00038408", "subnational": []}, {"title": "niger-delta local governance programme", "id": "00045173", "subnational": [{"outputID": "00053305", "output_locID": "00053305-1", "name": "Sagamu", "focus_area": "-", "lat": "6.84323", "type": "PPL", "awardID": "00045173", "lon": "3.64776", "precision": "3", "focus_area_descr": "-"}]}, {"title": "nigerian diaspora trust fund", "id": "00036231", "subnational": [{"outputID": "00039276", "output_locID": "00039276-1", "name": "Shaki", "focus_area": "-", "lat": "8.66667", "type": "PPL", "awardID": "00036231", "lon": "3.38333", "precision": "3", "focus_area_descr": "-"}]}, {"title": "ondo state governance and human rights project", "id": "00038492", "subnational": [{"outputID": "00046004", "output_locID": "00046004-1", "name": "Abuja", "focus_area": "-", "lat": "9.06853", "type": "PPLC", "awardID": "00038492", "lon": "7.48375", "precision": "3", "focus_area_descr": "-"}]}, {"title": "ondo state poverty reduction programme", "id": "00040031", "subnational": [{"outputID": "00052683", "output_locID": "00052683-1", "name": "Abuja", "focus_area": "-", "lat": "9.06853", "type": "PPLC", "awardID": "00040031", "lon": "7.48375", "precision": "3", "focus_area_descr": "-"}, {"outputID": "00052684", "output_locID": "00052684-1", "name": "Abuja", "focus_area": "-", "lat": "9.06853", "type": "PPLC", "awardID": "00040031", "lon": "7.48375", "precision": "3", "focus_area_descr": "-"}]}, {"title": "rivers state democratic culture & practice", "id": "00039642", "subnational": []}, {"title": "strategic planning and implementation to address hiv&aid", "id": "00050719", "subnational": [{"outputID": "00062775", "output_locID": "00062775-1", "name": "Nigeria", "focus_area": "-", "lat": "10", "type": "PCL", "awardID": "00050719", "lon": "8", "precision": "9", "focus_area_descr": "-"}]}, {"title": "strengthening national pandemic preparedness in nigeria", "id": "00057262", "subnational": []}, {"title": "support to observance of idep in nigeria", "id": "00037553", "subnational": []}, {"title": "2005 procurement & capacity devpt support initiative", "id": "00041373", "subnational": []}, {"title": "abia state democratic culture & practice", "id": "00039636", "subnational": []}, {"title": "capacity for national prevention for ahi", "id": "00057699", "subnational": []}, {"title": "chemicals management phase v (nir/sev/54/ins/118)", "id": "00050843", "subnational": []}, {"title": "energy and environment programme", "id": "00036959", "subnational": []}, {"title": "gombe state poverty reduction programme", "id": "00040276", "subnational": []}, {"title": "hiv response joint programme in taraba state", "id": "00048054", "subnational": []}, {"title": "management plan", "id": "00038361", "subnational": []}, {"title": "national capacities for conflict management in nigeria", "id": "00046777", "subnational": []}, {"title": "nationally managed participatory development.", "id": "00014060", "subnational": []}, {"title": "ogun state energy and environment programme", "id": "00039695", "subnational": []}, {"title": "ogun state poverty reduction programme", "id": "00040280", "subnational": []}, {"title": "pims 2047  - niger delta conservation project", "id": "00058336", "subnational": []}, {"title": "political empowerment of women in nigeria", "id": "00043824", "subnational": []}, {"title": "rivers state poverty reduction programme", "id": "00040226", "subnational": []}, {"title": "the independent policy group project", "id": "00044976", "subnational": []}, {"title": "undp response to avian influenza crisis, nigeria", "id": "00044387", "subnational": []}, {"title": "undp response to fight hiv/aids", "id": "00037052", "subnational": []}], "op_unit": "NGA"}