{"iso_num":"566","op_unit":"NGA","projects":[{"id":"00059851","subnational":[{"awardID":"00059851","focus_area":"4","focus_area_descr":"Environment & sustainable development","lat":"10","lon":"8","name":"Nigeria","outputID":"00075041","precision":"9","type":"PCL"}],"title":"4221: Less Burnt for A Clean Earth (FSP)"},{"id":"00060087","subnational":[{"awardID":"00060087","focus_area":"4","focus_area_descr":"Environment & sustainable development","lat":"7.44982","lon":"6.32209","name":"Okene","outputID":"00075472","precision":"9","type":"ADM2"}],"title":"Africa Adaptation Program NGR (AAP PIMS 4374  FullNGA)"},{"id":"00058226","subnational":[{"awardID":"00058226","focus_area":"1","focus_area_descr":"Poverty reduction & MDG achievement","lat":"7.25256","lon":"5.19312","name":"Akure","outputID":"00072251","precision":"9","type":"PPLA"}],"title":"Capacity Development Project for Successful CPAP Impleme"},{"id":"00056855","subnational":[{"awardID":"00056855","focus_area":"2","focus_area_descr":"Democratic governance","lat":"10","lon":"8","name":"Nigeria","outputID":"00069949","precision":"9","type":"PCL"},{"awardID":"00056855","focus_area":"2","focus_area_descr":"Democratic governance","lat":"7.93333","lon":"4.58333","name":"Onde","outputID":"00069950","precision":"9","type":"PPL"},{"awardID":"00056855","focus_area":"2","focus_area_descr":"Democratic governance","lat":"10.28969","lon":"11.16729","name":"Gombe","outputID":"00069951","precision":"9","type":"PPLA"},{"awardID":"00056855","focus_area":"3","focus_area_descr":"Crisis prevention & recovery","lat":"7.55","lon":"4.53333","name":"Ife","outputID":"00069954","precision":"9","type":"ADM2"},{"awardID":"00056855","focus_area":"3","focus_area_descr":"Crisis prevention & recovery","lat":"10","lon":"8","name":"Nigeria","outputID":"00069956","precision":"9","type":"PCL"},{"awardID":"00056855","focus_area":"2","focus_area_descr":"Democratic governance","lat":"10","lon":"8","name":"Nigeria","outputID":"00070730","precision":"9","type":"PCL"},{"awardID":"00056855","focus_area":"2","focus_area_descr":"Democratic governance","lat":"10","lon":"8","name":"Nigeria","outputID":"00071836","precision":"9","type":"PCL"},{"awardID":"00056855","focus_area":"2","focus_area_descr":"Democratic governance","lat":"10","lon":"8","name":"Nigeria","outputID":"00077647","precision":"9","type":"PCL"}],"title":"Capacity for Governance Programme & Conflict Management"},{"id":"00056741","subnational":[{"awardID":"00056741","focus_area":"1","focus_area_descr":"Poverty reduction & MDG achievement","lat":"10","lon":"8","name":"Nigeria","outputID":"00069617","precision":"9","type":"PCL"},{"awardID":"00056741","focus_area":"1","focus_area_descr":"Poverty reduction & MDG achievement","lat":"10","lon":"8","name":"Nigeria","outputID":"00069618","precision":"9","type":"PCL"},{"awardID":"00056741","focus_area":"1","focus_area_descr":"Poverty reduction & MDG achievement","lat":"11.747","lon":"11.9608","name":"Damaturu","outputID":"00069697","precision":"9","type":"PPLA"},{"awardID":"00056741","focus_area":"1","focus_area_descr":"Poverty reduction & MDG achievement","lat":"11.5221","lon":"13.68558","name":"Bama","outputID":"00069698","precision":"9","type":"PPL"},{"awardID":"00056741","focus_area":"1","focus_area_descr":"Poverty reduction & MDG achievement","lat":"11.7091","lon":"11.0694","name":"Potiskum","outputID":"00069699","precision":"9","type":"PPL"}],"title":"Economic Governance Programme"},{"id":"00056740","subnational":[{"awardID":"00056740","focus_area":"4","focus_area_descr":"Environment & sustainable development","lat":"12.8791","lon":"10.4526","name":"Nguru","outputID":"00069614","precision":"9","type":"PPL"},{"awardID":"00056740","focus_area":"4","focus_area_descr":"Environment & sustainable development","lat":"13.06092","lon":"5.23902","name":"Sokoto","outputID":"00069913","precision":"9","type":"PPLA"},{"awardID":"00056740","focus_area":"4","focus_area_descr":"Environment & sustainable development","lat":"8.66667","lon":"3.38333","name":"Shaki","outputID":"00069914","precision":"9","type":"PPL"}],"title":"Environmental Resources and Risks"},{"id":"00073459","subnational":[],"title":"Extension of Institutional Strengthening Project VII"},{"id":"00074071","subnational":[],"title":"GOVERNANCE & PEACE BUILDING"},{"id":"00037239","subnational":[{"awardID":"00037239","focus_area":"2","focus_area_descr":"Democratic governance","lat":"11.747","lon":"11.9608","name":"Damaturu","outputID":"00051459","precision":"9","type":"PPLA"}],"title":"Governance and Human Rights"},{"id":"00056766","subnational":[{"awardID":"00056766","focus_area":"1","focus_area_descr":"Poverty reduction & MDG achievement","lat":"9.06853","lon":"7.48375","name":"Abuja","outputID":"00069686","precision":"3","type":"PPLC"},{"awardID":"00056766","focus_area":"1","focus_area_descr":"Poverty reduction & MDG achievement","lat":"9.06853","lon":"7.48375","name":"Abuja","outputID":"00069687","precision":"3","type":"PPLC"}],"title":"Governance of the Country Response to HIV & AIDS"},{"id":"00061826","subnational":[{"awardID":"00061826","focus_area":"4","focus_area_descr":"Environment & sustainable development","lat":"10","lon":"8","name":"Nigeria","outputID":"00078785","precision":"9","type":"PCL"}],"title":"Hydrocholrofluorocarbon Phase out  Management Plan"},{"id":"00064798","subnational":[],"title":"Mainstreaming SMC Issues into MDG Based Planning"},{"id":"00067494","subnational":[],"title":"Nigeria REDD+ Readiness Programme"},{"id":"00014090","subnational":[],"title":"Phase-Out Plan For Elimination Of CFCs in Nigeria"},{"id":"00061066","subnational":[],"title":"PIMS 2047 - Niger Delta Biodiversity Programme"},{"id":"00060200","subnational":[],"title":"PIMS 4122 Nigeria: Promoting Energy Efficiency"},{"id":"00036908","subnational":[{"awardID":"00036908","focus_area":"1","focus_area_descr":"Poverty reduction & MDG achievement","lat":"13.06092","lon":"5.23902","name":"Sokoto","outputID":"00059869","precision":"9","type":"PPLA"}],"title":"Poverty Reduction Support Programme"},{"id":"00056776","subnational":[{"awardID":"00056776","focus_area":"1","focus_area_descr":"Poverty reduction & MDG achievement","lat":"9.06853","lon":"7.48375","name":"Abuja","outputID":"00069702","precision":"3","type":"PPLC"},{"awardID":"00056776","focus_area":"1","focus_area_descr":"Poverty reduction & MDG achievement","lat":"9.06853","lon":"7.48375","name":"Abuja","outputID":"00069703","precision":"3","type":"PPLC"},{"awardID":"00056776","focus_area":"1","focus_area_descr":"Poverty reduction & MDG achievement","lat":"9.06853","lon":"7.48375","name":"Abuja","outputID":"00069705","precision":"3","type":"PPLC"},{"awardID":"00056776","focus_area":"1","focus_area_descr":"Poverty reduction & MDG achievement","lat":"9.06853","lon":"7.48375","name":"Abuja","outputID":"00069706","precision":"3","type":"PPLC"},{"awardID":"00056776","focus_area":"1","focus_area_descr":"Poverty reduction & MDG achievement","lat":"9.06853","lon":"7.48375","name":"Abuja","outputID":"00071738","precision":"3","type":"PPLC"}],"title":"Private Sector Develoment Programme"},{"id":"00037453","subnational":[{"awardID":"00037453","focus_area":"4","focus_area_descr":"Environment & sustainable development","lat":"10","lon":"8","name":"Nigeria","outputID":"00040987","precision":"9","type":"PCL"}],"title":"Second Communication to Climate Change Convention"},{"id":"00059641","subnational":[{"awardID":"00059641","focus_area":"3","focus_area_descr":"Crisis prevention & recovery","lat":"6.81609","lon":"3.91588","name":"Ode","outputID":"00074660","precision":"9","type":"PPL"}],"title":"Support to Strengthen WA Peace Support Operations"},{"id":"00060294","subnational":[{"awardID":"00060294","focus_area":"4","focus_area_descr":"Environment & sustainable development","lat":"9.08333","lon":"6.01667","name":"Bida","outputID":"00075853","precision":"9","type":"PPL"}],"title":"Territorial Approach to Climate Change"},{"id":"00036050","subnational":[{"awardID":"00036050","focus_area":"4","focus_area_descr":"Environment & sustainable development","lat":"7.55","lon":"3.43333","name":"Eruwa","outputID":"00038988","precision":"9","type":"PPL"}],"title":"TOURISM MASTER PLAN"}]}