{"iso_num": null, "projects": [{"title": "apoyo a agencia de promoci\u00f3n inversiones y exportaciones", "id": "00014029", "subnational": [{"outputID": "00062736", "output_locID": "00062736-1", "name": "Nicaragua", "focus_area": "1", "lat": "13.000000", "type": "PCLI", "awardID": "00014029", "lon": "-85.000000", "precision": "1", "focus_area_descr": "Inclusive & Sustainable Growth"}, {"outputID": "00086106", "output_locID": "00086106-1", "name": "Nicaragua", "focus_area": "1", "lat": "13.000000", "type": "PCLI", "awardID": "00014029", "lon": "-85.000000", "precision": "1", "focus_area_descr": "Inclusive & Sustainable Growth"}, {"outputID": "00078896", "output_locID": "00078896-1", "name": "Nicaragua", "focus_area": "-", "lat": "13", "type": "PCL", "awardID": "00014029", "lon": "-85", "precision": "9", "focus_area_descr": "-"}]}, {"title": "promoci\u00f3n de un transporte ambientalmente sostenible", "id": "00048774", "subnational": [{"outputID": "00059044", "output_locID": "00059044-1", "name": "Managua", "focus_area": "1", "lat": "12.132820", "type": "PPLC", "awardID": "00048774", "lon": "-86.250400", "precision": "1", "focus_area_descr": "Inclusive & Sustainable Growth"}]}, {"title": "programa desarrollo humano de nicaragua", "id": "00050197", "subnational": [{"outputID": "00061874", "output_locID": "00061874-1", "name": "Nicaragua", "focus_area": "7", "lat": "13.000000", "type": "PCLI", "awardID": "00050197", "lon": "-85.000000", "precision": "1", "focus_area_descr": "Development Impact & Effectiveness"}, {"outputID": "00077118", "output_locID": "00077118-1", "name": "Nicaragua", "focus_area": "1", "lat": "13", "type": "PCL", "awardID": "00050197", "lon": "-85", "precision": "9", "focus_area_descr": "Inclusive & Sustainable Growth"}, {"outputID": "00061912", "output_locID": "00061912-1", "name": "Nicaragua", "focus_area": "-", "lat": "13", "type": "PCL", "awardID": "00050197", "lon": "-85", "precision": "9", "focus_area_descr": "-"}]}, {"title": "desarrollo hidroelectricidad a peque\u00f1a escala fase ii", "id": "00059154", "subnational": [{"outputID": "00073889", "output_locID": "00073889-1", "name": "RAAN", "focus_area": "1", "lat": "14.000000", "type": "ADM1", "awardID": "00059154", "lon": "-84.250000", "precision": "1", "focus_area_descr": "Inclusive & Sustainable Growth"}]}, {"title": "programa sistema de informacion seguridad alimentaria", "id": "00059357", "subnational": [{"outputID": "00079813", "output_locID": "00079813-1", "name": "Nicaragua", "focus_area": "7", "lat": "13.000000", "type": "PCLI", "awardID": "00059357", "lon": "-85.000000", "precision": "1", "focus_area_descr": "Development Impact & Effectiveness"}, {"outputID": "00074200", "output_locID": "00074200-1", "name": "Nicaragua", "focus_area": "7", "lat": "13.000000", "type": "PCLI", "awardID": "00059357", "lon": "-85.000000", "precision": "1", "focus_area_descr": "Development Impact & Effectiveness"}]}, {"title": "reducci\u00f3n de riesgos y vulnerabilidad", "id": "00059776", "subnational": [{"outputID": "00074925", "output_locID": "00074925-1", "name": "Municipio de El Sauce", "focus_area": "1", "lat": "12.900000", "type": "ADMD", "awardID": "00059776", "lon": "-86.500000", "precision": "1", "focus_area_descr": "Inclusive & Sustainable Growth"}]}, {"title": "programa regional  de seguridad alimentaria fase ii", "id": "00059913", "subnational": [{"outputID": "00080159", "output_locID": "00080159-1", "name": "Nicaragua", "focus_area": "1", "lat": "13.000000", "type": "PCLI", "awardID": "00059913", "lon": "-85.000000", "precision": "1", "focus_area_descr": "Inclusive & Sustainable Growth"}, {"outputID": "00075161", "output_locID": "00075161-1", "name": "Nicaragua", "focus_area": "1", "lat": "13.000000", "type": "PCLI", "awardID": "00059913", "lon": "-85.000000", "precision": "1", "focus_area_descr": "Inclusive & Sustainable Growth"}]}, {"title": "programa de apoyo a la integraci\u00f3n regional fase ii", "id": "00060676", "subnational": [{"outputID": "00076505", "output_locID": "00076505-1", "name": "Nicaragua", "focus_area": "2", "lat": "13.000000", "type": "PCLI", "awardID": "00060676", "lon": "-85.000000", "precision": "1", "focus_area_descr": "Democratic Governance"}]}, {"title": "enfoque territorial contra el cambio clim\u00e1tico", "id": "00063593", "subnational": [{"outputID": "00080595", "output_locID": "00080595-1", "name": "Somoto", "focus_area": "1", "lat": "13.480820", "type": "PPLA", "awardID": "00063593", "lon": "-86.582080", "precision": "1", "focus_area_descr": "Inclusive & Sustainable Growth"}, {"outputID": "00080595", "output_locID": "00080595-2", "name": "Departamento de Madriz", "focus_area": "1", "lat": "13.500000", "type": "ADM1", "awardID": "00063593", "lon": "-86.416670", "precision": "1", "focus_area_descr": "Inclusive & Sustainable Growth"}, {"outputID": "00080595", "output_locID": "00080595-3", "name": "Macuelizo", "focus_area": "1", "lat": "13.653280", "type": "PPL", "awardID": "00063593", "lon": "-86.612970", "precision": "1", "focus_area_descr": "Inclusive & Sustainable Growth"}, {"outputID": "00080595", "output_locID": "00080595-4", "name": "Departamento de Nueva Segovia", "focus_area": "1", "lat": "13.700000", "type": "ADM1", "awardID": "00063593", "lon": "-86.166670", "precision": "1", "focus_area_descr": "Inclusive & Sustainable Growth"}, {"outputID": "00080595", "output_locID": "00080595-5", "name": "Municipio de Santa Mar\u00eda de Pantasma", "focus_area": "1", "lat": "13.196430", "type": "ADM2", "awardID": "00063593", "lon": "-85.826870", "precision": "1", "focus_area_descr": "Inclusive & Sustainable Growth"}, {"outputID": "00080595", "output_locID": "00080595-6", "name": "Mozonte", "focus_area": "1", "lat": "13.660340", "type": "PPL", "awardID": "00063593", "lon": "-86.438410", "precision": "1", "focus_area_descr": "Inclusive & Sustainable Growth"}, {"outputID": "00080595", "output_locID": "00080595-7", "name": "San Lucas", "focus_area": "1", "lat": "13.413800", "type": "PPL", "awardID": "00063593", "lon": "-86.611100", "precision": "1", "focus_area_descr": "Inclusive & Sustainable Growth"}, {"outputID": "00080595", "output_locID": "00080595-8", "name": "Telpaneca", "focus_area": "1", "lat": "13.531660", "type": "PPL", "awardID": "00063593", "lon": "-86.287100", "precision": "1", "focus_area_descr": "Inclusive & Sustainable Growth"}, {"outputID": "00080595", "output_locID": "00080595-9", "name": "Estel\u00ed", "focus_area": "1", "lat": "13.091850", "type": "PPLA", "awardID": "00063593", "lon": "-86.353840", "precision": "1", "focus_area_descr": "Inclusive & Sustainable Growth"}, {"outputID": "00080595", "output_locID": "00080595-10", "name": "Ocotal", "focus_area": "1", "lat": "13.632080", "type": "PPLA", "awardID": "00063593", "lon": "-86.475160", "precision": "1", "focus_area_descr": "Inclusive & Sustainable Growth"}]}, {"title": "programa apoyo integral desarrollo de h\u00e1bitat sostenible", "id": "00066306", "subnational": [{"outputID": "00082509", "output_locID": "00082509-1", "name": "Departamento de Matagalpa", "focus_area": "1", "lat": "12.916670", "type": "ADM1", "awardID": "00066306", "lon": "-85.666670", "precision": "1", "focus_area_descr": "Inclusive & Sustainable Growth"}, {"outputID": "00082509", "output_locID": "00082509-2", "name": "Posoltega", "focus_area": "1", "lat": "12.544810", "type": "PPL", "awardID": "00066306", "lon": "-86.979920", "precision": "1", "focus_area_descr": "Inclusive & Sustainable Growth"}, {"outputID": "00082509", "output_locID": "00082509-3", "name": "La Trinidad", "focus_area": "1", "lat": "12.968820", "type": "PPL", "awardID": "00066306", "lon": "-86.235340", "precision": "1", "focus_area_descr": "Inclusive & Sustainable Growth"}, {"outputID": "00082509", "output_locID": "00082509-4", "name": "La Libertad", "focus_area": "1", "lat": "12.216350", "type": "PPL", "awardID": "00066306", "lon": "-85.165950", "precision": "1", "focus_area_descr": "Inclusive & Sustainable Growth"}, {"outputID": "00082509", "output_locID": "00082509-5", "name": "Kukra Hill", "focus_area": "1", "lat": "12.240960", "type": "PPL", "awardID": "00066306", "lon": "-83.745170", "precision": "1", "focus_area_descr": "Inclusive & Sustainable Growth"}, {"outputID": "00082509", "output_locID": "00082509-6", "name": "Departamento de Granada", "focus_area": "1", "lat": "11.833330", "type": "ADM1", "awardID": "00066306", "lon": "-85.916670", "precision": "1", "focus_area_descr": "Inclusive & Sustainable Growth"}, {"outputID": "00082509", "output_locID": "00082509-7", "name": "Somoto", "focus_area": "1", "lat": "13.480820", "type": "PPLA", "awardID": "00066306", "lon": "-86.582080", "precision": "1", "focus_area_descr": "Inclusive & Sustainable Growth"}, {"outputID": "00082509", "output_locID": "00082509-8", "name": "San Jorge", "focus_area": "1", "lat": "11.455840", "type": "PPL", "awardID": "00066306", "lon": "-85.803080", "precision": "1", "focus_area_descr": "Inclusive & Sustainable Growth"}, {"outputID": "00082509", "output_locID": "00082509-9", "name": "San Carlos", "focus_area": "1", "lat": "11.123600", "type": "PPLA", "awardID": "00066306", "lon": "-84.777950", "precision": "1", "focus_area_descr": "Inclusive & Sustainable Growth"}, {"outputID": "00082509", "output_locID": "00082509-10", "name": "Rama Cay", "focus_area": "1", "lat": "11.881110", "type": "PPL", "awardID": "00066306", "lon": "-83.808740", "precision": "1", "focus_area_descr": "Inclusive & Sustainable Growth"}, {"outputID": "00082509", "output_locID": "00082509-11", "name": "Dipilto", "focus_area": "1", "lat": "13.722320", "type": "PPL", "awardID": "00066306", "lon": "-86.507610", "precision": "1", "focus_area_descr": "Inclusive & Sustainable Growth"}, {"outputID": "00082509", "output_locID": "00082509-12", "name": "Corn Island", "focus_area": "1", "lat": "12.169430", "type": "PPL", "awardID": "00066306", "lon": "-83.041760", "precision": "1", "focus_area_descr": "Inclusive & Sustainable Growth"}, {"outputID": "00082509", "output_locID": "00082509-13", "name": "Departamento de Estel\u00ed", "focus_area": "1", "lat": "13.166670", "type": "ADM1", "awardID": "00066306", "lon": "-86.333330", "precision": "1", "focus_area_descr": "Inclusive & Sustainable Growth"}, {"outputID": "00082509", "output_locID": "00082509-14", "name": "El Tuma", "focus_area": "1", "lat": "13.061960", "type": "PPL", "awardID": "00066306", "lon": "-85.744930", "precision": "1", "focus_area_descr": "Inclusive & Sustainable Growth"}, {"outputID": "00082509", "output_locID": "00082509-15", "name": "Corinto", "focus_area": "1", "lat": "12.481990", "type": "PPL", "awardID": "00066306", "lon": "-87.173360", "precision": "1", "focus_area_descr": "Inclusive & Sustainable Growth"}, {"outputID": "00082509", "output_locID": "00082509-16", "name": "Departamento de Chinandega", "focus_area": "1", "lat": "12.833330", "type": "ADM1", "awardID": "00066306", "lon": "-87.083330", "precision": "1", "focus_area_descr": "Inclusive & Sustainable Growth"}, {"outputID": "00082509", "output_locID": "00082509-17", "name": "Pantasma", "focus_area": "1", "lat": "13.348090", "type": "PPL", "awardID": "00066306", "lon": "-85.944510", "precision": "1", "focus_area_descr": "Inclusive & Sustainable Growth"}, {"outputID": "00082509", "output_locID": "00082509-18", "name": "Nicaragua", "focus_area": "1", "lat": "13.000000", "type": "PCLI", "awardID": "00066306", "lon": "-85.000000", "precision": "1", "focus_area_descr": "Inclusive & Sustainable Growth"}, {"outputID": "00082509", "output_locID": "00082509-19", "name": "Telpaneca", "focus_area": "1", "lat": "13.531660", "type": "PPL", "awardID": "00066306", "lon": "-86.287100", "precision": "1", "focus_area_descr": "Inclusive & Sustainable Growth"}, {"outputID": "00082509", "output_locID": "00082509-20", "name": "Chichigalpa", "focus_area": "1", "lat": "12.577580", "type": "PPL", "awardID": "00066306", "lon": "-87.027050", "precision": "1", "focus_area_descr": "Inclusive & Sustainable Growth"}, {"outputID": "00082509", "output_locID": "00082509-21", "name": "Somotillo", "focus_area": "1", "lat": "13.043280", "type": "PPL", "awardID": "00066306", "lon": "-86.906450", "precision": "1", "focus_area_descr": "Inclusive & Sustainable Growth"}, {"outputID": "00082509", "output_locID": "00082509-22", "name": "San Rafael del Sur", "focus_area": "1", "lat": "11.848540", "type": "PPL", "awardID": "00066306", "lon": "-86.438390", "precision": "1", "focus_area_descr": "Inclusive & Sustainable Growth"}, {"outputID": "00082509", "output_locID": "00082509-23", "name": "Villa Sandino", "focus_area": "1", "lat": "12.048300", "type": "PPL", "awardID": "00066306", "lon": "-84.993620", "precision": "1", "focus_area_descr": "Inclusive & Sustainable Growth"}, {"outputID": "00082509", "output_locID": "00082509-24", "name": "Malpaisillo", "focus_area": "1", "lat": "12.593740", "type": "PPL", "awardID": "00066306", "lon": "-86.679520", "precision": "1", "focus_area_descr": "Inclusive & Sustainable Growth"}, {"outputID": "00082509", "output_locID": "00082509-25", "name": "Montelimar", "focus_area": "1", "lat": "11.817880", "type": "PPL", "awardID": "00066306", "lon": "-86.515570", "precision": "1", "focus_area_descr": "Inclusive & Sustainable Growth"}]}, {"title": "gesti\u00f3n integral y sostenible de residuos s\u00f3lidos", "id": "00068773", "subnational": [{"outputID": "00083754", "output_locID": "00083754-1", "name": "Municipio de Bluefields", "focus_area": "1", "lat": "12.000000", "type": "ADMD", "awardID": "00068773", "lon": "-84.166670", "precision": "1", "focus_area_descr": "Inclusive & Sustainable Growth"}, {"outputID": "00083754", "output_locID": "00083754-2", "name": "Corn Island", "focus_area": "1", "lat": "12.169430", "type": "PPL", "awardID": "00068773", "lon": "-83.041760", "precision": "1", "focus_area_descr": "Inclusive & Sustainable Growth"}, {"outputID": "00083754", "output_locID": "00083754-3", "name": "Rama", "focus_area": "1", "lat": "12.159650", "type": "PPL", "awardID": "00068773", "lon": "-84.219520", "precision": "1", "focus_area_descr": "Inclusive & Sustainable Growth"}, {"outputID": "00086556", "output_locID": "00086556-1", "name": "Municipio de Bluefields", "focus_area": "1", "lat": "12.000000", "type": "ADMD", "awardID": "00068773", "lon": "-84.166670", "precision": "1", "focus_area_descr": "Inclusive & Sustainable Growth"}, {"outputID": "00086558", "output_locID": "00086558-1", "name": "Rama", "focus_area": "1", "lat": "12.159650", "type": "PPL", "awardID": "00068773", "lon": "-84.219520", "precision": "1", "focus_area_descr": "Inclusive & Sustainable Growth"}, {"outputID": "00086557", "output_locID": "00086557-1", "name": "Corn Island", "focus_area": "1", "lat": "12.169430", "type": "PPL", "awardID": "00068773", "lon": "-83.041760", "precision": "1", "focus_area_descr": "Inclusive & Sustainable Growth"}, {"outputID": "00086736", "output_locID": "00086736-1", "name": "Corn Island", "focus_area": "1", "lat": "12.169430", "type": "PPL", "awardID": "00068773", "lon": "-83.041760", "precision": "1", "focus_area_descr": "Inclusive & Sustainable Growth"}, {"outputID": "00086736", "output_locID": "00086736-2", "name": "Municipio de Bluefields", "focus_area": "1", "lat": "12.000000", "type": "ADMD", "awardID": "00068773", "lon": "-84.166670", "precision": "1", "focus_area_descr": "Inclusive & Sustainable Growth"}, {"outputID": "00086736", "output_locID": "00086736-3", "name": "Rama", "focus_area": "1", "lat": "12.159650", "type": "PPL", "awardID": "00068773", "lon": "-84.219520", "precision": "1", "focus_area_descr": "Inclusive & Sustainable Growth"}]}, {"title": "mejoramiento de prevencion y justicia", "id": "00068892", "subnational": [{"outputID": "00084365", "output_locID": "00084365-1", "name": "Departamento de Estel\u00ed", "focus_area": "4", "lat": "13.166670", "type": "ADM1", "awardID": "00068892", "lon": "-86.333330", "precision": "1", "focus_area_descr": "Gender Equality"}, {"outputID": "00084365", "output_locID": "00084365-2", "name": "Laguna de Perlas", "focus_area": "4", "lat": "12.342940", "type": "PPL", "awardID": "00068892", "lon": "-83.671230", "precision": "1", "focus_area_descr": "Gender Equality"}, {"outputID": "00084365", "output_locID": "00084365-3", "name": "Bilwi", "focus_area": "4", "lat": "14.035070", "type": "PPLA", "awardID": "00068892", "lon": "-83.388820", "precision": "1", "focus_area_descr": "Gender Equality"}, {"outputID": "00084365", "output_locID": "00084365-4", "name": "Somoto", "focus_area": "4", "lat": "13.480820", "type": "PPLA", "awardID": "00068892", "lon": "-86.582080", "precision": "1", "focus_area_descr": "Gender Equality"}, {"outputID": "00084365", "output_locID": "00084365-5", "name": "Municipio de Bluefields", "focus_area": "4", "lat": "12.000000", "type": "ADMD", "awardID": "00068892", "lon": "-84.166670", "precision": "1", "focus_area_descr": "Gender Equality"}, {"outputID": "00084365", "output_locID": "00084365-6", "name": "Departamento de Le\u00f3n", "focus_area": "4", "lat": "12.583330", "type": "ADM1", "awardID": "00068892", "lon": "-86.583330", "precision": "1", "focus_area_descr": "Gender Equality"}, {"outputID": "00084365", "output_locID": "00084365-7", "name": "Managua", "focus_area": "4", "lat": "12.132820", "type": "PPLC", "awardID": "00068892", "lon": "-86.250400", "precision": "1", "focus_area_descr": "Gender Equality"}, {"outputID": "00084334", "output_locID": "00084334-1", "name": "Somoto", "focus_area": "4", "lat": "13.480820", "type": "PPLA", "awardID": "00068892", "lon": "-86.582080", "precision": "1", "focus_area_descr": "Gender Equality"}, {"outputID": "00084334", "output_locID": "00084334-2", "name": "Bilwi", "focus_area": "4", "lat": "14.035070", "type": "PPLA", "awardID": "00068892", "lon": "-83.388820", "precision": "1", "focus_area_descr": "Gender Equality"}, {"outputID": "00084334", "output_locID": "00084334-3", "name": "Laguna de Perlas", "focus_area": "4", "lat": "12.342940", "type": "PPL", "awardID": "00068892", "lon": "-83.671230", "precision": "1", "focus_area_descr": "Gender Equality"}, {"outputID": "00084334", "output_locID": "00084334-4", "name": "Departamento de Estel\u00ed", "focus_area": "4", "lat": "13.166670", "type": "ADM1", "awardID": "00068892", "lon": "-86.333330", "precision": "1", "focus_area_descr": "Gender Equality"}, {"outputID": "00084334", "output_locID": "00084334-5", "name": "Municipio de Bluefields", "focus_area": "4", "lat": "12.000000", "type": "ADMD", "awardID": "00068892", "lon": "-84.166670", "precision": "1", "focus_area_descr": "Gender Equality"}, {"outputID": "00084334", "output_locID": "00084334-6", "name": "Departamento de Le\u00f3n", "focus_area": "4", "lat": "12.583330", "type": "ADM1", "awardID": "00068892", "lon": "-86.583330", "precision": "1", "focus_area_descr": "Gender Equality"}, {"outputID": "00084334", "output_locID": "00084334-7", "name": "Managua", "focus_area": "4", "lat": "12.132820", "type": "PPLC", "awardID": "00068892", "lon": "-86.250400", "precision": "1", "focus_area_descr": "Gender Equality"}, {"outputID": "00083796", "output_locID": "00083796-1", "name": "Bilwi", "focus_area": "4", "lat": "14.035070", "type": "PPLA", "awardID": "00068892", "lon": "-83.388820", "precision": "1", "focus_area_descr": "Gender Equality"}, {"outputID": "00083796", "output_locID": "00083796-2", "name": "Somoto", "focus_area": "4", "lat": "13.480820", "type": "PPLA", "awardID": "00068892", "lon": "-86.582080", "precision": "1", "focus_area_descr": "Gender Equality"}, {"outputID": "00083796", "output_locID": "00083796-3", "name": "Departamento de Estel\u00ed", "focus_area": "4", "lat": "13.166670", "type": "ADM1", "awardID": "00068892", "lon": "-86.333330", "precision": "1", "focus_area_descr": "Gender Equality"}, {"outputID": "00083796", "output_locID": "00083796-4", "name": "Laguna de Perlas", "focus_area": "4", "lat": "12.342940", "type": "PPL", "awardID": "00068892", "lon": "-83.671230", "precision": "1", "focus_area_descr": "Gender Equality"}, {"outputID": "00083796", "output_locID": "00083796-5", "name": "Municipio de Bluefields", "focus_area": "4", "lat": "12.000000", "type": "ADMD", "awardID": "00068892", "lon": "-84.166670", "precision": "1", "focus_area_descr": "Gender Equality"}, {"outputID": "00083796", "output_locID": "00083796-6", "name": "Departamento de Le\u00f3n", "focus_area": "4", "lat": "12.583330", "type": "ADM1", "awardID": "00068892", "lon": "-86.583330", "precision": "1", "focus_area_descr": "Gender Equality"}, {"outputID": "00083796", "output_locID": "00083796-7", "name": "Managua", "focus_area": "4", "lat": "12.132820", "type": "PPLC", "awardID": "00068892", "lon": "-86.250400", "precision": "1", "focus_area_descr": "Gender Equality"}]}, {"title": "seguridad humana en el alto wangki y bocay", "id": "00070023", "subnational": [{"outputID": "00084257", "output_locID": "00084257-1", "name": "San Jos\u00e9 de Bocay", "focus_area": "-", "lat": "13.542040", "type": "PPL", "awardID": "00070023", "lon": "-85.539420", "precision": "1", "focus_area_descr": "-"}, {"outputID": "00084257", "output_locID": "00084257-2", "name": "Municipio de San Jos\u00e9 de Bocay", "focus_area": "-", "lat": "13.533330", "type": "ADM2", "awardID": "00070023", "lon": "-85.533330", "precision": "1", "focus_area_descr": "-"}]}, {"title": "acompa\u00f1amiento a la secretaria de desarrollo", "id": "00070217", "subnational": [{"outputID": "00084332", "output_locID": "00084332-1", "name": "Bocay", "focus_area": "3", "lat": "14.297460", "type": "PPL", "awardID": "00070217", "lon": "-85.151550", "precision": "1", "focus_area_descr": "Responsive Institutions"}, {"outputID": "00084332", "output_locID": "00084332-2", "name": "Municipio de San Jos\u00e9 de Bocay", "focus_area": "3", "lat": "13.533330", "type": "ADM2", "awardID": "00070217", "lon": "-85.533330", "precision": "1", "focus_area_descr": "Responsive Institutions"}]}, {"title": "planificaci\u00f3n nacional de la biodiversidad", "id": "00070631", "subnational": [{"outputID": "00084505", "output_locID": "00084505-1", "name": "Nicaragua", "focus_area": "2", "lat": "13.000000", "type": "PCLI", "awardID": "00070631", "lon": "-85.000000", "precision": "1", "focus_area_descr": "Democratic Governance"}]}, {"title": "desarrollo de capacidades locales para gesti\u00f3n ambiental", "id": "00072230", "subnational": [{"outputID": "00085375", "output_locID": "00085375-1", "name": "Golfo de Fonseca", "focus_area": "1", "lat": "13.112780", "type": "GULF", "awardID": "00072230", "lon": "-87.594170", "precision": "1", "focus_area_descr": "Inclusive & Sustainable Growth"}, {"outputID": "00085375", "output_locID": "00085375-2", "name": "Bosawas Biosphere Reserve", "focus_area": "1", "lat": "13.443050", "type": "RESW", "awardID": "00072230", "lon": "-85.144040", "precision": "1", "focus_area_descr": "Inclusive & Sustainable Growth"}, {"outputID": "00085375", "output_locID": "00085375-3", "name": "Chinandega", "focus_area": "1", "lat": "12.629370", "type": "PPLA", "awardID": "00072230", "lon": "-87.131050", "precision": "1", "focus_area_descr": "Inclusive & Sustainable Growth"}]}, {"title": "apoyo a secretaria de cooperaci\u00f3n externa", "id": "00073313", "subnational": [{"outputID": "00086559", "output_locID": "00086559-1", "name": "Nicaragua", "focus_area": "7", "lat": "13.000000", "type": "PCLI", "awardID": "00073313", "lon": "-85.000000", "precision": "1", "focus_area_descr": "Development Impact & Effectiveness"}, {"outputID": "00086298", "output_locID": "00086298-1", "name": "Nicaragua", "focus_area": "7", "lat": "13.000000", "type": "PCLI", "awardID": "00073313", "lon": "-85.000000", "precision": "1", "focus_area_descr": "Development Impact & Effectiveness"}, {"outputID": "00086181", "output_locID": "00086181-1", "name": "Nicaragua", "focus_area": "7", "lat": "13.000000", "type": "PCLI", "awardID": "00073313", "lon": "-85.000000", "precision": "1", "focus_area_descr": "Development Impact & Effectiveness"}]}, {"title": "apoyo al fortalecimiento asamblea nacional", "id": "00075103", "subnational": [{"outputID": "00087217", "output_locID": "00087217-1", "name": "Nicaragua", "focus_area": "2", "lat": "13.000000", "type": "PCLI", "awardID": "00075103", "lon": "-85.000000", "precision": "1", "focus_area_descr": "Democratic Governance"}, {"outputID": "00087216", "output_locID": "00087216-1", "name": "Nicaragua", "focus_area": "2", "lat": "13.000000", "type": "PCLI", "awardID": "00075103", "lon": "-85.000000", "precision": "1", "focus_area_descr": "Democratic Governance"}, {"outputID": "00087219", "output_locID": "00087219-1", "name": "Nicaragua", "focus_area": "2", "lat": "13.000000", "type": "PCLI", "awardID": "00075103", "lon": "-85.000000", "precision": "1", "focus_area_descr": "Democratic Governance"}, {"outputID": "00087201", "output_locID": "00087201-1", "name": "Nicaragua", "focus_area": "2", "lat": "13.000000", "type": "PCLI", "awardID": "00075103", "lon": "-85.000000", "precision": "1", "focus_area_descr": "Democratic Governance"}, {"outputID": "00087218", "output_locID": "00087218-1", "name": "Nicaragua", "focus_area": "2", "lat": "13.000000", "type": "PCLI", "awardID": "00075103", "lon": "-85.000000", "precision": "1", "focus_area_descr": "Democratic Governance"}]}, {"title": "tercera comunicaci\u00f3n nacional de cambio clim\u00e1tico", "id": "00075678", "subnational": []}, {"title": "tecnolog\u00edas de informaci\u00f3n para tramitolog\u00eda", "id": "00076100", "subnational": [{"outputID": "00087662", "output_locID": "00087662-1", "name": "Managua", "focus_area": "1", "lat": "12.132820", "type": "PPLC", "awardID": "00076100", "lon": "-86.250400", "precision": "1", "focus_area_descr": "Inclusive & Sustainable Growth"}, {"outputID": "00087662", "output_locID": "00087662-2", "name": "Nicaragua", "focus_area": "1", "lat": "13.000000", "type": "PCLI", "awardID": "00076100", "lon": "-85.000000", "precision": "1", "focus_area_descr": "Inclusive & Sustainable Growth"}]}, {"title": "desarrollo humano sostenible en nicaragua", "id": "00077873", "subnational": [{"outputID": "00088448", "output_locID": "00088448-1", "name": "RAAN", "focus_area": "3", "lat": "14.000000", "type": "ADM1", "awardID": "00077873", "lon": "-84.250000", "precision": "1", "focus_area_descr": "Responsive Institutions"}, {"outputID": "00088448", "output_locID": "00088448-2", "name": "Regi\u00f3n Aut\u00f3noma Atl\u00e1ntico Sur", "focus_area": "3", "lat": "12.250000", "type": "ADM1", "awardID": "00077873", "lon": "-84.250000", "precision": "1", "focus_area_descr": "Responsive Institutions"}, {"outputID": "00088444", "output_locID": "00088444-1", "name": "Nicaragua", "focus_area": "7", "lat": "13.000000", "type": "PCLI", "awardID": "00077873", "lon": "-85.000000", "precision": "1", "focus_area_descr": "Development Impact & Effectiveness"}, {"outputID": "00088449", "output_locID": "00088449-1", "name": "Nicaragua", "focus_area": "7", "lat": "13.000000", "type": "PCLI", "awardID": "00077873", "lon": "-85.000000", "precision": "1", "focus_area_descr": "Development Impact & Effectiveness"}, {"outputID": "00088445", "output_locID": "00088445-1", "name": "Nicaragua", "focus_area": "7", "lat": "13.000000", "type": "PCLI", "awardID": "00077873", "lon": "-85.000000", "precision": "1", "focus_area_descr": "Development Impact & Effectiveness"}]}, {"title": "ampliaci\u00f3n y equipamiento cobertura rural de la polic\u00eda", "id": "00077973", "subnational": []}, {"title": "inversi\u00f3n, exportaci\u00f3n, desarrollo agroindustrial", "id": "00079789", "subnational": [{"outputID": "00089678", "output_locID": "00089678-1", "name": "Nicaragua", "focus_area": "1", "lat": "13.000000", "type": "PCLI", "awardID": "00079789", "lon": "-85.000000", "precision": "1", "focus_area_descr": "Inclusive & Sustainable Growth"}]}, {"title": "finanzas del clima (cpeir)", "id": "00081042", "subnational": []}, {"title": "desarrollo econ\u00f3mico local sostenible en la costa caribe", "id": "00081421", "subnational": [{"outputID": "00091472", "output_locID": "00091472-1", "name": "Regi\u00f3n Aut\u00f3noma Atl\u00e1ntico Sur", "focus_area": "1", "lat": "12.250000", "type": "ADM1", "awardID": "00081421", "lon": "-84.250000", "precision": "1", "focus_area_descr": "Inclusive & Sustainable Growth"}, {"outputID": "00091498", "output_locID": "00091498-1", "name": "Regi\u00f3n Aut\u00f3noma Atl\u00e1ntico Sur", "focus_area": "1", "lat": "12.250000", "type": "ADM1", "awardID": "00081421", "lon": "-84.250000", "precision": "1", "focus_area_descr": "Inclusive & Sustainable Growth"}, {"outputID": "00091471", "output_locID": "00091471-1", "name": "Regi\u00f3n Aut\u00f3noma Atl\u00e1ntico Sur", "focus_area": "1", "lat": "12.250000", "type": "ADM1", "awardID": "00081421", "lon": "-84.250000", "precision": "1", "focus_area_descr": "Inclusive & Sustainable Growth"}, {"outputID": "00090697", "output_locID": "00090697-1", "name": "Bluefields", "focus_area": "1", "lat": "12.013660", "type": "PPLA", "awardID": "00081421", "lon": "-83.763530", "precision": "1", "focus_area_descr": "Inclusive & Sustainable Growth"}, {"outputID": "00091473", "output_locID": "00091473-1", "name": "Regi\u00f3n Aut\u00f3noma Atl\u00e1ntico Sur", "focus_area": "1", "lat": "12.250000", "type": "ADM1", "awardID": "00081421", "lon": "-84.250000", "precision": "1", "focus_area_descr": "Inclusive & Sustainable Growth"}]}, {"title": "recuperaci\u00f3n post terremoto", "id": "00081696", "subnational": []}, {"title": "resiliencia de areas protegidas", "id": "00083775", "subnational": []}, {"title": "control armas y prevenci\u00f3n violencia armada juvenil", "id": "00084494", "subnational": []}, {"title": "gesti\u00f3n territorial de a y s rio dipilto", "id": "00088523", "subnational": []}, {"title": "mejoramiento colegio nnuu", "id": "00089006", "subnational": []}, {"title": "desarrollo humano costa caribe de nicaragua", "id": "00014048", "subnational": [{"outputID": "00014048", "output_locID": "00014048-1", "name": "North Atlantic Autonomous Region (RAAN)", "focus_area": "-", "lat": "14.000000", "type": "ADM1", "awardID": "00014048", "lon": "-84.250000", "precision": "1", "focus_area_descr": "-"}, {"outputID": "00014048", "output_locID": "00014048-2", "name": "Regi\u00f3n Aut\u00f3noma Atl\u00e1ntico Sur", "focus_area": "-", "lat": "12.250000", "type": "ADM1", "awardID": "00014048", "lon": "-84.250000", "precision": "1", "focus_area_descr": "-"}, {"outputID": "00014048", "output_locID": "00014048-3", "name": "Managua", "focus_area": "-", "lat": "12.132820", "type": "PPLC", "awardID": "00014048", "lon": "-86.250400", "precision": "1", "focus_area_descr": "-"}, {"outputID": "00014048", "output_locID": "00014048-4", "name": "Managua", "focus_area": "-", "lat": "12.132820", "type": "PPLC", "awardID": "00014048", "lon": "-86.250400", "precision": "1", "focus_area_descr": "-"}]}, {"title": "programa gobernabilidad costa caribe de nicaragua", "id": "00046305", "subnational": [{"outputID": "00056134", "output_locID": "00056134-1", "name": "Managua", "focus_area": "-", "lat": "12.132820", "type": "PPLC", "awardID": "00046305", "lon": "-86.250400", "precision": "1", "focus_area_descr": "-"}, {"outputID": "00056134", "output_locID": "00056134-2", "name": "Managua", "focus_area": "-", "lat": "12.132820", "type": "PPLC", "awardID": "00046305", "lon": "-86.250400", "precision": "1", "focus_area_descr": "-"}, {"outputID": "00056134", "output_locID": "00056134-3", "name": "North Atlantic Autonomous Region (RAAN)", "focus_area": "-", "lat": "14.000000", "type": "ADM1", "awardID": "00046305", "lon": "-84.250000", "precision": "1", "focus_area_descr": "-"}, {"outputID": "00056134", "output_locID": "00056134-4", "name": "Regi\u00f3n Aut\u00f3noma Atl\u00e1ntico Sur", "focus_area": "-", "lat": "12.250000", "type": "ADM1", "awardID": "00046305", "lon": "-84.250000", "precision": "1", "focus_area_descr": "-"}]}, {"title": "programa conjunto de gesti\u00f3n ambiental", "id": "00048669", "subnational": [{"outputID": "00062967", "output_locID": "00062967-1", "name": "Bonanza", "focus_area": "-", "lat": "14.028850", "type": "PPL", "awardID": "00048669", "lon": "-84.591030", "precision": "1", "focus_area_descr": "-"}, {"outputID": "00062967", "output_locID": "00062967-2", "name": "Rosita", "focus_area": "-", "lat": "13.914990", "type": "PPL", "awardID": "00048669", "lon": "-84.402810", "precision": "1", "focus_area_descr": "-"}, {"outputID": "00062967", "output_locID": "00062967-3", "name": "Waspam", "focus_area": "-", "lat": "14.741890", "type": "PPL", "awardID": "00048669", "lon": "-83.971700", "precision": "1", "focus_area_descr": "-"}]}, {"title": "fondo odm revitalizacion cultural y des productivo", "id": "00057114", "subnational": [{"outputID": "00070442", "output_locID": "00070442-1", "name": "Republic of Nicaragua", "focus_area": "-", "lat": "13.000000", "type": "PCLI", "awardID": "00057114", "lon": "-85.000000", "precision": "1", "focus_area_descr": "-"}, {"outputID": "00071540", "output_locID": "00071540-1", "name": "Managua", "focus_area": "-", "lat": "12.132820", "type": "PPLC", "awardID": "00057114", "lon": "-86.250400", "precision": "1", "focus_area_descr": "-"}, {"outputID": "00071540", "output_locID": "00071540-2", "name": "Managua", "focus_area": "-", "lat": "12.132820", "type": "PPLC", "awardID": "00057114", "lon": "-86.250400", "precision": "1", "focus_area_descr": "-"}, {"outputID": "00071540", "output_locID": "00071540-3", "name": "North Atlantic Autonomous Region (RAAN)", "focus_area": "-", "lat": "14.000000", "type": "ADM1", "awardID": "00057114", "lon": "-84.250000", "precision": "1", "focus_area_descr": "-"}, {"outputID": "00071539", "output_locID": "00071539-1", "name": "Nicaragua", "focus_area": "-", "lat": "13", "type": "PCL", "awardID": "00057114", "lon": "-85", "precision": "9", "focus_area_descr": "-"}]}, {"title": "proyecto pana laka ii", "id": "00058273", "subnational": [{"outputID": "00072335", "output_locID": "00072335-1", "name": "Republic of Nicaragua", "focus_area": "2", "lat": "13.000000", "type": "PCLI", "awardID": "00058273", "lon": "-85.000000", "precision": "1", "focus_area_descr": "Democratic Governance"}, {"outputID": "00072334", "output_locID": "00072334-1", "name": "Academia de Policia Walter Mendoza", "focus_area": "2", "lat": "10.73036", "type": "ADM1", "awardID": "00058273", "lon": "-83.96498", "precision": "4", "focus_area_descr": "Democratic Governance"}, {"outputID": "00072334", "output_locID": "00072334-2", "name": "Nicaragua", "focus_area": "2", "lat": "13", "type": "PCL", "awardID": "00058273", "lon": "-85", "precision": "9", "focus_area_descr": "Democratic Governance"}, {"outputID": "00072334", "output_locID": "00072334-3", "name": "Nicaragua", "focus_area": "2", "lat": "13", "type": "PCL", "awardID": "00058273", "lon": "-85", "precision": "9", "focus_area_descr": "Democratic Governance"}, {"outputID": "00081285", "output_locID": "00081285-1", "name": "Nicaragua", "focus_area": "-", "lat": "13", "type": "PCL", "awardID": "00058273", "lon": "-85", "precision": "9", "focus_area_descr": "-"}]}, {"title": "fondo odm infancia y seguridad alimentaria", "id": "00058930", "subnational": [{"outputID": "00073806", "output_locID": "00073806-1", "name": "Bonanza", "focus_area": "-", "lat": "14.028850", "type": "PPL", "awardID": "00058930", "lon": "-84.591030", "precision": "1", "focus_area_descr": "-"}, {"outputID": "00073434", "output_locID": "00073434-1", "name": "Bonanza", "focus_area": "2", "lat": "14.02885", "type": "PPL", "awardID": "00058930", "lon": "-84.59103", "precision": "3", "focus_area_descr": "Democratic Governance"}]}, {"title": "apoyo al control de armas en nicaragua", "id": "00061289", "subnational": [{"outputID": "00077606", "output_locID": "00077606-1", "name": "Republic of Nicaragua", "focus_area": "3", "lat": "13.000000", "type": "PCLI", "awardID": "00061289", "lon": "-85.000000", "precision": "1", "focus_area_descr": "Responsive Institutions"}]}, {"title": "programa  pueblos indigenas y afrodescendientes", "id": "00066868", "subnational": [{"outputID": "00082894", "output_locID": "00082894-1", "name": "Republic of Nicaragua", "focus_area": "-", "lat": "13.000000", "type": "PCLI", "awardID": "00066868", "lon": "-85.000000", "precision": "1", "focus_area_descr": "-"}]}, {"title": "gesti\u00f3n del conocimiento, innovaci\u00f3n y desarrollo", "id": "00070142", "subnational": [{"outputID": "00084288", "output_locID": "00084288-1", "name": "Republic of Nicaragua", "focus_area": "-", "lat": "13.000000", "type": "PCLI", "awardID": "00070142", "lon": "-85.000000", "precision": "1", "focus_area_descr": "-"}]}, {"title": "fomento de mercados para la agroindustria sostenible", "id": "00071228", "subnational": [{"outputID": "00084832", "output_locID": "00084832-1", "name": "Republic of Nicaragua", "focus_area": "-", "lat": "13.000000", "type": "PCLI", "awardID": "00071228", "lon": "-85.000000", "precision": "1", "focus_area_descr": "-"}]}, {"title": "comunicaci\u00f3n para el cambio", "id": "00072145", "subnational": [{"outputID": "00085328", "output_locID": "00085328-1", "name": "Municipio de San Jos\u00e9 de Bocay", "focus_area": "-", "lat": "13.533330", "type": "ADM2", "awardID": "00072145", "lon": "-85.533330", "precision": "1", "focus_area_descr": "-"}, {"outputID": "00085328", "output_locID": "00085328-2", "name": "San Jos\u00e9 de Bocay", "focus_area": "-", "lat": "13.542040", "type": "PPL", "awardID": "00072145", "lon": "-85.539420", "precision": "1", "focus_area_descr": "-"}]}, {"title": "plan de inicio agenda joven nicaragua", "id": "00072953", "subnational": [{"outputID": "00085933", "output_locID": "00085933-1", "name": "Republic of Nicaragua", "focus_area": "-", "lat": "13.000000", "type": "PCLI", "awardID": "00072953", "lon": "-85.000000", "precision": "1", "focus_area_descr": "-"}]}, {"title": "frontera norte de nicaragua", "id": "00074358", "subnational": [{"outputID": "00086805", "output_locID": "00086805-1", "name": "Golfo de Fonseca", "focus_area": "-", "lat": "13.112780", "type": "GULF", "awardID": "00074358", "lon": "-87.594170", "precision": "1", "focus_area_descr": "-"}, {"outputID": "00086805", "output_locID": "00086805-2", "name": "Jinotega", "focus_area": "-", "lat": "13.100420", "type": "PPLA", "awardID": "00074358", "lon": "-86.002260", "precision": "1", "focus_area_descr": "-"}, {"outputID": "00086805", "output_locID": "00086805-3", "name": "Departamento de Nueva Segovia", "focus_area": "-", "lat": "13.700000", "type": "ADM1", "awardID": "00074358", "lon": "-86.166670", "precision": "1", "focus_area_descr": "-"}]}, {"title": "fortalecer capacidades gesti\u00f3n de riesgos y recuperaci\u00f3n", "id": "00074363", "subnational": [{"outputID": "00086809", "output_locID": "00086809-1", "name": "Republic of Nicaragua", "focus_area": "-", "lat": "13.000000", "type": "PCLI", "awardID": "00074363", "lon": "-85.000000", "precision": "1", "focus_area_descr": "-"}]}, {"title": "plan de inicio resiliencia de \u00e1reas protegidas", "id": "00077472", "subnational": []}, {"title": "engagement facility", "id": "00082188", "subnational": []}, {"title": "apoyo a comisar\u00edas para cumplir ley 779", "id": "00069797", "subnational": [{"outputID": "00084152", "output_locID": "00084152-1", "name": "Nicaragua", "focus_area": "2", "lat": "13", "type": "PCL", "awardID": "00069797", "lon": "-85", "precision": "9", "focus_area_descr": "Democratic Governance"}]}, {"title": "articulaci\u00f3n redes territoriales y tem\u00e1ticas (art)", "id": "00068819", "subnational": [{"outputID": "00083764", "output_locID": "00083764-1", "name": "Esteli", "focus_area": "1", "lat": "13.09185", "type": "ADM2", "awardID": "00068819", "lon": "-86.35384", "precision": "9", "focus_area_descr": "Inclusive & Sustainable Growth"}, {"outputID": "00083764", "output_locID": "00083764-2", "name": "Esteli", "focus_area": "1", "lat": "13.09185", "type": "ADM2", "awardID": "00068819", "lon": "-86.35384", "precision": "9", "focus_area_descr": "Inclusive & Sustainable Growth"}, {"outputID": "00083764", "output_locID": "00083764-3", "name": "Nueva Segovia", "focus_area": "1", "lat": "13.7", "type": "ADM1", "awardID": "00068819", "lon": "-86.16667", "precision": "4", "focus_area_descr": "Inclusive & Sustainable Growth"}, {"outputID": "00083764", "output_locID": "00083764-4", "name": "Madriz", "focus_area": "1", "lat": "13.5", "type": "ADM1", "awardID": "00068819", "lon": "-86.41667", "precision": "4", "focus_area_descr": "Inclusive & Sustainable Growth"}]}, {"title": "capacitaci\u00f3n en autoconstrucci\u00f3n de viviendas y centros", "id": "00035481", "subnational": [{"outputID": "00057969", "output_locID": "00057969-1", "name": "Masaya", "focus_area": "1", "lat": "11.97444", "type": "ADM1", "awardID": "00035481", "lon": "-86.09417", "precision": "4", "focus_area_descr": "Inclusive & Sustainable Growth"}, {"outputID": "00084167", "output_locID": "00084167-1", "name": "Nicaragua", "focus_area": "1", "lat": "13", "type": "PCL", "awardID": "00035481", "lon": "-85", "precision": "9", "focus_area_descr": "Inclusive & Sustainable Growth"}]}, {"title": "cobertura rural de seguridad ciudadana de la policia", "id": "00045509", "subnational": [{"outputID": "00053775", "output_locID": "00053775-1", "name": "Nicaragua", "focus_area": "2", "lat": "13", "type": "PCL", "awardID": "00045509", "lon": "-85", "precision": "9", "focus_area_descr": "Democratic Governance"}, {"outputID": "00053774", "output_locID": "00053774-1", "name": "Nicaragua", "focus_area": "-", "lat": "13", "type": "PCL", "awardID": "00045509", "lon": "-85", "precision": "9", "focus_area_descr": "-"}]}, {"title": "desarrollo econ\u00f3mico local - turismo sostenible", "id": "00071274", "subnational": [{"outputID": "00084854", "output_locID": "00084854-1", "name": "Managua", "focus_area": "2", "lat": "12.13282", "type": "PPLC", "awardID": "00071274", "lon": "-86.2504", "precision": "3", "focus_area_descr": "Democratic Governance"}]}, {"title": "dss  & das", "id": "00032004", "subnational": [{"outputID": "00032253", "output_locID": "00032253-1", "name": "Managua", "focus_area": "-", "lat": "12.13282", "type": "PPLC", "awardID": "00032004", "lon": "-86.2504", "precision": "3", "focus_area_descr": "-"}]}, {"title": "equidad de genero", "id": "00043528", "subnational": [{"outputID": "00050855", "output_locID": "00050855-1", "name": "Nicaragua", "focus_area": "-", "lat": "13", "type": "PCL", "awardID": "00043528", "lon": "-85", "precision": "9", "focus_area_descr": "-"}]}, {"title": "fondo odm gobernabilidad agua y saneamiento nicaragua", "id": "00051458", "subnational": [{"outputID": "00071553", "output_locID": "00071553-1", "name": "Regiones Autonomas del Atlantico Sur", "focus_area": "-", "lat": "13", "type": "PCL", "awardID": "00051458", "lon": "-85", "precision": "9", "focus_area_descr": "-"}, {"outputID": "00071553", "output_locID": "00071553-2", "name": "Regiones Autonomas del Atlantico Norte", "focus_area": "-", "lat": "13", "type": "PCL", "awardID": "00051458", "lon": "-85", "precision": "9", "focus_area_descr": "-"}, {"outputID": "00071553", "output_locID": "00071553-3", "name": "Managua", "focus_area": "-", "lat": "12.13282", "type": "PPLC", "awardID": "00051458", "lon": "-86.2504", "precision": "3", "focus_area_descr": "-"}, {"outputID": "00064080", "output_locID": "00064080-1", "name": "Nicaragua", "focus_area": "-", "lat": "13", "type": "PCL", "awardID": "00051458", "lon": "-85", "precision": "9", "focus_area_descr": "-"}, {"outputID": "00071552", "output_locID": "00071552-1", "name": "Nicaragua", "focus_area": "-", "lat": "13", "type": "PCL", "awardID": "00051458", "lon": "-85", "precision": "9", "focus_area_descr": "-"}]}, {"title": "fortalecimiento sistema areas protegidas", "id": "00046611", "subnational": [{"outputID": "00055603", "output_locID": "00055603-1", "name": "Leon", "focus_area": "5", "lat": "12.43787", "type": "PPLA", "awardID": "00046611", "lon": "-86.87804", "precision": "3", "focus_area_descr": "Climate Change & Disaster Resilience"}, {"outputID": "00055603", "output_locID": "00055603-2", "name": "Chinandega", "focus_area": "5", "lat": "12.62937", "type": "PPLA", "awardID": "00046611", "lon": "-87.13105", "precision": "3", "focus_area_descr": "Climate Change & Disaster Resilience"}, {"outputID": "00055603", "output_locID": "00055603-3", "name": "Jinotega", "focus_area": "5", "lat": "13.09171", "type": "PPLA", "awardID": "00046611", "lon": "-86.00177", "precision": "3", "focus_area_descr": "Climate Change & Disaster Resilience"}]}, {"title": "grupo tem\u00e1tico vih nicaragua", "id": "00050658", "subnational": [{"outputID": "00062685", "output_locID": "00062685-1", "name": "Nicaragua", "focus_area": "-", "lat": "13", "type": "PCL", "awardID": "00050658", "lon": "-85", "precision": "9", "focus_area_descr": "-"}]}, {"title": "institucionalidad democr\u00e1tica parlamento", "id": "00048917", "subnational": [{"outputID": "00059297", "output_locID": "00059297-1", "name": "Nicaragua", "focus_area": "2", "lat": "13", "type": "PCL", "awardID": "00048917", "lon": "-85", "precision": "9", "focus_area_descr": "Democratic Governance"}, {"outputID": "00070546", "output_locID": "00070546-1", "name": "Nicaragua", "focus_area": "-", "lat": "13", "type": "PCL", "awardID": "00048917", "lon": "-85", "precision": "9", "focus_area_descr": "-"}]}, {"title": "manejo sostenible de la tierra en areas degradadas", "id": "00041235", "subnational": [{"outputID": "00046940", "output_locID": "00046940-1", "name": "El Sauce", "focus_area": "-", "lat": "12.88687", "type": "PPL", "awardID": "00041235", "lon": "-86.53903", "precision": "3", "focus_area_descr": "-"}, {"outputID": "00046940", "output_locID": "00046940-2", "name": "Cinco Pinos", "focus_area": "-", "lat": "13.22956", "type": "PPL", "awardID": "00041235", "lon": "-86.86744", "precision": "3", "focus_area_descr": "-"}, {"outputID": "00046940", "output_locID": "00046940-3", "name": "Santo Tomas", "focus_area": "-", "lat": "12.06938", "type": "PPL", "awardID": "00041235", "lon": "-85.09059", "precision": "3", "focus_area_descr": "-"}, {"outputID": "00046940", "output_locID": "00046940-4", "name": "San Francisco del norte", "focus_area": "-", "lat": "13.23333", "type": "ADM2", "awardID": "00041235", "lon": "-86.7", "precision": "3", "focus_area_descr": "-"}, {"outputID": "00046940", "output_locID": "00046940-5", "name": "San Francisco Libre", "focus_area": "-", "lat": "12.50497", "type": "PPL", "awardID": "00041235", "lon": "-86.29942", "precision": "3", "focus_area_descr": "-"}]}, {"title": "programa conjunto juventud, empleo y migracion (jem)", "id": "00050792", "subnational": [{"outputID": "00062893", "output_locID": "00062893-1", "name": "Masaya", "focus_area": "1", "lat": "11.97444", "type": "PPLA", "awardID": "00050792", "lon": "-86.09417", "precision": "3", "focus_area_descr": "Inclusive & Sustainable Growth"}, {"outputID": "00062893", "output_locID": "00062893-2", "name": "Somotillo", "focus_area": "1", "lat": "13.04328", "type": "PPL", "awardID": "00050792", "lon": "-86.90645", "precision": "3", "focus_area_descr": "Inclusive & Sustainable Growth"}, {"outputID": "00062893", "output_locID": "00062893-3", "name": "Chinandega", "focus_area": "1", "lat": "12.62937", "type": "PPLA", "awardID": "00050792", "lon": "-87.13105", "precision": "3", "focus_area_descr": "Inclusive & Sustainable Growth"}, {"outputID": "00062893", "output_locID": "00062893-4", "name": "Tuma La Dalia", "focus_area": "1", "lat": "13.04416", "type": "ADM2", "awardID": "00050792", "lon": "-85.74872", "precision": "3", "focus_area_descr": "Inclusive & Sustainable Growth"}, {"outputID": "00062893", "output_locID": "00062893-5", "name": "Sebaco", "focus_area": "1", "lat": "12.85321", "type": "PPL", "awardID": "00050792", "lon": "-86.0963", "precision": "3", "focus_area_descr": "Inclusive & Sustainable Growth"}, {"outputID": "00062893", "output_locID": "00062893-6", "name": "Matagalpa", "focus_area": "1", "lat": "12.92559", "type": "PPLA", "awardID": "00050792", "lon": "-85.91747", "precision": "3", "focus_area_descr": "Inclusive & Sustainable Growth"}, {"outputID": "00062893", "output_locID": "00062893-7", "name": "La Concordia", "focus_area": "1", "lat": "13.19528", "type": "PPL", "awardID": "00050792", "lon": "-86.16674", "precision": "3", "focus_area_descr": "Inclusive & Sustainable Growth"}, {"outputID": "00062893", "output_locID": "00062893-8", "name": "Jinotega", "focus_area": "1", "lat": "13.09171", "type": "PPLA", "awardID": "00050792", "lon": "-86.00177", "precision": "3", "focus_area_descr": "Inclusive & Sustainable Growth"}, {"outputID": "00062893", "output_locID": "00062893-9", "name": "San Francisco Libre", "focus_area": "1", "lat": "12.50497", "type": "PPL", "awardID": "00050792", "lon": "-86.29942", "precision": "3", "focus_area_descr": "Inclusive & Sustainable Growth"}, {"outputID": "00062893", "output_locID": "00062893-10", "name": "Altagracia", "focus_area": "1", "lat": "11.56615", "type": "PPL", "awardID": "00050792", "lon": "-85.5784", "precision": "3", "focus_area_descr": "Inclusive & Sustainable Growth"}, {"outputID": "00062893", "output_locID": "00062893-11", "name": "Managua", "focus_area": "1", "lat": "12.13282", "type": "PPLA", "awardID": "00050792", "lon": "-86.2504", "precision": "3", "focus_area_descr": "Inclusive & Sustainable Growth"}, {"outputID": "00070102", "output_locID": "00070102-1", "name": "Masaya", "focus_area": "1", "lat": "11.97444", "type": "PPLA", "awardID": "00050792", "lon": "-86.09417", "precision": "3", "focus_area_descr": "Inclusive & Sustainable Growth"}, {"outputID": "00070102", "output_locID": "00070102-2", "name": "Somotillo", "focus_area": "1", "lat": "13.04328", "type": "PPL", "awardID": "00050792", "lon": "-86.90645", "precision": "3", "focus_area_descr": "Inclusive & Sustainable Growth"}, {"outputID": "00070102", "output_locID": "00070102-3", "name": "Chinandega", "focus_area": "1", "lat": "12.62937", "type": "PPLA", "awardID": "00050792", "lon": "-87.13105", "precision": "3", "focus_area_descr": "Inclusive & Sustainable Growth"}, {"outputID": "00070102", "output_locID": "00070102-4", "name": "Tuma La Dalia", "focus_area": "1", "lat": "13.04416", "type": "ADM2", "awardID": "00050792", "lon": "-85.74872", "precision": "3", "focus_area_descr": "Inclusive & Sustainable Growth"}, {"outputID": "00070102", "output_locID": "00070102-5", "name": "Sebaco", "focus_area": "1", "lat": "12.85321", "type": "PPL", "awardID": "00050792", "lon": "-86.0963", "precision": "3", "focus_area_descr": "Inclusive & Sustainable Growth"}, {"outputID": "00070102", "output_locID": "00070102-6", "name": "Matagalpa", "focus_area": "1", "lat": "12.92559", "type": "PPLA", "awardID": "00050792", "lon": "-85.91747", "precision": "3", "focus_area_descr": "Inclusive & Sustainable Growth"}, {"outputID": "00070102", "output_locID": "00070102-7", "name": "La Concordia", "focus_area": "1", "lat": "13.19528", "type": "PPL", "awardID": "00050792", "lon": "-86.16674", "precision": "3", "focus_area_descr": "Inclusive & Sustainable Growth"}, {"outputID": "00070102", "output_locID": "00070102-8", "name": "Jinotega", "focus_area": "1", "lat": "13.09171", "type": "PPLA", "awardID": "00050792", "lon": "-86.00177", "precision": "3", "focus_area_descr": "Inclusive & Sustainable Growth"}, {"outputID": "00070102", "output_locID": "00070102-9", "name": "San Francisco Libre", "focus_area": "1", "lat": "12.50497", "type": "PPL", "awardID": "00050792", "lon": "-86.29942", "precision": "3", "focus_area_descr": "Inclusive & Sustainable Growth"}, {"outputID": "00070102", "output_locID": "00070102-10", "name": "Altagracia", "focus_area": "1", "lat": "11.56615", "type": "PPL", "awardID": "00050792", "lon": "-85.5784", "precision": "3", "focus_area_descr": "Inclusive & Sustainable Growth"}, {"outputID": "00070102", "output_locID": "00070102-11", "name": "Managua", "focus_area": "1", "lat": "12.13282", "type": "PPLC", "awardID": "00050792", "lon": "-86.2504", "precision": "3", "focus_area_descr": "Inclusive & Sustainable Growth"}, {"outputID": "00070372", "output_locID": "00070372-1", "name": "Masaya", "focus_area": "1", "lat": "11.97444", "type": "PPLA", "awardID": "00050792", "lon": "-86.09417", "precision": "3", "focus_area_descr": "Inclusive & Sustainable Growth"}, {"outputID": "00070372", "output_locID": "00070372-2", "name": "Somotillo", "focus_area": "1", "lat": "13.04328", "type": "PPL", "awardID": "00050792", "lon": "-86.90645", "precision": "3", "focus_area_descr": "Inclusive & Sustainable Growth"}, {"outputID": "00070372", "output_locID": "00070372-3", "name": "Chinandega", "focus_area": "1", "lat": "12.62937", "type": "PPLA", "awardID": "00050792", "lon": "-87.13105", "precision": "3", "focus_area_descr": "Inclusive & Sustainable Growth"}, {"outputID": "00070372", "output_locID": "00070372-4", "name": "Tuma La Dalia", "focus_area": "1", "lat": "13.04416", "type": "ADM2", "awardID": "00050792", "lon": "-85.74872", "precision": "3", "focus_area_descr": "Inclusive & Sustainable Growth"}, {"outputID": "00070372", "output_locID": "00070372-5", "name": "Sebaco", "focus_area": "1", "lat": "12.85321", "type": "PPL", "awardID": "00050792", "lon": "-86.0963", "precision": "3", "focus_area_descr": "Inclusive & Sustainable Growth"}, {"outputID": "00070372", "output_locID": "00070372-6", "name": "Matagalpa", "focus_area": "1", "lat": "12.92559", "type": "PPLA", "awardID": "00050792", "lon": "-85.91747", "precision": "3", "focus_area_descr": "Inclusive & Sustainable Growth"}, {"outputID": "00070372", "output_locID": "00070372-7", "name": "La Concordia", "focus_area": "1", "lat": "13.19528", "type": "PPL", "awardID": "00050792", "lon": "-86.16674", "precision": "3", "focus_area_descr": "Inclusive & Sustainable Growth"}, {"outputID": "00070372", "output_locID": "00070372-8", "name": "Jinotega", "focus_area": "1", "lat": "13.09171", "type": "PPLA", "awardID": "00050792", "lon": "-86.00177", "precision": "3", "focus_area_descr": "Inclusive & Sustainable Growth"}, {"outputID": "00070372", "output_locID": "00070372-9", "name": "San Francisco Libre", "focus_area": "1", "lat": "12.50497", "type": "PPL", "awardID": "00050792", "lon": "-86.29942", "precision": "3", "focus_area_descr": "Inclusive & Sustainable Growth"}, {"outputID": "00070372", "output_locID": "00070372-10", "name": "Altagracia", "focus_area": "1", "lat": "11.56615", "type": "PPL", "awardID": "00050792", "lon": "-85.5784", "precision": "3", "focus_area_descr": "Inclusive & Sustainable Growth"}, {"outputID": "00070372", "output_locID": "00070372-11", "name": "Managua", "focus_area": "1", "lat": "12.13282", "type": "PPLC", "awardID": "00050792", "lon": "-86.2504", "precision": "3", "focus_area_descr": "Inclusive & Sustainable Growth"}, {"outputID": "00070373", "output_locID": "00070373-1", "name": "Masaya", "focus_area": "1", "lat": "11.97444", "type": "PPLA", "awardID": "00050792", "lon": "-86.09417", "precision": "3", "focus_area_descr": "Inclusive & Sustainable Growth"}, {"outputID": "00070373", "output_locID": "00070373-2", "name": "Somotillo", "focus_area": "1", "lat": "13.04328", "type": "PPL", "awardID": "00050792", "lon": "-86.90645", "precision": "3", "focus_area_descr": "Inclusive & Sustainable Growth"}, {"outputID": "00070373", "output_locID": "00070373-3", "name": "Chinandega", "focus_area": "1", "lat": "12.62937", "type": "PPLA", "awardID": "00050792", "lon": "-87.13105", "precision": "3", "focus_area_descr": "Inclusive & Sustainable Growth"}, {"outputID": "00070373", "output_locID": "00070373-4", "name": "Tuma La Dalia", "focus_area": "1", "lat": "13.04416", "type": "ADM2", "awardID": "00050792", "lon": "-85.74872", "precision": "3", "focus_area_descr": "Inclusive & Sustainable Growth"}, {"outputID": "00070373", "output_locID": "00070373-5", "name": "Sebaco", "focus_area": "1", "lat": "12.85321", "type": "PPL", "awardID": "00050792", "lon": "-86.0963", "precision": "3", "focus_area_descr": "Inclusive & Sustainable Growth"}, {"outputID": "00070373", "output_locID": "00070373-6", "name": "Matagalpa", "focus_area": "1", "lat": "12.92559", "type": "PPLA", "awardID": "00050792", "lon": "-85.91747", "precision": "3", "focus_area_descr": "Inclusive & Sustainable Growth"}, {"outputID": "00070373", "output_locID": "00070373-7", "name": "La Concordia", "focus_area": "1", "lat": "13.19528", "type": "PPL", "awardID": "00050792", "lon": "-86.16674", "precision": "3", "focus_area_descr": "Inclusive & Sustainable Growth"}, {"outputID": "00070373", "output_locID": "00070373-8", "name": "Jinotega", "focus_area": "1", "lat": "13.09171", "type": "PPLA", "awardID": "00050792", "lon": "-86.00177", "precision": "3", "focus_area_descr": "Inclusive & Sustainable Growth"}, {"outputID": "00070373", "output_locID": "00070373-9", "name": "San Francisco Libre", "focus_area": "1", "lat": "12.50497", "type": "PPL", "awardID": "00050792", "lon": "-86.29942", "precision": "3", "focus_area_descr": "Inclusive & Sustainable Growth"}, {"outputID": "00070373", "output_locID": "00070373-10", "name": "Altagracia", "focus_area": "1", "lat": "11.56615", "type": "PPL", "awardID": "00050792", "lon": "-85.5784", "precision": "3", "focus_area_descr": "Inclusive & Sustainable Growth"}, {"outputID": "00070373", "output_locID": "00070373-11", "name": "Managua", "focus_area": "1", "lat": "12.13282", "type": "PPLC", "awardID": "00050792", "lon": "-86.2504", "precision": "3", "focus_area_descr": "Inclusive & Sustainable Growth"}, {"outputID": "00074765", "output_locID": "00074765-1", "name": "Masaya", "focus_area": "1", "lat": "11.97444", "type": "PPLA", "awardID": "00050792", "lon": "-86.09417", "precision": "3", "focus_area_descr": "Inclusive & Sustainable Growth"}, {"outputID": "00074765", "output_locID": "00074765-2", "name": "Somotillo", "focus_area": "1", "lat": "13.04328", "type": "PPL", "awardID": "00050792", "lon": "-86.90645", "precision": "3", "focus_area_descr": "Inclusive & Sustainable Growth"}, {"outputID": "00074765", "output_locID": "00074765-3", "name": "Chinandega", "focus_area": "1", "lat": "12.62937", "type": "PPLA", "awardID": "00050792", "lon": "-87.13105", "precision": "3", "focus_area_descr": "Inclusive & Sustainable Growth"}, {"outputID": "00074765", "output_locID": "00074765-4", "name": "Tuma La Dalia", "focus_area": "1", "lat": "13.04416", "type": "ADM2", "awardID": "00050792", "lon": "-85.74872", "precision": "3", "focus_area_descr": "Inclusive & Sustainable Growth"}, {"outputID": "00074765", "output_locID": "00074765-5", "name": "Sebaco", "focus_area": "1", "lat": "12.85321", "type": "PPL", "awardID": "00050792", "lon": "-86.0963", "precision": "3", "focus_area_descr": "Inclusive & Sustainable Growth"}, {"outputID": "00074765", "output_locID": "00074765-6", "name": "Matagalpa", "focus_area": "1", "lat": "12.92559", "type": "PPLA", "awardID": "00050792", "lon": "-85.91747", "precision": "3", "focus_area_descr": "Inclusive & Sustainable Growth"}, {"outputID": "00074765", "output_locID": "00074765-7", "name": "La Concordia", "focus_area": "1", "lat": "13.19528", "type": "PPL", "awardID": "00050792", "lon": "-86.16674", "precision": "3", "focus_area_descr": "Inclusive & Sustainable Growth"}, {"outputID": "00074765", "output_locID": "00074765-8", "name": "Jinotega", "focus_area": "1", "lat": "13.09171", "type": "PPLA", "awardID": "00050792", "lon": "-86.00177", "precision": "3", "focus_area_descr": "Inclusive & Sustainable Growth"}, {"outputID": "00074765", "output_locID": "00074765-9", "name": "San Francisco Libre", "focus_area": "1", "lat": "12.50497", "type": "PPL", "awardID": "00050792", "lon": "-86.29942", "precision": "3", "focus_area_descr": "Inclusive & Sustainable Growth"}, {"outputID": "00074765", "output_locID": "00074765-10", "name": "Altagracia", "focus_area": "1", "lat": "11.56615", "type": "PPL", "awardID": "00050792", "lon": "-85.5784", "precision": "3", "focus_area_descr": "Inclusive & Sustainable Growth"}, {"outputID": "00074765", "output_locID": "00074765-11", "name": "Managua", "focus_area": "1", "lat": "12.13282", "type": "PPLC", "awardID": "00050792", "lon": "-86.2504", "precision": "3", "focus_area_descr": "Inclusive & Sustainable Growth"}]}, {"title": "programa interagencial de gesti\u00f3n de riesgos", "id": "00061888", "subnational": [{"outputID": "00078944", "output_locID": "00078944-1", "name": "Leon", "focus_area": "5", "lat": "12.43787", "type": "PPLA", "awardID": "00061888", "lon": "-86.87804", "precision": "3", "focus_area_descr": "Climate Change & Disaster Resilience"}, {"outputID": "00078944", "output_locID": "00078944-2", "name": "Matagalpa", "focus_area": "5", "lat": "12.92559", "type": "PPLA", "awardID": "00061888", "lon": "-85.91747", "precision": "3", "focus_area_descr": "Climate Change & Disaster Resilience"}, {"outputID": "00078944", "output_locID": "00078944-3", "name": "Esteli", "focus_area": "5", "lat": "13.09185", "type": "PPLA", "awardID": "00061888", "lon": "-86.35384", "precision": "3", "focus_area_descr": "Climate Change & Disaster Resilience"}, {"outputID": "00078944", "output_locID": "00078944-4", "name": "Managua", "focus_area": "5", "lat": "12.13282", "type": "PPLC", "awardID": "00061888", "lon": "-86.2504", "precision": "3", "focus_area_descr": "Climate Change & Disaster Resilience"}]}, {"title": "respuesta emergencia causada por depresion tropical e12", "id": "00063002", "subnational": [{"outputID": "00080302", "output_locID": "00080302-1", "name": "Chinandega", "focus_area": "5", "lat": "12.62937", "type": "PPLA", "awardID": "00063002", "lon": "-87.13105", "precision": "3", "focus_area_descr": "Climate Change & Disaster Resilience"}, {"outputID": "00080302", "output_locID": "00080302-2", "name": "El Viejo", "focus_area": "5", "lat": "12.70264", "type": "PPL", "awardID": "00063002", "lon": "-87.00588", "precision": "3", "focus_area_descr": "Climate Change & Disaster Resilience"}, {"outputID": "00080302", "output_locID": "00080302-3", "name": "Villanueva", "focus_area": "5", "lat": "12.96361", "type": "PPL", "awardID": "00063002", "lon": "-86.81472", "precision": "3", "focus_area_descr": "Climate Change & Disaster Resilience"}, {"outputID": "00080302", "output_locID": "00080302-4", "name": "Somotillo", "focus_area": "5", "lat": "13.04328", "type": "PPL", "awardID": "00063002", "lon": "-86.90645", "precision": "3", "focus_area_descr": "Climate Change & Disaster Resilience"}, {"outputID": "00080302", "output_locID": "00080302-5", "name": "Cinco Pinos", "focus_area": "5", "lat": "13.22956", "type": "PPL", "awardID": "00063002", "lon": "-86.86744", "precision": "3", "focus_area_descr": "Climate Change & Disaster Resilience"}, {"outputID": "00080302", "output_locID": "00080302-6", "name": "Santo Tomas", "focus_area": "5", "lat": "12.06938", "type": "PPL", "awardID": "00063002", "lon": "-85.09059", "precision": "3", "focus_area_descr": "Climate Change & Disaster Resilience"}, {"outputID": "00080302", "output_locID": "00080302-7", "name": "San Francisco", "focus_area": "5", "lat": "12.26667", "type": "ADM2", "awardID": "00063002", "lon": "-85.38333", "precision": "3", "focus_area_descr": "Climate Change & Disaster Resilience"}, {"outputID": "00080302", "output_locID": "00080302-8", "name": "San Pedro", "focus_area": "5", "lat": "12.70264", "type": "PPL", "awardID": "00063002", "lon": "-87.00588", "precision": "3", "focus_area_descr": "Climate Change & Disaster Resilience"}, {"outputID": "00080302", "output_locID": "00080302-9", "name": "Chinandega", "focus_area": "5", "lat": "12.62937", "type": "PPLA", "awardID": "00063002", "lon": "-87.13105", "precision": "3", "focus_area_descr": "Climate Change & Disaster Resilience"}, {"outputID": "00080302", "output_locID": "00080302-10", "name": "El Viejo", "focus_area": "5", "lat": "12.70264", "type": "PPL", "awardID": "00063002", "lon": "-87.00588", "precision": "3", "focus_area_descr": "Climate Change & Disaster Resilience"}, {"outputID": "00080302", "output_locID": "00080302-11", "name": "Villanueva", "focus_area": "5", "lat": "12.96361", "type": "PPL", "awardID": "00063002", "lon": "-86.81472", "precision": "3", "focus_area_descr": "Climate Change & Disaster Resilience"}, {"outputID": "00080302", "output_locID": "00080302-12", "name": "Somotillo", "focus_area": "5", "lat": "13.04328", "type": "PPL", "awardID": "00063002", "lon": "-86.90645", "precision": "3", "focus_area_descr": "Climate Change & Disaster Resilience"}, {"outputID": "00080302", "output_locID": "00080302-13", "name": "Cinco Pinos", "focus_area": "5", "lat": "13.22956", "type": "PPL", "awardID": "00063002", "lon": "-86.86744", "precision": "3", "focus_area_descr": "Climate Change & Disaster Resilience"}, {"outputID": "00080302", "output_locID": "00080302-14", "name": "Santo Tomas", "focus_area": "5", "lat": "12.06938", "type": "PPL", "awardID": "00063002", "lon": "-85.09059", "precision": "3", "focus_area_descr": "Climate Change & Disaster Resilience"}, {"outputID": "00080302", "output_locID": "00080302-15", "name": "San Francisco", "focus_area": "5", "lat": "12.26667", "type": "ADM2", "awardID": "00063002", "lon": "-85.38333", "precision": "3", "focus_area_descr": "Climate Change & Disaster Resilience"}, {"outputID": "00080302", "output_locID": "00080302-16", "name": "San Pedro", "focus_area": "5", "lat": "12.70264", "type": "PPL", "awardID": "00063002", "lon": "-87.00588", "precision": "3", "focus_area_descr": "Climate Change & Disaster Resilience"}, {"outputID": "00080302", "output_locID": "00080302-17", "name": "Chinandega", "focus_area": "5", "lat": "12.62937", "type": "PPLA", "awardID": "00063002", "lon": "-87.13105", "precision": "3", "focus_area_descr": "Climate Change & Disaster Resilience"}, {"outputID": "00080302", "output_locID": "00080302-18", "name": "El Viejo", "focus_area": "5", "lat": "12.70264", "type": "PPL", "awardID": "00063002", "lon": "-87.00588", "precision": "3", "focus_area_descr": "Climate Change & Disaster Resilience"}, {"outputID": "00080302", "output_locID": "00080302-19", "name": "Villanueva", "focus_area": "5", "lat": "12.96361", "type": "PPL", "awardID": "00063002", "lon": "-86.81472", "precision": "3", "focus_area_descr": "Climate Change & Disaster Resilience"}, {"outputID": "00080302", "output_locID": "00080302-20", "name": "Somotillo", "focus_area": "5", "lat": "13.04328", "type": "PPL", "awardID": "00063002", "lon": "-86.90645", "precision": "3", "focus_area_descr": "Climate Change & Disaster Resilience"}, {"outputID": "00080302", "output_locID": "00080302-21", "name": "Cinco Pinos", "focus_area": "5", "lat": "13.22956", "type": "PPL", "awardID": "00063002", "lon": "-86.86744", "precision": "3", "focus_area_descr": "Climate Change & Disaster Resilience"}, {"outputID": "00080302", "output_locID": "00080302-22", "name": "Santo Tomas", "focus_area": "5", "lat": "12.06938", "type": "PPL", "awardID": "00063002", "lon": "-85.09059", "precision": "3", "focus_area_descr": "Climate Change & Disaster Resilience"}, {"outputID": "00080302", "output_locID": "00080302-23", "name": "San Francisco", "focus_area": "5", "lat": "12.26667", "type": "ADM2", "awardID": "00063002", "lon": "-85.38333", "precision": "3", "focus_area_descr": "Climate Change & Disaster Resilience"}, {"outputID": "00080302", "output_locID": "00080302-24", "name": "San Pedro", "focus_area": "5", "lat": "12.70264", "type": "PPL", "awardID": "00063002", "lon": "-87.00588", "precision": "3", "focus_area_descr": "Climate Change & Disaster Resilience"}]}, {"title": "support to united nations coordination", "id": "00032161", "subnational": []}, {"title": "alianza para el manejo desechos solidos en managua", "id": "00056632", "subnational": [{"outputID": "00069437", "output_locID": "00069437-1", "name": "Managua", "focus_area": "-", "lat": "12.13282", "type": "PPLC", "awardID": "00056632", "lon": "-86.2504", "precision": "3", "focus_area_descr": "-"}]}, {"title": "desarrollo de la hidroelectricidad a peque\u00f1a escala", "id": "00014045", "subnational": [{"outputID": "00014045", "output_locID": "00014045-1", "name": "Nicaragua", "focus_area": "-", "lat": "13", "type": "PCL", "awardID": "00014045", "lon": "-85", "precision": "9", "focus_area_descr": "-"}]}, {"title": "fondo odm g\u00e9nero", "id": "00050727", "subnational": [{"outputID": "00062787", "output_locID": "00062787-1", "name": "Nicaragua", "focus_area": "-", "lat": "13", "type": "PCL", "awardID": "00050727", "lon": "-85", "precision": "9", "focus_area_descr": "-"}]}, {"title": "fortalecer policia y modelo policia-comunidad-proactiva", "id": "00058275", "subnational": [{"outputID": "00072339", "output_locID": "00072339-1", "name": "Region Autonoma del Atlantico Norte, Nicaragua", "focus_area": "-", "lat": "13", "type": "PCL", "awardID": "00058275", "lon": "-85", "precision": "9", "focus_area_descr": "-"}]}, {"title": "fortalecer seguridad ciudadana con medidas alternas", "id": "00061548", "subnational": [{"outputID": "00078007", "output_locID": "00078007-1", "name": "Nicaragua", "focus_area": "-", "lat": "13", "type": "PCL", "awardID": "00061548", "lon": "-85", "precision": "9", "focus_area_descr": "-"}]}, {"title": "fortalecimiento al ministerio de relaciones exteriores", "id": "00050419", "subnational": [{"outputID": "00062287", "output_locID": "00062287-1", "name": "Ministerio de Relaciones Exteriores, Nicaragua", "focus_area": "-", "lat": "12.13282", "type": "PPLC", "awardID": "00050419", "lon": "-86.2504", "precision": "3", "focus_area_descr": "-"}, {"outputID": "00062737", "output_locID": "00062737-1", "name": "Ministerio de Relaciones Exteriores, Nicaragua", "focus_area": "-", "lat": "12.13282", "type": "PPLC", "awardID": "00050419", "lon": "-86.2504", "precision": "3", "focus_area_descr": "-"}]}, {"title": "incorporacion acuerdos multilaterales ambientales", "id": "00050751", "subnational": [{"outputID": "00062823", "output_locID": "00062823-1", "name": "Nicaragua", "focus_area": "-", "lat": "13", "type": "PCL", "awardID": "00050751", "lon": "-85", "precision": "9", "focus_area_descr": "-"}]}, {"title": "iniciativa ma prevenci\u00f3n vih/sida", "id": "00033462", "subnational": []}, {"title": "mejoramiento del manejo y contenci\u00f3n de contaminantes", "id": "00050749", "subnational": [{"outputID": "00062821", "output_locID": "00062821-1", "name": "Nicaragua", "focus_area": "-", "lat": "13", "type": "PCL", "awardID": "00050749", "lon": "-85", "precision": "9", "focus_area_descr": "-"}]}, {"title": "programa asentamientos humanos sostenibles", "id": "00049894", "subnational": [{"outputID": "00061278", "output_locID": "00061278-1", "name": "Nicaragua", "focus_area": "-", "lat": "13", "type": "PCL", "awardID": "00049894", "lon": "-85", "precision": "9", "focus_area_descr": "-"}]}, {"title": "programa de peque\u00f1as donaciones nicaragua", "id": "00034097", "subnational": [{"outputID": "00036000", "output_locID": "00036000-1", "name": "Nicaragua", "focus_area": "-", "lat": "13", "type": "PCL", "awardID": "00034097", "lon": "-85", "precision": "9", "focus_area_descr": "-"}]}, {"title": "fortalecimiento sistema estadisticas nacionales", "id": "00034858", "subnational": []}, {"title": "plan de gesti\u00f3n eliminaci\u00f3n final de sustancias", "id": "00056686", "subnational": []}, {"title": "programa fortalecimiento seguridad ciudadana", "id": "00044713", "subnational": []}, {"title": "rehabilitaci\u00f3n y reconstrucci\u00f3n en \u00e1reas afectadas", "id": "00050823", "subnational": []}, {"title": "respuesta a emergencia huracan ida", "id": "00058772", "subnational": []}, {"title": "seguridad alimentaria centroamerica", "id": "00034919", "subnational": []}], "op_unit": "NIC"}