{"iso_num": null, "projects": [{"title": "desarrollo hidroelectricidad a peque\u00f1a escala fase ii", "id": "00059154", "subnational": [{"outputID": "00073889", "output_locID": "00073889-1", "name": "RAAN", "focus_area": "1", "lat": "14.000000", "type": "ADM1", "awardID": "00059154", "lon": "-84.250000", "precision": "1", "focus_area_descr": "Inclusive Growth"}]}, {"title": "programa sistema de informacion seguridad alimentaria", "id": "00059357", "subnational": [{"outputID": "00079813", "output_locID": "00079813-1", "name": "Managua", "focus_area": "7", "lat": "12.132820", "type": "PPLC", "awardID": "00059357", "lon": "-86.250400", "precision": "1", "focus_area_descr": "Thought Leadership"}]}, {"title": "programa regional  de seguridad alimentaria fase ii", "id": "00059913", "subnational": [{"outputID": "00075161", "output_locID": "00075161-1", "name": "Managua", "focus_area": "1", "lat": "12.132820", "type": "PPLC", "awardID": "00059913", "lon": "-86.250400", "precision": "1", "focus_area_descr": "Inclusive Growth"}, {"outputID": "00080159", "output_locID": "00080159-1", "name": "Managua", "focus_area": "1", "lat": "12.132820", "type": "PPLC", "awardID": "00059913", "lon": "-86.250400", "precision": "1", "focus_area_descr": "Inclusive Growth"}]}, {"title": "gesti\u00f3n integral y sostenible de residuos s\u00f3lidos", "id": "00068773", "subnational": [{"outputID": "00083754", "output_locID": "00083754-1", "name": "Rama", "focus_area": "1", "lat": "12.159650", "type": "PPL", "awardID": "00068773", "lon": "-84.219520", "precision": "1", "focus_area_descr": "Inclusive Growth"}, {"outputID": "00083754", "output_locID": "00083754-2", "name": "Corn Island", "focus_area": "1", "lat": "12.169430", "type": "PPL", "awardID": "00068773", "lon": "-83.041760", "precision": "1", "focus_area_descr": "Inclusive Growth"}, {"outputID": "00083754", "output_locID": "00083754-3", "name": "Municipio de Bluefields", "focus_area": "1", "lat": "12.000000", "type": "ADMD", "awardID": "00068773", "lon": "-84.166670", "precision": "1", "focus_area_descr": "Inclusive Growth"}, {"outputID": "00086556", "output_locID": "00086556-1", "name": "Municipio de Bluefields", "focus_area": "1", "lat": "12.000000", "type": "ADMD", "awardID": "00068773", "lon": "-84.166670", "precision": "1", "focus_area_descr": "Inclusive Growth"}, {"outputID": "00086557", "output_locID": "00086557-1", "name": "Corn Island", "focus_area": "1", "lat": "12.169430", "type": "PPL", "awardID": "00068773", "lon": "-83.041760", "precision": "1", "focus_area_descr": "Inclusive Growth"}, {"outputID": "00086558", "output_locID": "00086558-1", "name": "Rama", "focus_area": "1", "lat": "12.159650", "type": "PPL", "awardID": "00068773", "lon": "-84.219520", "precision": "1", "focus_area_descr": "Inclusive Growth"}, {"outputID": "00086736", "output_locID": "00086736-1", "name": "Rama", "focus_area": "1", "lat": "12.159650", "type": "PPL", "awardID": "00068773", "lon": "-84.219520", "precision": "1", "focus_area_descr": "Inclusive Growth"}, {"outputID": "00086736", "output_locID": "00086736-2", "name": "Corn Island", "focus_area": "1", "lat": "12.169430", "type": "PPL", "awardID": "00068773", "lon": "-83.041760", "precision": "1", "focus_area_descr": "Inclusive Growth"}, {"outputID": "00086736", "output_locID": "00086736-3", "name": "Municipio de Bluefields", "focus_area": "1", "lat": "12.000000", "type": "ADMD", "awardID": "00068773", "lon": "-84.166670", "precision": "1", "focus_area_descr": "Inclusive Growth"}]}, {"title": "desarrollo econ\u00f3mico local sostenible en la costa caribe", "id": "00081421", "subnational": [{"outputID": "00091471", "output_locID": "00091471-1", "name": "Regi\u00f3n Aut\u00f3noma Atl\u00e1ntico Sur", "focus_area": "1", "lat": "12.250000", "type": "ADM1", "awardID": "00081421", "lon": "-84.250000", "precision": "1", "focus_area_descr": "Inclusive Growth"}, {"outputID": "00091498", "output_locID": "00091498-1", "name": "Regi\u00f3n Aut\u00f3noma Atl\u00e1ntico Sur", "focus_area": "1", "lat": "12.250000", "type": "ADM1", "awardID": "00081421", "lon": "-84.250000", "precision": "1", "focus_area_descr": "Inclusive Growth"}]}, {"title": "cobertura rural de seguridad ciudadana de la policia", "id": "00045509", "subnational": [{"outputID": "00053775", "output_locID": "00053775-1", "name": "Managua", "focus_area": "-", "lat": "12.132820", "type": "PPLC", "awardID": "00045509", "lon": "-86.250400", "precision": "1", "focus_area_descr": "-"}]}, {"title": "promoci\u00f3n de un transporte ambientalmente sostenible", "id": "00048774", "subnational": [{"outputID": "00059044", "output_locID": "00059044-1", "name": "Managua", "focus_area": "1", "lat": "12.132820", "type": "PPLC", "awardID": "00048774", "lon": "-86.250400", "precision": "1", "focus_area_descr": "Inclusive Growth"}]}, {"title": "reducci\u00f3n de riesgos y vulnerabilidad", "id": "00059776", "subnational": [{"outputID": "00074925", "output_locID": "00074925-1", "name": "Municipio de El Sauce", "focus_area": "1", "lat": "12.900000", "type": "ADMD", "awardID": "00059776", "lon": "-86.500000", "precision": "1", "focus_area_descr": "Inclusive Growth"}]}, {"title": "enfoque territorial contra el cambio clim\u00e1tico", "id": "00063593", "subnational": [{"outputID": "00080595", "output_locID": "00080595-1", "name": "Telpaneca", "focus_area": "1", "lat": "13.531660", "type": "PPL", "awardID": "00063593", "lon": "-86.287100", "precision": "1", "focus_area_descr": "Inclusive Growth"}, {"outputID": "00080595", "output_locID": "00080595-2", "name": "Somoto", "focus_area": "1", "lat": "13.480820", "type": "PPLA", "awardID": "00063593", "lon": "-86.582080", "precision": "1", "focus_area_descr": "Inclusive Growth"}, {"outputID": "00080595", "output_locID": "00080595-3", "name": "San Lucas", "focus_area": "1", "lat": "13.413800", "type": "PPL", "awardID": "00063593", "lon": "-86.611100", "precision": "1", "focus_area_descr": "Inclusive Growth"}, {"outputID": "00080595", "output_locID": "00080595-4", "name": "Ocotal", "focus_area": "1", "lat": "13.632080", "type": "PPLA", "awardID": "00063593", "lon": "-86.475160", "precision": "1", "focus_area_descr": "Inclusive Growth"}, {"outputID": "00080595", "output_locID": "00080595-5", "name": "Departamento de Nueva Segovia", "focus_area": "1", "lat": "13.700000", "type": "ADM1", "awardID": "00063593", "lon": "-86.166670", "precision": "1", "focus_area_descr": "Inclusive Growth"}, {"outputID": "00080595", "output_locID": "00080595-6", "name": "Mozonte", "focus_area": "1", "lat": "13.660340", "type": "PPL", "awardID": "00063593", "lon": "-86.438410", "precision": "1", "focus_area_descr": "Inclusive Growth"}, {"outputID": "00080595", "output_locID": "00080595-7", "name": "Departamento de Madriz", "focus_area": "1", "lat": "13.500000", "type": "ADM1", "awardID": "00063593", "lon": "-86.416670", "precision": "1", "focus_area_descr": "Inclusive Growth"}, {"outputID": "00080595", "output_locID": "00080595-8", "name": "Macuelizo", "focus_area": "1", "lat": "13.653280", "type": "PPL", "awardID": "00063593", "lon": "-86.612970", "precision": "1", "focus_area_descr": "Inclusive Growth"}, {"outputID": "00080595", "output_locID": "00080595-9", "name": "Estel\u00ed", "focus_area": "1", "lat": "13.091850", "type": "PPLA", "awardID": "00063593", "lon": "-86.353840", "precision": "1", "focus_area_descr": "Inclusive Growth"}, {"outputID": "00080595", "output_locID": "00080595-10", "name": "Municipio de Santa Mar\u00eda de Pantasma", "focus_area": "1", "lat": "13.196430", "type": "ADM2", "awardID": "00063593", "lon": "-85.826870", "precision": "1", "focus_area_descr": "Inclusive Growth"}]}, {"title": "mejoramiento de prevencion y justicia", "id": "00068892", "subnational": [{"outputID": "00084334", "output_locID": "00084334-1", "name": "Somoto", "focus_area": "4", "lat": "13.480820", "type": "PPLA", "awardID": "00068892", "lon": "-86.582080", "precision": "1", "focus_area_descr": "Gender Equality"}, {"outputID": "00084334", "output_locID": "00084334-2", "name": "Bilwi", "focus_area": "4", "lat": "14.035070", "type": "PPLA", "awardID": "00068892", "lon": "-83.388820", "precision": "1", "focus_area_descr": "Gender Equality"}, {"outputID": "00084334", "output_locID": "00084334-3", "name": "Managua", "focus_area": "4", "lat": "12.132820", "type": "PPLC", "awardID": "00068892", "lon": "-86.250400", "precision": "1", "focus_area_descr": "Gender Equality"}, {"outputID": "00084334", "output_locID": "00084334-4", "name": "Departamento de Le\u00f3n", "focus_area": "4", "lat": "12.583330", "type": "ADM1", "awardID": "00068892", "lon": "-86.583330", "precision": "1", "focus_area_descr": "Gender Equality"}, {"outputID": "00084334", "output_locID": "00084334-5", "name": "Laguna de Perlas", "focus_area": "4", "lat": "12.342940", "type": "PPL", "awardID": "00068892", "lon": "-83.671230", "precision": "1", "focus_area_descr": "Gender Equality"}, {"outputID": "00084334", "output_locID": "00084334-6", "name": "Departamento de Estel\u00ed", "focus_area": "4", "lat": "13.166670", "type": "ADM1", "awardID": "00068892", "lon": "-86.333330", "precision": "1", "focus_area_descr": "Gender Equality"}, {"outputID": "00084334", "output_locID": "00084334-7", "name": "Municipio de Bluefields", "focus_area": "4", "lat": "12.000000", "type": "ADMD", "awardID": "00068892", "lon": "-84.166670", "precision": "1", "focus_area_descr": "Gender Equality"}]}, {"title": "apoyo al fortalecimiento asamblea nacional", "id": "00075103", "subnational": [{"outputID": "00087201", "output_locID": "00087201-1", "name": "Managua", "focus_area": "2", "lat": "12.132820", "type": "PPLC", "awardID": "00075103", "lon": "-86.250400", "precision": "1", "focus_area_descr": "Democratic Governance"}, {"outputID": "00087216", "output_locID": "00087216-1", "name": "Managua", "focus_area": "2", "lat": "12.132820", "type": "PPLC", "awardID": "00075103", "lon": "-86.250400", "precision": "1", "focus_area_descr": "Democratic Governance"}, {"outputID": "00087217", "output_locID": "00087217-1", "name": "Managua", "focus_area": "2", "lat": "12.132820", "type": "PPLC", "awardID": "00075103", "lon": "-86.250400", "precision": "1", "focus_area_descr": "Democratic Governance"}, {"outputID": "00087219", "output_locID": "00087219-1", "name": "Managua", "focus_area": "2", "lat": "12.132820", "type": "PPLC", "awardID": "00075103", "lon": "-86.250400", "precision": "1", "focus_area_descr": "Democratic Governance"}]}, {"title": "tercera comunicaci\u00f3n nacional de cambio clim\u00e1tico", "id": "00075678", "subnational": []}, {"title": "desarrollo humano sostenible en nicaragua", "id": "00077873", "subnational": [{"outputID": "00088444", "output_locID": "00088444-1", "name": "Managua", "focus_area": "7", "lat": "12.132820", "type": "PPLC", "awardID": "00077873", "lon": "-86.250400", "precision": "1", "focus_area_descr": "Thought Leadership"}, {"outputID": "00088449", "output_locID": "00088449-1", "name": "Managua", "focus_area": "7", "lat": "12.132820", "type": "PPLC", "awardID": "00077873", "lon": "-86.250400", "precision": "1", "focus_area_descr": "Thought Leadership"}]}, {"title": "common services", "id": "00078802", "subnational": []}, {"title": "finanzas del clima (cpeir)", "id": "00081042", "subnational": []}, {"title": "resiliencia de areas protegidas", "id": "00083775", "subnational": []}, {"title": "apoyo a agencia de promoci\u00f3n inversiones y exportaciones", "id": "00014029", "subnational": []}, {"title": "programa desarrollo humano de nicaragua", "id": "00050197", "subnational": []}, {"title": "programa de apoyo a la integraci\u00f3n regional fase ii", "id": "00060676", "subnational": []}, {"title": "programa apoyo integral desarrollo de h\u00e1bitat sostenible", "id": "00066306", "subnational": []}, {"title": "seguridad humana en el alto wangki y bocay", "id": "00070023", "subnational": []}, {"title": "acompa\u00f1amiento a la secretaria de desarrollo", "id": "00070217", "subnational": []}, {"title": "planificaci\u00f3n nacional de la biodiversidad", "id": "00070631", "subnational": []}, {"title": "desarrollo de capacidades locales para gesti\u00f3n ambiental", "id": "00072230", "subnational": []}, {"title": "apoyo a secretaria de cooperaci\u00f3n externa", "id": "00073313", "subnational": []}, {"title": "tecnolog\u00edas de informaci\u00f3n para tramitolog\u00eda", "id": "00076100", "subnational": []}, {"title": "ampliaci\u00f3n y equipamiento cobertura rural de la polic\u00eda", "id": "00077973", "subnational": []}, {"title": "inversi\u00f3n, exportaci\u00f3n, desarrollo agroindustrial", "id": "00079789", "subnational": []}, {"title": "recuperaci\u00f3n post terremoto", "id": "00081696", "subnational": []}, {"title": "control armas y prevenci\u00f3n violencia armada juvenil", "id": "00084494", "subnational": []}, {"title": "gesti\u00f3n territorial de a y s rio dipilto", "id": "00088523", "subnational": []}, {"title": "mejoramiento colegio nnuu", "id": "00089006", "subnational": []}, {"title": "resilience oriented information systems -progresan", "id": "00089818", "subnational": []}, {"title": "desarrollo humano costa caribe de nicaragua", "id": "00014048", "subnational": []}, {"title": "fondo odm gobernabilidad agua y saneamiento nicaragua", "id": "00051458", "subnational": []}, {"title": "fondo odm revitalizacion cultural y des productivo", "id": "00057114", "subnational": []}, {"title": "proyecto pana laka ii", "id": "00058273", "subnational": []}, {"title": "apoyo al control de armas en nicaragua", "id": "00061289", "subnational": []}, {"title": "programa  pueblos indigenas y afrodescendientes", "id": "00066868", "subnational": []}, {"title": "gesti\u00f3n del conocimiento, innovaci\u00f3n y desarrollo", "id": "00070142", "subnational": []}, {"title": "fomento de mercados para la agroindustria sostenible", "id": "00071228", "subnational": []}, {"title": "comunicaci\u00f3n para el cambio", "id": "00072145", "subnational": []}, {"title": "plan de inicio agenda joven nicaragua", "id": "00072953", "subnational": []}, {"title": "frontera norte de nicaragua", "id": "00074358", "subnational": []}, {"title": "fortalecer capacidades gesti\u00f3n de riesgos y recuperaci\u00f3n", "id": "00074363", "subnational": []}, {"title": "plan de inicio resiliencia de \u00e1reas protegidas", "id": "00077472", "subnational": []}, {"title": "engagement facility", "id": "00082188", "subnational": []}, {"title": "dss  & das", "id": "00032004", "subnational": []}, {"title": "support to united nations coordination", "id": "00032161", "subnational": []}, {"title": "capacitaci\u00f3n en autoconstrucci\u00f3n de viviendas y centros", "id": "00035481", "subnational": []}, {"title": "manejo sostenible de la tierra en areas degradadas", "id": "00041235", "subnational": []}, {"title": "equidad de genero", "id": "00043528", "subnational": []}, {"title": "programa gobernabilidad costa caribe de nicaragua", "id": "00046305", "subnational": []}, {"title": "fortalecimiento sistema areas protegidas", "id": "00046611", "subnational": []}, {"title": "programa conjunto de gesti\u00f3n ambiental", "id": "00048669", "subnational": []}, {"title": "institucionalidad democr\u00e1tica parlamento", "id": "00048917", "subnational": []}, {"title": "grupo tem\u00e1tico vih nicaragua", "id": "00050658", "subnational": []}, {"title": "programa conjunto juventud, empleo y migracion (jem)", "id": "00050792", "subnational": []}, {"title": "fondo odm infancia y seguridad alimentaria", "id": "00058930", "subnational": []}, {"title": "programa interagencial de gesti\u00f3n de riesgos", "id": "00061888", "subnational": []}, {"title": "respuesta emergencia causada por depresion tropical e12", "id": "00063002", "subnational": []}, {"title": "articulaci\u00f3n redes territoriales y tem\u00e1ticas (art)", "id": "00068819", "subnational": []}, {"title": "apoyo a comisar\u00edas para cumplir ley 779", "id": "00069797", "subnational": []}, {"title": "desarrollo econ\u00f3mico local - turismo sostenible", "id": "00071274", "subnational": []}, {"title": "desarrollo de la hidroelectricidad a peque\u00f1a escala", "id": "00014045", "subnational": []}, {"title": "iniciativa ma prevenci\u00f3n vih/sida", "id": "00033462", "subnational": []}, {"title": "programa de peque\u00f1as donaciones nicaragua", "id": "00034097", "subnational": []}, {"title": "programa asentamientos humanos sostenibles", "id": "00049894", "subnational": []}, {"title": "fortalecimiento al ministerio de relaciones exteriores", "id": "00050419", "subnational": []}, {"title": "fondo odm g\u00e9nero", "id": "00050727", "subnational": []}, {"title": "mejoramiento del manejo y contenci\u00f3n de contaminantes", "id": "00050749", "subnational": []}, {"title": "incorporacion acuerdos multilaterales ambientales", "id": "00050751", "subnational": []}, {"title": "alianza para el manejo desechos solidos en managua", "id": "00056632", "subnational": []}, {"title": "fortalecer policia y modelo policia-comunidad-proactiva", "id": "00058275", "subnational": []}, {"title": "fortalecer seguridad ciudadana con medidas alternas", "id": "00061548", "subnational": []}, {"title": "fortalecimiento sistema estadisticas nacionales", "id": "00034858", "subnational": []}, {"title": "plan de gesti\u00f3n eliminaci\u00f3n final de sustancias", "id": "00056686", "subnational": []}, {"title": "programa fortalecimiento seguridad ciudadana", "id": "00044713", "subnational": []}, {"title": "rehabilitaci\u00f3n y reconstrucci\u00f3n en \u00e1reas afectadas", "id": "00050823", "subnational": []}, {"title": "respuesta a emergencia huracan ida", "id": "00058772", "subnational": []}, {"title": "seguridad alimentaria centroamerica", "id": "00034919", "subnational": []}], "op_unit": "NIC"}