{"iso_num":"558","op_unit":"NIC","projects":[{"id":"00070217","subnational":[{"awardID":"00070217","focus_area":"2","focus_area_descr":"Democratic governance","lat":"13.53333","lon":"-85.53333","name":"Alto Wangki","outputID":"00084332","output_locID":"00084332-1","precision":"3","type":"PPL"},{"awardID":"00070217","focus_area":"2","focus_area_descr":"Democratic governance","lat":"13.53333","lon":"-85.53333","name":"Bocay","outputID":"00084332","output_locID":"00084332-2","precision":"3","type":"PPL"}],"title":"Acompa\u00f1amiento a la Secretaria de Desarrollo de la CC"},{"id":"00014029","subnational":[{"awardID":"00014029","focus_area":"1","focus_area_descr":"Poverty reduction & MDG achievement","lat":"13","lon":"-85","name":"Nicaragua","outputID":"00062736","output_locID":"00062736-1","precision":"9","type":"PCL"},{"awardID":"00014029","focus_area":"1","focus_area_descr":"Poverty reduction & MDG achievement","lat":"13","lon":"-85","name":"Nicaragua","outputID":"00086106","output_locID":"00086106-1","precision":"9","type":"PCL"},{"awardID":"00014029","focus_area":"-","focus_area_descr":"-","lat":"13","lon":"-85","name":"Nicaragua","outputID":"00078896","output_locID":"00078896-1","precision":"9","type":"PCL"}],"title":"Agencia de Promoci\u00f3n de Inversiones PRONicaragua"},{"id":"00069797","subnational":[{"awardID":"00069797","focus_area":"2","focus_area_descr":"Democratic governance","lat":"13","lon":"-85","name":"Nicaragua","outputID":"00084152","output_locID":"00084152-1","precision":"9","type":"PCL"}],"title":"Apoyo a Comisar\u00edas para cumplir Ley 779"},{"id":"00073313","subnational":[{"awardID":"00073313","focus_area":"2","focus_area_descr":"Democratic governance","lat":"13","lon":"-85","name":"Nicaragua","outputID":"00086181","output_locID":"00086181-1","precision":"9","type":"PCL"},{"awardID":"00073313","focus_area":"2","focus_area_descr":"Democratic governance","lat":"13","lon":"-85","name":"Nicaragua","outputID":"00086298","output_locID":"00086298-1","precision":"9","type":"PCL"},{"awardID":"00073313","focus_area":"2","focus_area_descr":"Democratic governance","lat":"13","lon":"-85","name":"Nicaragua","outputID":"00086559","output_locID":"00086559-1","precision":"9","type":"PCL"}],"title":"Apoyo a Secretaria de Cooperaci\u00f3n Externa"},{"id":"00061289","subnational":[{"awardID":"00061289","focus_area":"2","focus_area_descr":"Democratic governance","lat":"13","lon":"-85","name":"Nicaragua","outputID":"00077606","output_locID":"00077606-1","precision":"9","type":"PCL"}],"title":"Apoyo al Control de Armas en Nicaragua"},{"id":"00075103","subnational":[{"awardID":"00075103","focus_area":"2","focus_area_descr":"Democratic governance","lat":"13","lon":"-85","name":"Nicaragua","outputID":"00087218","output_locID":"00087218-1","precision":"9","type":"PCL"},{"awardID":"00075103","focus_area":"2","focus_area_descr":"Democratic governance","lat":"13","lon":"-85","name":"Nicaragua","outputID":"00087219","output_locID":"00087219-1","precision":"9","type":"PCL"},{"awardID":"00075103","focus_area":"2","focus_area_descr":"Democratic governance","lat":"13","lon":"-85","name":"Nicaragua","outputID":"00087201","output_locID":"00087201-1","precision":"9","type":"PCL"},{"awardID":"00075103","focus_area":"2","focus_area_descr":"Democratic governance","lat":"13","lon":"-85","name":"Nicaragua","outputID":"00087216","output_locID":"00087216-1","precision":"9","type":"PCL"},{"awardID":"00075103","focus_area":"2","focus_area_descr":"Democratic governance","lat":"13","lon":"-85","name":"Nicaragua","outputID":"00087217","output_locID":"00087217-1","precision":"9","type":"PCL"}],"title":"Apoyo al Fortalecimiento Asamblea Nacional"},{"id":"00068819","subnational":[{"awardID":"00068819","focus_area":"1","focus_area_descr":"Poverty reduction & MDG achievement","lat":"13.09185","lon":"-86.35384","name":"Esteli","outputID":"00083764","output_locID":"00083764-1","precision":"9","type":"ADM2"},{"awardID":"00068819","focus_area":"1","focus_area_descr":"Poverty reduction & MDG achievement","lat":"13.09185","lon":"-86.35384","name":"Esteli","outputID":"00083764","output_locID":"00083764-2","precision":"9","type":"ADM2"},{"awardID":"00068819","focus_area":"1","focus_area_descr":"Poverty reduction & MDG achievement","lat":"13.7","lon":"-86.16667","name":"Nueva Segovia","outputID":"00083764","output_locID":"00083764-3","precision":"4","type":"ADM1"},{"awardID":"00068819","focus_area":"1","focus_area_descr":"Poverty reduction & MDG achievement","lat":"13.5","lon":"-86.41667","name":"Madriz","outputID":"00083764","output_locID":"00083764-4","precision":"4","type":"ADM1"}],"title":"Articulaci\u00f3n Redes Territoriales y Tem\u00e1ticas (ART)"},{"id":"00035481","subnational":[{"awardID":"00035481","focus_area":"1","focus_area_descr":"Poverty reduction & MDG achievement","lat":"11.97444","lon":"-86.09417","name":"Masaya","outputID":"00057969","output_locID":"00057969-1","precision":"4","type":"ADM1"},{"awardID":"00035481","focus_area":"1","focus_area_descr":"Poverty reduction & MDG achievement","lat":"13","lon":"-85","name":"Nicaragua","outputID":"00084167","output_locID":"00084167-1","precision":"9","type":"PCL"}],"title":"Capacitaci\u00f3n en Autoconstrucci\u00f3n de Viviendas y Centros"},{"id":"00045509","subnational":[{"awardID":"00045509","focus_area":"2","focus_area_descr":"Democratic governance","lat":"13","lon":"-85","name":"Nicaragua","outputID":"00053775","output_locID":"00053775-1","precision":"9","type":"PCL"},{"awardID":"00045509","focus_area":"-","focus_area_descr":"-","lat":"13","lon":"-85","name":"Nicaragua","outputID":"00053774","output_locID":"00053774-1","precision":"9","type":"PCL"}],"title":"Cobertura Rural de Seguridad Ciudadana de la Policia"},{"id":"00076100","subnational":[],"title":"Competitividad y clima de negocios en Nicaragua"},{"id":"00072145","subnational":[{"awardID":"00072145","focus_area":"2","focus_area_descr":"Democratic governance","lat":"13.53333","lon":"-85.53333","name":"Alto Wangki","outputID":"00085328","output_locID":"00085328-1","precision":"3","type":"PPL"},{"awardID":"00072145","focus_area":"2","focus_area_descr":"Democratic governance","lat":"13.53333","lon":"-85.53333","name":"Bocay","outputID":"00085328","output_locID":"00085328-2","precision":"3","type":"PPL"}],"title":"Comunicaci\u00f3n para el Cambio"},{"id":"00072230","subnational":[{"awardID":"00072230","focus_area":"4","focus_area_descr":"Environment & sustainable development","lat":"13.11278","lon":"-87.59417","name":"Golfo de Fonseca","outputID":"00085375","output_locID":"00085375-1","precision":"4","type":"RES"},{"awardID":"00072230","focus_area":"4","focus_area_descr":"Environment & sustainable development","lat":"12.62937","lon":"-87.13105","name":"Chinandega","outputID":"00085375","output_locID":"00085375-2","precision":"3","type":"PPLA"},{"awardID":"00072230","focus_area":"4","focus_area_descr":"Environment & sustainable development","lat":"13.44305","lon":"-85.14404","name":"Bosawas","outputID":"00085375","output_locID":"00085375-3","precision":"4","type":"RES"}],"title":"Desarrollo de capacidades locales para gesti\u00f3n ambiental"},{"id":"00071274","subnational":[{"awardID":"00071274","focus_area":"2","focus_area_descr":"Democratic governance","lat":"12.13282","lon":"-86.2504","name":"Managua","outputID":"00084854","output_locID":"00084854-1","precision":"3","type":"PPLC"}],"title":"Desarrollo Econ\u00f3mico Local - Turismo Sostenible"},{"id":"00059154","subnational":[{"awardID":"00059154","focus_area":"4","focus_area_descr":"Environment & sustainable development","lat":"13","lon":"-85","name":"Region Autonoma del Atlantico Norte, Nicaragua","outputID":"00073889","output_locID":"00073889-1","precision":"9","type":"PCL"}],"title":"Desarrollo hidroelectricidad a peque\u00f1a escala Fase II"},{"id":"00014048","subnational":[{"awardID":"00014048","focus_area":"2","focus_area_descr":"Democratic governance","lat":"13","lon":"-85","name":"Atlantico Sur","outputID":"00014048","output_locID":"00014048-1","precision":"9","type":"PCL"},{"awardID":"00014048","focus_area":"2","focus_area_descr":"Democratic governance","lat":"13","lon":"-85","name":"Atlantico Norte","outputID":"00014048","output_locID":"00014048-2","precision":"9","type":"PCL"},{"awardID":"00014048","focus_area":"2","focus_area_descr":"Democratic governance","lat":"12.13282","lon":"-86.2504","name":"Managua","outputID":"00014048","output_locID":"00014048-3","precision":"3","type":"PPLC"}],"title":"Desarrollo Humano Costa Caribe de Nicaragua"},{"id":"00032004","subnational":[{"awardID":"00032004","focus_area":"-","focus_area_descr":"-","lat":"12.13282","lon":"-86.2504","name":"Managua","outputID":"00032253","output_locID":"00032253-1","precision":"3","type":"PPLC"}],"title":"DSS  & DAS"},{"id":"00063593","subnational":[{"awardID":"00063593","focus_area":"4","focus_area_descr":"Environment & sustainable development","lat":"13.65328","lon":"-86.61297","name":"Macuelizo","outputID":"00080595","output_locID":"00080595-1","precision":"3","type":"PPL"},{"awardID":"00063593","focus_area":"4","focus_area_descr":"Environment & sustainable development","lat":"13.19643","lon":"-85.82687","name":"Santa Maria","outputID":"00080595","output_locID":"00080595-2","precision":"3","type":"ADM2"},{"awardID":"00063593","focus_area":"4","focus_area_descr":"Environment & sustainable development","lat":"13.66034","lon":"-86.43841","name":"Mozonte","outputID":"00080595","output_locID":"00080595-3","precision":"3","type":"PPL"},{"awardID":"00063593","focus_area":"4","focus_area_descr":"Environment & sustainable development","lat":"13.7","lon":"-86.16667","name":"Nueva Segovia","outputID":"00080595","output_locID":"00080595-4","precision":"4","type":"ADM1"},{"awardID":"00063593","focus_area":"4","focus_area_descr":"Environment & sustainable development","lat":"13.4138","lon":"-86.6111","name":"San Lucas","outputID":"00080595","output_locID":"00080595-5","precision":"3","type":"PPL"},{"awardID":"00063593","focus_area":"4","focus_area_descr":"Environment & sustainable development","lat":"13.53166","lon":"-86.2871","name":"Telpaneca","outputID":"00080595","output_locID":"00080595-6","precision":"3","type":"PPL"},{"awardID":"00063593","focus_area":"4","focus_area_descr":"Environment & sustainable development","lat":"13.5","lon":"-86.41667","name":"Madriz","outputID":"00080595","output_locID":"00080595-7","precision":"4","type":"ADM1"},{"awardID":"00063593","focus_area":"4","focus_area_descr":"Environment & sustainable development","lat":"13.09185","lon":"-86.35384","name":"Esteli","outputID":"00080595","output_locID":"00080595-8","precision":"3","type":"PPLA"},{"awardID":"00063593","focus_area":"4","focus_area_descr":"Environment & sustainable development","lat":"13.63208","lon":"-86.47516","name":"Ocotal","outputID":"00080595","output_locID":"00080595-9","precision":"3","type":"PPLA"},{"awardID":"00063593","focus_area":"4","focus_area_descr":"Environment & sustainable development","lat":"13.48082","lon":"-86.58208","name":"Somoto","outputID":"00080595","output_locID":"00080595-10","precision":"3","type":"PPLA"}],"title":"Enfoque Territorial contra el Cambio Clim\u00e1tico (TACC)"},{"id":"00043528","subnational":[{"awardID":"00043528","focus_area":"-","focus_area_descr":"-","lat":"13","lon":"-85","name":"Nicaragua","outputID":"00050855","output_locID":"00050855-1","precision":"9","type":"PCL"}],"title":"Equidad de GENERO"},{"id":"00071228","subnational":[{"awardID":"00071228","focus_area":"1","focus_area_descr":"Poverty reduction & MDG achievement","lat":"13","lon":"-85","name":"Nicaragua","outputID":"00084832","output_locID":"00084832-1","precision":"9","type":"PCL"}],"title":"Fomento de Mercados para la Agroindustria Sostenible"},{"id":"00051458","subnational":[{"awardID":"00051458","focus_area":"-","focus_area_descr":"-","lat":"13","lon":"-85","name":"Regiones Autonomas del Atlantico Sur","outputID":"00071553","output_locID":"00071553-1","precision":"9","type":"PCL"},{"awardID":"00051458","focus_area":"-","focus_area_descr":"-","lat":"13","lon":"-85","name":"Regiones Autonomas del Atlantico Norte","outputID":"00071553","output_locID":"00071553-2","precision":"9","type":"PCL"},{"awardID":"00051458","focus_area":"-","focus_area_descr":"-","lat":"12.13282","lon":"-86.2504","name":"Managua","outputID":"00071553","output_locID":"00071553-3","precision":"3","type":"PPLC"},{"awardID":"00051458","focus_area":"-","focus_area_descr":"-","lat":"13","lon":"-85","name":"Nicaragua","outputID":"00064080","output_locID":"00064080-1","precision":"9","type":"PCL"},{"awardID":"00051458","focus_area":"-","focus_area_descr":"-","lat":"13","lon":"-85","name":"Nicaragua","outputID":"00071552","output_locID":"00071552-1","precision":"9","type":"PCL"}],"title":"Fondo ODM Gobernabilidad Agua y Saneamiento Nicaragua"},{"id":"00058930","subnational":[{"awardID":"00058930","focus_area":"2","focus_area_descr":"Democratic governance","lat":"14.02885","lon":"-84.59103","name":"Bonanza","outputID":"00073434","output_locID":"00073434-1","precision":"3","type":"PPL"},{"awardID":"00058930","focus_area":"2","focus_area_descr":"Democratic governance","lat":"14.02885","lon":"-84.59103","name":"Bonanza","outputID":"00073806","output_locID":"00073806-1","precision":"3","type":"PPL"}],"title":"Fondo ODM Infancia y Seguridad Alimentaria"},{"id":"00057114","subnational":[{"awardID":"00057114","focus_area":"2","focus_area_descr":"Democratic governance","lat":"13","lon":"-85","name":"Nicaragua","outputID":"00070442","output_locID":"00070442-1","precision":"9","type":"PCL"},{"awardID":"00057114","focus_area":"2","focus_area_descr":"Democratic governance","lat":"13","lon":"-85","name":"Regiones Autonomas del Atlantico Norte","outputID":"00071540","output_locID":"00071540-1","precision":"9","type":"PCL"},{"awardID":"00057114","focus_area":"2","focus_area_descr":"Democratic governance","lat":"12.13282","lon":"-86.2504","name":"Managua","outputID":"00071540","output_locID":"00071540-2","precision":"3","type":"PPLC"},{"awardID":"00057114","focus_area":"-","focus_area_descr":"-","lat":"13","lon":"-85","name":"Nicaragua","outputID":"00071539","output_locID":"00071539-1","precision":"9","type":"PCL"}],"title":"Fondo ODM Revitalizacion Cultural y Des Productivo"},{"id":"00074363","subnational":[{"awardID":"00074363","focus_area":"-","focus_area_descr":"-","lat":"13","lon":"-85","name":"Nicaragua","outputID":"00086809","output_locID":"00086809-1","precision":"9","type":"PCL"}],"title":"Fortalecer capacidades en Gestion de Riesgos y Recupera"},{"id":"00046611","subnational":[{"awardID":"00046611","focus_area":"4","focus_area_descr":"Environment & sustainable development","lat":"12.43787","lon":"-86.87804","name":"Leon","outputID":"00055603","output_locID":"00055603-1","precision":"3","type":"PPLA"},{"awardID":"00046611","focus_area":"4","focus_area_descr":"Environment & sustainable development","lat":"12.62937","lon":"-87.13105","name":"Chinandega","outputID":"00055603","output_locID":"00055603-2","precision":"3","type":"PPLA"},{"awardID":"00046611","focus_area":"4","focus_area_descr":"Environment & sustainable development","lat":"13.09171","lon":"-86.00177","name":"Jinotega","outputID":"00055603","output_locID":"00055603-3","precision":"3","type":"PPLA"}],"title":"Fortalecimiento Sistema Areas Protegidas"},{"id":"00074358","subnational":[{"awardID":"00074358","focus_area":"-","focus_area_descr":"-","lat":"13.11278","lon":"-87.59417","name":"Golfo de Fonseca","outputID":"00086805","output_locID":"00086805-1","precision":"4","type":"RES"},{"awardID":"00074358","focus_area":"-","focus_area_descr":"-","lat":"13.09171","lon":"-86.00177","name":"Jinotega","outputID":"00086805","output_locID":"00086805-2","precision":"3","type":"PPLA"},{"awardID":"00074358","focus_area":"-","focus_area_descr":"-","lat":"13.7","lon":"-86.16667","name":"Nueva Segovia","outputID":"00086805","output_locID":"00086805-3","precision":"4","type":"ADM1"}],"title":"Frontera Norte de Nicaragua"},{"id":"00070142","subnational":[{"awardID":"00070142","focus_area":"1","focus_area_descr":"Poverty reduction & MDG achievement","lat":"13","lon":"-85","name":"Nicaragua","outputID":"00084288","output_locID":"00084288-1","precision":"9","type":"PCL"}],"title":"Gesti\u00f3n del Conocimiento, Innovaci\u00f3n y Desarrollo"},{"id":"00068773","subnational":[{"awardID":"00068773","focus_area":"4","focus_area_descr":"Environment & sustainable development","lat":"12.01366","lon":"-83.76353","name":"Bluefields","outputID":"00083754","output_locID":"00083754-1","precision":"9","type":"ADM2"},{"awardID":"00068773","focus_area":"4","focus_area_descr":"Environment & sustainable development","lat":"12.1629","lon":"-83.0638","name":"Corn Island","outputID":"00083754","output_locID":"00083754-2","precision":"9","type":"PPL"},{"awardID":"00068773","focus_area":"4","focus_area_descr":"Environment & sustainable development","lat":"13.09185","lon":"-86.35384","name":"Esteli","outputID":"00083754","output_locID":"00083754-3","precision":"9","type":"ADM1"},{"awardID":"00068773","focus_area":"4","focus_area_descr":"Environment & sustainable development","lat":"12.01366","lon":"-83.76353","name":"Bluefields","outputID":"00086556","output_locID":"00086556-1","precision":"9","type":"ADM2"},{"awardID":"00068773","focus_area":"4","focus_area_descr":"Environment & sustainable development","lat":"12.1629","lon":"-83.0638","name":"Corn Island","outputID":"00086557","output_locID":"00086557-1","precision":"9","type":"PPL"},{"awardID":"00068773","focus_area":"4","focus_area_descr":"Environment & sustainable development","lat":"13.09185","lon":"-86.35384","name":"Esteli","outputID":"00086558","output_locID":"00086558-1","precision":"9","type":"ADM2"},{"awardID":"00068773","focus_area":"4","focus_area_descr":"Environment & sustainable development","lat":"12.01366","lon":"-83.76353","name":"Bluefields","outputID":"00086736","output_locID":"00086736-1","precision":"9","type":"ADM2"},{"awardID":"00068773","focus_area":"4","focus_area_descr":"Environment & sustainable development","lat":"12.1629","lon":"-83.0638","name":"Corn Island","outputID":"00086736","output_locID":"00086736-2","precision":"9","type":"PPL"},{"awardID":"00068773","focus_area":"4","focus_area_descr":"Environment & sustainable development","lat":"13.09185","lon":"-86.35384","name":"Esteli","outputID":"00086736","output_locID":"00086736-3","precision":"9","type":"ADM2"}],"title":"Gesti\u00f3n Integral y Sostenible de Residuos S\u00f3lidos RAAS"},{"id":"00050658","subnational":[{"awardID":"00050658","focus_area":"-","focus_area_descr":"-","lat":"13","lon":"-85","name":"Nicaragua","outputID":"00062685","output_locID":"00062685-1","precision":"9","type":"PCL"}],"title":"Grupo Tem\u00e1tico VIH Nicaragua"},{"id":"00048917","subnational":[{"awardID":"00048917","focus_area":"2","focus_area_descr":"Democratic governance","lat":"13","lon":"-85","name":"Nicaragua","outputID":"00059297","output_locID":"00059297-1","precision":"9","type":"PCL"},{"awardID":"00048917","focus_area":"-","focus_area_descr":"-","lat":"13","lon":"-85","name":"Nicaragua","outputID":"00070546","output_locID":"00070546-1","precision":"9","type":"PCL"}],"title":"Institucionalidad Democr\u00e1tica Parlamento"},{"id":"00041235","subnational":[{"awardID":"00041235","focus_area":"-","focus_area_descr":"-","lat":"12.88687","lon":"-86.53903","name":"El Sauce","outputID":"00046940","output_locID":"00046940-1","precision":"3","type":"PPL"},{"awardID":"00041235","focus_area":"-","focus_area_descr":"-","lat":"13.22956","lon":"-86.86744","name":"Cinco Pinos","outputID":"00046940","output_locID":"00046940-2","precision":"3","type":"PPL"},{"awardID":"00041235","focus_area":"-","focus_area_descr":"-","lat":"12.06938","lon":"-85.09059","name":"Santo Tomas","outputID":"00046940","output_locID":"00046940-3","precision":"3","type":"PPL"},{"awardID":"00041235","focus_area":"-","focus_area_descr":"-","lat":"13.23333","lon":"-86.7","name":"San Francisco del norte","outputID":"00046940","output_locID":"00046940-4","precision":"3","type":"ADM2"},{"awardID":"00041235","focus_area":"-","focus_area_descr":"-","lat":"12.50497","lon":"-86.29942","name":"San Francisco Libre","outputID":"00046940","output_locID":"00046940-5","precision":"3","type":"PPL"}],"title":"Manejo Sostenible de la Tierra en Areas Degradadas"},{"id":"00068892","subnational":[{"awardID":"00068892","focus_area":"2","focus_area_descr":"Democratic governance","lat":"12.13282","lon":"-86.2504","name":"Managua","outputID":"00083796","output_locID":"00083796-1","precision":"3","type":"PPLC"},{"awardID":"00068892","focus_area":"2","focus_area_descr":"Democratic governance","lat":"14.03507","lon":"-83.38882","name":"Bilwi","outputID":"00083796","output_locID":"00083796-2","precision":"9","type":"ADM2"},{"awardID":"00068892","focus_area":"2","focus_area_descr":"Democratic governance","lat":"12.01366","lon":"-83.76353","name":"Bluefields","outputID":"00083796","output_locID":"00083796-3","precision":"9","type":"ADM2"},{"awardID":"00068892","focus_area":"2","focus_area_descr":"Democratic governance","lat":"13.09185","lon":"-86.35384","name":"Esteli","outputID":"00083796","output_locID":"00083796-4","precision":"9","type":"ADM2"},{"awardID":"00068892","focus_area":"2","focus_area_descr":"Democratic governance","lat":"12.34294","lon":"-83.67123","name":"Laguna Perlas","outputID":"00083796","output_locID":"00083796-5","precision":"9","type":"PPL"},{"awardID":"00068892","focus_area":"2","focus_area_descr":"Democratic governance","lat":"13.48082","lon":"-86.58208","name":"Somoto","outputID":"00083796","output_locID":"00083796-6","precision":"9","type":"ADM2"},{"awardID":"00068892","focus_area":"2","focus_area_descr":"Democratic governance","lat":"12.43787","lon":"-86.87804","name":"Leon","outputID":"00083796","output_locID":"00083796-7","precision":"9","type":"ADM2"},{"awardID":"00068892","focus_area":"2","focus_area_descr":"Democratic governance","lat":"12.13282","lon":"-86.2504","name":"Managua","outputID":"00084334","output_locID":"00084334-1","precision":"3","type":"PPLC"},{"awardID":"00068892","focus_area":"2","focus_area_descr":"Democratic governance","lat":"14.03507","lon":"-83.38882","name":"Bilwi","outputID":"00084334","output_locID":"00084334-2","precision":"9","type":"ADM2"},{"awardID":"00068892","focus_area":"2","focus_area_descr":"Democratic governance","lat":"12.01366","lon":"-83.76353","name":"Bluefields","outputID":"00084334","output_locID":"00084334-3","precision":"9","type":"ADM2"},{"awardID":"00068892","focus_area":"2","focus_area_descr":"Democratic governance","lat":"13.09185","lon":"-86.35384","name":"Esteli","outputID":"00084334","output_locID":"00084334-4","precision":"9","type":"ADM2"},{"awardID":"00068892","focus_area":"2","focus_area_descr":"Democratic governance","lat":"12.34294","lon":"-83.67123","name":"Laguna Perlas","outputID":"00084334","output_locID":"00084334-5","precision":"9","type":"PPL"},{"awardID":"00068892","focus_area":"2","focus_area_descr":"Democratic governance","lat":"13.48082","lon":"-86.58208","name":"Somoto","outputID":"00084334","output_locID":"00084334-6","precision":"9","type":"ADM2"},{"awardID":"00068892","focus_area":"2","focus_area_descr":"Democratic governance","lat":"12.43787","lon":"-86.87804","name":"Leon","outputID":"00084334","output_locID":"00084334-7","precision":"9","type":"ADM2"},{"awardID":"00068892","focus_area":"2","focus_area_descr":"Democratic governance","lat":"12.13282","lon":"-86.2504","name":"Managua","outputID":"00084365","output_locID":"00084365-1","precision":"3","type":"PPLC"},{"awardID":"00068892","focus_area":"2","focus_area_descr":"Democratic governance","lat":"14.03507","lon":"-83.38882","name":"Bilwi","outputID":"00084365","output_locID":"00084365-2","precision":"9","type":"ADM2"},{"awardID":"00068892","focus_area":"2","focus_area_descr":"Democratic governance","lat":"12.01366","lon":"-83.76353","name":"Bluefields","outputID":"00084365","output_locID":"00084365-3","precision":"9","type":"ADM2"},{"awardID":"00068892","focus_area":"2","focus_area_descr":"Democratic governance","lat":"13.09185","lon":"-86.35384","name":"Esteli","outputID":"00084365","output_locID":"00084365-4","precision":"9","type":"ADM2"},{"awardID":"00068892","focus_area":"2","focus_area_descr":"Democratic governance","lat":"12.34294","lon":"-83.67123","name":"Laguna Perlas","outputID":"00084365","output_locID":"00084365-5","precision":"9","type":"PPL"},{"awardID":"00068892","focus_area":"2","focus_area_descr":"Democratic governance","lat":"13.48082","lon":"-86.58208","name":"Somoto","outputID":"00084365","output_locID":"00084365-6","precision":"9","type":"ADM2"},{"awardID":"00068892","focus_area":"2","focus_area_descr":"Democratic governance","lat":"12.43787","lon":"-86.87804","name":"Leon","outputID":"00084365","output_locID":"00084365-7","precision":"9","type":"ADM2"}],"title":"Mejoramiento de Prevencion y Acceso a la Justicia VIFS"},{"id":"00072953","subnational":[{"awardID":"00072953","focus_area":"-","focus_area_descr":"-","lat":"13","lon":"-85","name":"Nicaragua","outputID":"00085933","output_locID":"00085933-1","precision":"9","type":"PCL"}],"title":"Plan de Inicio Agenda Joven Nicaragua"},{"id":"00070631","subnational":[{"awardID":"00070631","focus_area":"4","focus_area_descr":"Environment & sustainable development","lat":"13","lon":"-85","name":"Nicaragua","outputID":"00084505","output_locID":"00084505-1","precision":"9","type":"PCL"}],"title":"Planificaci\u00f3n Nacional de la Biodiversidad"},{"id":"00066868","subnational":[{"awardID":"00066868","focus_area":"2","focus_area_descr":"Democratic governance","lat":"13","lon":"-85","name":"Nicaragua","outputID":"00082894","output_locID":"00082894-1","precision":"9","type":"PCL"}],"title":"Programa  Pueblos Indigenas y Afrodescendientes"},{"id":"00066306","subnational":[{"awardID":"00066306","focus_area":"1","focus_area_descr":"Poverty reduction & MDG achievement","lat":"13","lon":"-85","name":"Nicaragua","outputID":"00082509","output_locID":"00082509-1","precision":"9","type":"PCL"}],"title":"Programa Apoyo Integral Desarrollo de H\u00e1bitat Sostenible"},{"id":"00048669","subnational":[{"awardID":"00048669","focus_area":"-","focus_area_descr":"-","lat":"13.8897","lon":"-84.4089","name":"Rosita","outputID":"00062967","output_locID":"00062967-1","precision":"3","type":"PPL"},{"awardID":"00048669","focus_area":"-","focus_area_descr":"-","lat":"14.02885","lon":"-84.59103","name":"Bonanza","outputID":"00062967","output_locID":"00062967-2","precision":"3","type":"PPL"},{"awardID":"00048669","focus_area":"-","focus_area_descr":"-","lat":"14.74189","lon":"-83.9717","name":"Waspan","outputID":"00062967","output_locID":"00062967-3","precision":"3","type":"PPL"}],"title":"Programa conjunto de gesti\u00f3n ambiental"},{"id":"00050792","subnational":[{"awardID":"00050792","focus_area":"1","focus_area_descr":"Poverty reduction & MDG achievement","lat":"11.97444","lon":"-86.09417","name":"Masaya","outputID":"00062893","output_locID":"00062893-1","precision":"3","type":"PPLA"},{"awardID":"00050792","focus_area":"1","focus_area_descr":"Poverty reduction & MDG achievement","lat":"13.04328","lon":"-86.90645","name":"Somotillo","outputID":"00062893","output_locID":"00062893-2","precision":"3","type":"PPL"},{"awardID":"00050792","focus_area":"1","focus_area_descr":"Poverty reduction & MDG achievement","lat":"12.62937","lon":"-87.13105","name":"Chinandega","outputID":"00062893","output_locID":"00062893-3","precision":"3","type":"PPLA"},{"awardID":"00050792","focus_area":"1","focus_area_descr":"Poverty reduction & MDG achievement","lat":"13.04416","lon":"-85.74872","name":"Tuma La Dalia","outputID":"00062893","output_locID":"00062893-4","precision":"3","type":"ADM2"},{"awardID":"00050792","focus_area":"1","focus_area_descr":"Poverty reduction & MDG achievement","lat":"12.85321","lon":"-86.0963","name":"Sebaco","outputID":"00062893","output_locID":"00062893-5","precision":"3","type":"PPL"},{"awardID":"00050792","focus_area":"1","focus_area_descr":"Poverty reduction & MDG achievement","lat":"12.92559","lon":"-85.91747","name":"Matagalpa","outputID":"00062893","output_locID":"00062893-6","precision":"3","type":"PPLA"},{"awardID":"00050792","focus_area":"1","focus_area_descr":"Poverty reduction & MDG achievement","lat":"13.19528","lon":"-86.16674","name":"La Concordia","outputID":"00062893","output_locID":"00062893-7","precision":"3","type":"PPL"},{"awardID":"00050792","focus_area":"1","focus_area_descr":"Poverty reduction & MDG achievement","lat":"13.09171","lon":"-86.00177","name":"Jinotega","outputID":"00062893","output_locID":"00062893-8","precision":"3","type":"PPLA"},{"awardID":"00050792","focus_area":"1","focus_area_descr":"Poverty reduction & MDG achievement","lat":"12.50497","lon":"-86.29942","name":"San Francisco Libre","outputID":"00062893","output_locID":"00062893-9","precision":"3","type":"PPL"},{"awardID":"00050792","focus_area":"1","focus_area_descr":"Poverty reduction & MDG achievement","lat":"11.56615","lon":"-85.5784","name":"Altagracia","outputID":"00062893","output_locID":"00062893-10","precision":"3","type":"PPL"},{"awardID":"00050792","focus_area":"1","focus_area_descr":"Poverty reduction & MDG achievement","lat":"12.13282","lon":"-86.2504","name":"Managua","outputID":"00062893","output_locID":"00062893-11","precision":"3","type":"PPLA"},{"awardID":"00050792","focus_area":"1","focus_area_descr":"Poverty reduction & MDG achievement","lat":"11.97444","lon":"-86.09417","name":"Masaya","outputID":"00070102","output_locID":"00070102-1","precision":"3","type":"PPLA"},{"awardID":"00050792","focus_area":"1","focus_area_descr":"Poverty reduction & MDG achievement","lat":"13.04328","lon":"-86.90645","name":"Somotillo","outputID":"00070102","output_locID":"00070102-2","precision":"3","type":"PPL"},{"awardID":"00050792","focus_area":"1","focus_area_descr":"Poverty reduction & MDG achievement","lat":"12.62937","lon":"-87.13105","name":"Chinandega","outputID":"00070102","output_locID":"00070102-3","precision":"3","type":"PPLA"},{"awardID":"00050792","focus_area":"1","focus_area_descr":"Poverty reduction & MDG achievement","lat":"13.04416","lon":"-85.74872","name":"Tuma La Dalia","outputID":"00070102","output_locID":"00070102-4","precision":"3","type":"ADM2"},{"awardID":"00050792","focus_area":"1","focus_area_descr":"Poverty reduction & MDG achievement","lat":"12.85321","lon":"-86.0963","name":"Sebaco","outputID":"00070102","output_locID":"00070102-5","precision":"3","type":"PPL"},{"awardID":"00050792","focus_area":"1","focus_area_descr":"Poverty reduction & MDG achievement","lat":"12.92559","lon":"-85.91747","name":"Matagalpa","outputID":"00070102","output_locID":"00070102-6","precision":"3","type":"PPLA"},{"awardID":"00050792","focus_area":"1","focus_area_descr":"Poverty reduction & MDG achievement","lat":"13.19528","lon":"-86.16674","name":"La Concordia","outputID":"00070102","output_locID":"00070102-7","precision":"3","type":"PPL"},{"awardID":"00050792","focus_area":"1","focus_area_descr":"Poverty reduction & MDG achievement","lat":"13.09171","lon":"-86.00177","name":"Jinotega","outputID":"00070102","output_locID":"00070102-8","precision":"3","type":"PPLA"},{"awardID":"00050792","focus_area":"1","focus_area_descr":"Poverty reduction & MDG achievement","lat":"12.50497","lon":"-86.29942","name":"San Francisco Libre","outputID":"00070102","output_locID":"00070102-9","precision":"3","type":"PPL"},{"awardID":"00050792","focus_area":"1","focus_area_descr":"Poverty reduction & MDG achievement","lat":"11.56615","lon":"-85.5784","name":"Altagracia","outputID":"00070102","output_locID":"00070102-10","precision":"3","type":"PPL"},{"awardID":"00050792","focus_area":"1","focus_area_descr":"Poverty reduction & MDG achievement","lat":"12.13282","lon":"-86.2504","name":"Managua","outputID":"00070102","output_locID":"00070102-11","precision":"3","type":"PPLC"},{"awardID":"00050792","focus_area":"1","focus_area_descr":"Poverty reduction & MDG achievement","lat":"11.97444","lon":"-86.09417","name":"Masaya","outputID":"00070372","output_locID":"00070372-1","precision":"3","type":"PPLA"},{"awardID":"00050792","focus_area":"1","focus_area_descr":"Poverty reduction & MDG achievement","lat":"13.04328","lon":"-86.90645","name":"Somotillo","outputID":"00070372","output_locID":"00070372-2","precision":"3","type":"PPL"},{"awardID":"00050792","focus_area":"1","focus_area_descr":"Poverty reduction & MDG achievement","lat":"12.62937","lon":"-87.13105","name":"Chinandega","outputID":"00070372","output_locID":"00070372-3","precision":"3","type":"PPLA"},{"awardID":"00050792","focus_area":"1","focus_area_descr":"Poverty reduction & MDG achievement","lat":"13.04416","lon":"-85.74872","name":"Tuma La Dalia","outputID":"00070372","output_locID":"00070372-4","precision":"3","type":"ADM2"},{"awardID":"00050792","focus_area":"1","focus_area_descr":"Poverty reduction & MDG achievement","lat":"12.85321","lon":"-86.0963","name":"Sebaco","outputID":"00070372","output_locID":"00070372-5","precision":"3","type":"PPL"},{"awardID":"00050792","focus_area":"1","focus_area_descr":"Poverty reduction & MDG achievement","lat":"12.92559","lon":"-85.91747","name":"Matagalpa","outputID":"00070372","output_locID":"00070372-6","precision":"3","type":"PPLA"},{"awardID":"00050792","focus_area":"1","focus_area_descr":"Poverty reduction & MDG achievement","lat":"13.19528","lon":"-86.16674","name":"La Concordia","outputID":"00070372","output_locID":"00070372-7","precision":"3","type":"PPL"},{"awardID":"00050792","focus_area":"1","focus_area_descr":"Poverty reduction & MDG achievement","lat":"13.09171","lon":"-86.00177","name":"Jinotega","outputID":"00070372","output_locID":"00070372-8","precision":"3","type":"PPLA"},{"awardID":"00050792","focus_area":"1","focus_area_descr":"Poverty reduction & MDG achievement","lat":"12.50497","lon":"-86.29942","name":"San Francisco Libre","outputID":"00070372","output_locID":"00070372-9","precision":"3","type":"PPL"},{"awardID":"00050792","focus_area":"1","focus_area_descr":"Poverty reduction & MDG achievement","lat":"11.56615","lon":"-85.5784","name":"Altagracia","outputID":"00070372","output_locID":"00070372-10","precision":"3","type":"PPL"},{"awardID":"00050792","focus_area":"1","focus_area_descr":"Poverty reduction & MDG achievement","lat":"12.13282","lon":"-86.2504","name":"Managua","outputID":"00070372","output_locID":"00070372-11","precision":"3","type":"PPLC"},{"awardID":"00050792","focus_area":"1","focus_area_descr":"Poverty reduction & MDG achievement","lat":"11.97444","lon":"-86.09417","name":"Masaya","outputID":"00070373","output_locID":"00070373-1","precision":"3","type":"PPLA"},{"awardID":"00050792","focus_area":"1","focus_area_descr":"Poverty reduction & MDG achievement","lat":"13.04328","lon":"-86.90645","name":"Somotillo","outputID":"00070373","output_locID":"00070373-2","precision":"3","type":"PPL"},{"awardID":"00050792","focus_area":"1","focus_area_descr":"Poverty reduction & MDG achievement","lat":"12.62937","lon":"-87.13105","name":"Chinandega","outputID":"00070373","output_locID":"00070373-3","precision":"3","type":"PPLA"},{"awardID":"00050792","focus_area":"1","focus_area_descr":"Poverty reduction & MDG achievement","lat":"13.04416","lon":"-85.74872","name":"Tuma La Dalia","outputID":"00070373","output_locID":"00070373-4","precision":"3","type":"ADM2"},{"awardID":"00050792","focus_area":"1","focus_area_descr":"Poverty reduction & MDG achievement","lat":"12.85321","lon":"-86.0963","name":"Sebaco","outputID":"00070373","output_locID":"00070373-5","precision":"3","type":"PPL"},{"awardID":"00050792","focus_area":"1","focus_area_descr":"Poverty reduction & MDG achievement","lat":"12.92559","lon":"-85.91747","name":"Matagalpa","outputID":"00070373","output_locID":"00070373-6","precision":"3","type":"PPLA"},{"awardID":"00050792","focus_area":"1","focus_area_descr":"Poverty reduction & MDG achievement","lat":"13.19528","lon":"-86.16674","name":"La Concordia","outputID":"00070373","output_locID":"00070373-7","precision":"3","type":"PPL"},{"awardID":"00050792","focus_area":"1","focus_area_descr":"Poverty reduction & MDG achievement","lat":"13.09171","lon":"-86.00177","name":"Jinotega","outputID":"00070373","output_locID":"00070373-8","precision":"3","type":"PPLA"},{"awardID":"00050792","focus_area":"1","focus_area_descr":"Poverty reduction & MDG achievement","lat":"12.50497","lon":"-86.29942","name":"San Francisco Libre","outputID":"00070373","output_locID":"00070373-9","precision":"3","type":"PPL"},{"awardID":"00050792","focus_area":"1","focus_area_descr":"Poverty reduction & MDG achievement","lat":"11.56615","lon":"-85.5784","name":"Altagracia","outputID":"00070373","output_locID":"00070373-10","precision":"3","type":"PPL"},{"awardID":"00050792","focus_area":"1","focus_area_descr":"Poverty reduction & MDG achievement","lat":"12.13282","lon":"-86.2504","name":"Managua","outputID":"00070373","output_locID":"00070373-11","precision":"3","type":"PPLC"},{"awardID":"00050792","focus_area":"1","focus_area_descr":"Poverty reduction & MDG achievement","lat":"11.97444","lon":"-86.09417","name":"Masaya","outputID":"00074765","output_locID":"00074765-1","precision":"3","type":"PPLA"},{"awardID":"00050792","focus_area":"1","focus_area_descr":"Poverty reduction & MDG achievement","lat":"13.04328","lon":"-86.90645","name":"Somotillo","outputID":"00074765","output_locID":"00074765-2","precision":"3","type":"PPL"},{"awardID":"00050792","focus_area":"1","focus_area_descr":"Poverty reduction & MDG achievement","lat":"12.62937","lon":"-87.13105","name":"Chinandega","outputID":"00074765","output_locID":"00074765-3","precision":"3","type":"PPLA"},{"awardID":"00050792","focus_area":"1","focus_area_descr":"Poverty reduction & MDG achievement","lat":"13.04416","lon":"-85.74872","name":"Tuma La Dalia","outputID":"00074765","output_locID":"00074765-4","precision":"3","type":"ADM2"},{"awardID":"00050792","focus_area":"1","focus_area_descr":"Poverty reduction & MDG achievement","lat":"12.85321","lon":"-86.0963","name":"Sebaco","outputID":"00074765","output_locID":"00074765-5","precision":"3","type":"PPL"},{"awardID":"00050792","focus_area":"1","focus_area_descr":"Poverty reduction & MDG achievement","lat":"12.92559","lon":"-85.91747","name":"Matagalpa","outputID":"00074765","output_locID":"00074765-6","precision":"3","type":"PPLA"},{"awardID":"00050792","focus_area":"1","focus_area_descr":"Poverty reduction & MDG achievement","lat":"13.19528","lon":"-86.16674","name":"La Concordia","outputID":"00074765","output_locID":"00074765-7","precision":"3","type":"PPL"},{"awardID":"00050792","focus_area":"1","focus_area_descr":"Poverty reduction & MDG achievement","lat":"13.09171","lon":"-86.00177","name":"Jinotega","outputID":"00074765","output_locID":"00074765-8","precision":"3","type":"PPLA"},{"awardID":"00050792","focus_area":"1","focus_area_descr":"Poverty reduction & MDG achievement","lat":"12.50497","lon":"-86.29942","name":"San Francisco Libre","outputID":"00074765","output_locID":"00074765-9","precision":"3","type":"PPL"},{"awardID":"00050792","focus_area":"1","focus_area_descr":"Poverty reduction & MDG achievement","lat":"11.56615","lon":"-85.5784","name":"Altagracia","outputID":"00074765","output_locID":"00074765-10","precision":"3","type":"PPL"},{"awardID":"00050792","focus_area":"1","focus_area_descr":"Poverty reduction & MDG achievement","lat":"12.13282","lon":"-86.2504","name":"Managua","outputID":"00074765","output_locID":"00074765-11","precision":"3","type":"PPLC"}],"title":"Programa Conjunto Juventud, Empleo y Migracion (JEM)"},{"id":"00060676","subnational":[{"awardID":"00060676","focus_area":"2","focus_area_descr":"Democratic governance","lat":"13","lon":"-85","name":"Nicaragua","outputID":"00076505","output_locID":"00076505-1","precision":"9","type":"PCL"}],"title":"Programa de Apoyo a la Integraci\u00f3n Regional Fase II"},{"id":"00050197","subnational":[{"awardID":"00050197","focus_area":"1","focus_area_descr":"Poverty reduction & MDG achievement","lat":"13","lon":"-85","name":"Nicaragua","outputID":"00061874","output_locID":"00061874-1","precision":"9","type":"PCL"},{"awardID":"00050197","focus_area":"1","focus_area_descr":"Poverty reduction & MDG achievement","lat":"13","lon":"-85","name":"Nicaragua","outputID":"00077118","output_locID":"00077118-1","precision":"9","type":"PCL"},{"awardID":"00050197","focus_area":"-","focus_area_descr":"-","lat":"13","lon":"-85","name":"Nicaragua","outputID":"00061912","output_locID":"00061912-1","precision":"9","type":"PCL"}],"title":"Programa Desarrollo Humano de Nicaragua"},{"id":"00046305","subnational":[{"awardID":"00046305","focus_area":"2","focus_area_descr":"Democratic governance","lat":"13","lon":"-85","name":"Regiones Autonomas del Atlantico Sur","outputID":"00056134","output_locID":"00056134-1","precision":"9","type":"PCL"},{"awardID":"00046305","focus_area":"2","focus_area_descr":"Democratic governance","lat":"13","lon":"-85","name":"Regiones Autonomas del Atlantico Norte","outputID":"00056134","output_locID":"00056134-2","precision":"9","type":"PCL"},{"awardID":"00046305","focus_area":"2","focus_area_descr":"Democratic governance","lat":"12.13282","lon":"-86.2504","name":"Managua","outputID":"00056134","output_locID":"00056134-3","precision":"3","type":"PPLC"}],"title":"Programa Gobernabilidad Costa Caribe de Nicaragua"},{"id":"00061888","subnational":[{"awardID":"00061888","focus_area":"4","focus_area_descr":"Environment & sustainable development","lat":"12.43787","lon":"-86.87804","name":"Leon","outputID":"00078944","output_locID":"00078944-1","precision":"3","type":"PPLA"},{"awardID":"00061888","focus_area":"4","focus_area_descr":"Environment & sustainable development","lat":"12.92559","lon":"-85.91747","name":"Matagalpa","outputID":"00078944","output_locID":"00078944-2","precision":"3","type":"PPLA"},{"awardID":"00061888","focus_area":"4","focus_area_descr":"Environment & sustainable development","lat":"13.09185","lon":"-86.35384","name":"Esteli","outputID":"00078944","output_locID":"00078944-3","precision":"3","type":"PPLA"},{"awardID":"00061888","focus_area":"4","focus_area_descr":"Environment & sustainable development","lat":"12.13282","lon":"-86.2504","name":"Managua","outputID":"00078944","output_locID":"00078944-4","precision":"3","type":"PPLC"}],"title":"Programa Interagencial de Gesti\u00f3n de Riesgos"},{"id":"00059913","subnational":[{"awardID":"00059913","focus_area":"1","focus_area_descr":"Poverty reduction & MDG achievement","lat":"13","lon":"-85","name":"Nicaragua","outputID":"00075161","output_locID":"00075161-1","precision":"9","type":"PCL"},{"awardID":"00059913","focus_area":"1","focus_area_descr":"Poverty reduction & MDG achievement","lat":"13","lon":"-85","name":"Nicaragua","outputID":"00080159","output_locID":"00080159-1","precision":"9","type":"PCL"}],"title":"Programa Regional  de Seguridad Alimentaria Fase II"},{"id":"00048774","subnational":[{"awardID":"00048774","focus_area":"4","focus_area_descr":"Environment & sustainable development","lat":"12.13282","lon":"-86.2504","name":"Managua","outputID":"00059044","output_locID":"00059044-1","precision":"3","type":"PPLC"}],"title":"Promoci\u00f3n de un Transporte Ambientalmente Sostenible"},{"id":"00058273","subnational":[{"awardID":"00058273","focus_area":"2","focus_area_descr":"Democratic governance","lat":"10.73036","lon":"-83.96498","name":"Academia de Policia Walter Mendoza","outputID":"00072334","output_locID":"00072334-1","precision":"4","type":"ADM1"},{"awardID":"00058273","focus_area":"2","focus_area_descr":"Democratic governance","lat":"13","lon":"-85","name":"Nicaragua","outputID":"00072334","output_locID":"00072334-2","precision":"9","type":"PCL"},{"awardID":"00058273","focus_area":"2","focus_area_descr":"Democratic governance","lat":"13","lon":"-85","name":"Nicaragua","outputID":"00072334","output_locID":"00072334-3","precision":"9","type":"PCL"},{"awardID":"00058273","focus_area":"2","focus_area_descr":"Democratic governance","lat":"13","lon":"-85","name":"Nicaragua","outputID":"00072335","output_locID":"00072335-1","precision":"9","type":"PCL"},{"awardID":"00058273","focus_area":"2","focus_area_descr":"Democratic governance","lat":"13","lon":"-85","name":"Nicaragua","outputID":"00072335","output_locID":"00072335-2","precision":"9","type":"PCL"},{"awardID":"00058273","focus_area":"2","focus_area_descr":"Democratic governance","lat":"13","lon":"-85","name":"Nicaragua","outputID":"00072335","output_locID":"00072335-3","precision":"9","type":"PCL"},{"awardID":"00058273","focus_area":"-","focus_area_descr":"-","lat":"13","lon":"-85","name":"Nicaragua","outputID":"00081285","output_locID":"00081285-1","precision":"9","type":"PCL"}],"title":"Proyecto Pana Laka II"},{"id":"00059776","subnational":[{"awardID":"00059776","focus_area":"4","focus_area_descr":"Environment & sustainable development","lat":"12.92058","lon":"-87.36315","name":"Rio Estero Real","outputID":"00074925","output_locID":"00074925-1","precision":"4","type":"RES"}],"title":"Reducci\u00f3n de Riesgos y Vulnerabilidad"},{"id":"00059357","subnational":[{"awardID":"00059357","focus_area":"1","focus_area_descr":"Poverty reduction & MDG achievement","lat":"13","lon":"-85","name":"Nicaragua","outputID":"00074200","output_locID":"00074200-1","precision":"9","type":"PCL"},{"awardID":"00059357","focus_area":"1","focus_area_descr":"Poverty reduction & MDG achievement","lat":"13","lon":"-85","name":"Nicaragua","outputID":"00079813","output_locID":"00079813-1","precision":"9","type":"PCL"}],"title":"Regional Sistemas de Informacion Seguridad Alimentaria"},{"id":"00063002","subnational":[{"awardID":"00063002","focus_area":"4","focus_area_descr":"Environment & sustainable development","lat":"12.62937","lon":"-87.13105","name":"Chinandega","outputID":"00080302","output_locID":"00080302-1","precision":"3","type":"PPLA"},{"awardID":"00063002","focus_area":"4","focus_area_descr":"Environment & sustainable development","lat":"12.70264","lon":"-87.00588","name":"El Viejo","outputID":"00080302","output_locID":"00080302-2","precision":"3","type":"PPL"},{"awardID":"00063002","focus_area":"4","focus_area_descr":"Environment & sustainable development","lat":"12.96361","lon":"-86.81472","name":"Villanueva","outputID":"00080302","output_locID":"00080302-3","precision":"3","type":"PPL"},{"awardID":"00063002","focus_area":"4","focus_area_descr":"Environment & sustainable development","lat":"13.04328","lon":"-86.90645","name":"Somotillo","outputID":"00080302","output_locID":"00080302-4","precision":"3","type":"PPL"},{"awardID":"00063002","focus_area":"4","focus_area_descr":"Environment & sustainable development","lat":"13.22956","lon":"-86.86744","name":"Cinco Pinos","outputID":"00080302","output_locID":"00080302-5","precision":"3","type":"PPL"},{"awardID":"00063002","focus_area":"4","focus_area_descr":"Environment & sustainable development","lat":"12.06938","lon":"-85.09059","name":"Santo Tomas","outputID":"00080302","output_locID":"00080302-6","precision":"3","type":"PPL"},{"awardID":"00063002","focus_area":"4","focus_area_descr":"Environment & sustainable development","lat":"12.26667","lon":"-85.38333","name":"San Francisco","outputID":"00080302","output_locID":"00080302-7","precision":"3","type":"ADM2"},{"awardID":"00063002","focus_area":"4","focus_area_descr":"Environment & sustainable development","lat":"12.70264","lon":"-87.00588","name":"San Pedro","outputID":"00080302","output_locID":"00080302-8","precision":"3","type":"PPL"},{"awardID":"00063002","focus_area":"4","focus_area_descr":"Environment & sustainable development","lat":"12.62937","lon":"-87.13105","name":"Chinandega","outputID":"00080302","output_locID":"00080302-9","precision":"3","type":"PPLA"},{"awardID":"00063002","focus_area":"4","focus_area_descr":"Environment & sustainable development","lat":"12.70264","lon":"-87.00588","name":"El Viejo","outputID":"00080302","output_locID":"00080302-10","precision":"3","type":"PPL"},{"awardID":"00063002","focus_area":"4","focus_area_descr":"Environment & sustainable development","lat":"12.96361","lon":"-86.81472","name":"Villanueva","outputID":"00080302","output_locID":"00080302-11","precision":"3","type":"PPL"},{"awardID":"00063002","focus_area":"4","focus_area_descr":"Environment & sustainable development","lat":"13.04328","lon":"-86.90645","name":"Somotillo","outputID":"00080302","output_locID":"00080302-12","precision":"3","type":"PPL"},{"awardID":"00063002","focus_area":"4","focus_area_descr":"Environment & sustainable development","lat":"13.22956","lon":"-86.86744","name":"Cinco Pinos","outputID":"00080302","output_locID":"00080302-13","precision":"3","type":"PPL"},{"awardID":"00063002","focus_area":"4","focus_area_descr":"Environment & sustainable development","lat":"12.06938","lon":"-85.09059","name":"Santo Tomas","outputID":"00080302","output_locID":"00080302-14","precision":"3","type":"PPL"},{"awardID":"00063002","focus_area":"4","focus_area_descr":"Environment & sustainable development","lat":"12.26667","lon":"-85.38333","name":"San Francisco","outputID":"00080302","output_locID":"00080302-15","precision":"3","type":"ADM2"},{"awardID":"00063002","focus_area":"4","focus_area_descr":"Environment & sustainable development","lat":"12.70264","lon":"-87.00588","name":"San Pedro","outputID":"00080302","output_locID":"00080302-16","precision":"3","type":"PPL"},{"awardID":"00063002","focus_area":"4","focus_area_descr":"Environment & sustainable development","lat":"12.62937","lon":"-87.13105","name":"Chinandega","outputID":"00080302","output_locID":"00080302-17","precision":"3","type":"PPLA"},{"awardID":"00063002","focus_area":"4","focus_area_descr":"Environment & sustainable development","lat":"12.70264","lon":"-87.00588","name":"El Viejo","outputID":"00080302","output_locID":"00080302-18","precision":"3","type":"PPL"},{"awardID":"00063002","focus_area":"4","focus_area_descr":"Environment & sustainable development","lat":"12.96361","lon":"-86.81472","name":"Villanueva","outputID":"00080302","output_locID":"00080302-19","precision":"3","type":"PPL"},{"awardID":"00063002","focus_area":"4","focus_area_descr":"Environment & sustainable development","lat":"13.04328","lon":"-86.90645","name":"Somotillo","outputID":"00080302","output_locID":"00080302-20","precision":"3","type":"PPL"},{"awardID":"00063002","focus_area":"4","focus_area_descr":"Environment & sustainable development","lat":"13.22956","lon":"-86.86744","name":"Cinco Pinos","outputID":"00080302","output_locID":"00080302-21","precision":"3","type":"PPL"},{"awardID":"00063002","focus_area":"4","focus_area_descr":"Environment & sustainable development","lat":"12.06938","lon":"-85.09059","name":"Santo Tomas","outputID":"00080302","output_locID":"00080302-22","precision":"3","type":"PPL"},{"awardID":"00063002","focus_area":"4","focus_area_descr":"Environment & sustainable development","lat":"12.26667","lon":"-85.38333","name":"San Francisco","outputID":"00080302","output_locID":"00080302-23","precision":"3","type":"ADM2"},{"awardID":"00063002","focus_area":"4","focus_area_descr":"Environment & sustainable development","lat":"12.70264","lon":"-87.00588","name":"San Pedro","outputID":"00080302","output_locID":"00080302-24","precision":"3","type":"PPL"}],"title":"Respuesta Emergencia causada por Depresion Tropical E12"},{"id":"00070023","subnational":[{"awardID":"00070023","focus_area":"2","focus_area_descr":"Democratic governance","lat":"13.53333","lon":"-85.53333","name":"Alto Wangki","outputID":"00084257","output_locID":"00084257-1","precision":"3","type":"PPL"},{"awardID":"00070023","focus_area":"2","focus_area_descr":"Democratic governance","lat":"13.53333","lon":"-85.53333","name":"Bocay","outputID":"00084257","output_locID":"00084257-2","precision":"3","type":"PPL"}],"title":"Seguridad Humana en el Alto Wangki y Bocay"},{"id":"00032161","subnational":[],"title":"Support to United Nations Coordination"},{"id":"00056632","subnational":[{"awardID":"00056632","focus_area":"-","focus_area_descr":"-","lat":"12.13282","lon":"-86.2504","name":"Managua","outputID":"00069437","output_locID":"00069437-1","precision":"3","type":"PPLC"}],"title":"Alianza para el Manejo Desechos Solidos en Managua"},{"id":"00014045","subnational":[{"awardID":"00014045","focus_area":"-","focus_area_descr":"-","lat":"13","lon":"-85","name":"Nicaragua","outputID":"00014045","output_locID":"00014045-1","precision":"9","type":"PCL"}],"title":"Desarrollo de la Hidroelectricidad a Peque\u00f1a Escala"},{"id":"00050727","subnational":[{"awardID":"00050727","focus_area":"-","focus_area_descr":"-","lat":"13","lon":"-85","name":"Nicaragua","outputID":"00062787","output_locID":"00062787-1","precision":"9","type":"PCL"}],"title":"Fondo ODM G\u00e9nero"},{"id":"00058275","subnational":[{"awardID":"00058275","focus_area":"-","focus_area_descr":"-","lat":"13","lon":"-85","name":"Region Autonoma del Atlantico Norte, Nicaragua","outputID":"00072339","output_locID":"00072339-1","precision":"9","type":"PCL"}],"title":"Fortalecer Policia y Modelo Policia-Comunidad-Proactiva"},{"id":"00061548","subnational":[{"awardID":"00061548","focus_area":"-","focus_area_descr":"-","lat":"13","lon":"-85","name":"Nicaragua","outputID":"00078007","output_locID":"00078007-1","precision":"9","type":"PCL"}],"title":"Fortalecer Seguridad Ciudadana con medidas alternas"},{"id":"00050419","subnational":[{"awardID":"00050419","focus_area":"-","focus_area_descr":"-","lat":"12.13282","lon":"-86.2504","name":"Ministerio de Relaciones Exteriores, Nicaragua","outputID":"00062287","output_locID":"00062287-1","precision":"3","type":"PPLC"},{"awardID":"00050419","focus_area":"-","focus_area_descr":"-","lat":"12.13282","lon":"-86.2504","name":"Ministerio de Relaciones Exteriores, Nicaragua","outputID":"00062737","output_locID":"00062737-1","precision":"3","type":"PPLC"}],"title":"Fortalecimiento al Ministerio de Relaciones Exteriores"},{"id":"00034858","subnational":[],"title":"Fortalecimiento Sistema Estadisticas Nacionales"},{"id":"00050751","subnational":[{"awardID":"00050751","focus_area":"-","focus_area_descr":"-","lat":"13","lon":"-85","name":"Nicaragua","outputID":"00062823","output_locID":"00062823-1","precision":"9","type":"PCL"}],"title":"Incorporacion Acuerdos Multilaterales Ambientales"},{"id":"00050749","subnational":[{"awardID":"00050749","focus_area":"-","focus_area_descr":"-","lat":"13","lon":"-85","name":"Nicaragua","outputID":"00062821","output_locID":"00062821-1","precision":"9","type":"PCL"}],"title":"Mejoramiento del Manejo y Contenci\u00f3n de Contaminantes"},{"id":"00056686","subnational":[],"title":"Plan de Gesti\u00f3n Eliminaci\u00f3n Final de Sustancias"},{"id":"00049894","subnational":[{"awardID":"00049894","focus_area":"-","focus_area_descr":"-","lat":"13","lon":"-85","name":"Nicaragua","outputID":"00061278","output_locID":"00061278-1","precision":"9","type":"PCL"}],"title":"Programa Asentamientos Humanos Sostenibles"},{"id":"00034097","subnational":[{"awardID":"00034097","focus_area":"-","focus_area_descr":"-","lat":"13","lon":"-85","name":"Nicaragua","outputID":"00036000","output_locID":"00036000-1","precision":"9","type":"PCL"}],"title":"Programa de Peque\u00f1as Donaciones Nicaragua"},{"id":"00044713","subnational":[],"title":"Programa Fortalecimiento Seguridad Ciudadana"},{"id":"00050823","subnational":[],"title":"Rehabilitaci\u00f3n y Reconstrucci\u00f3n en \u00e1reas afectadas"},{"id":"00058772","subnational":[],"title":"Respuesta a Emergencia Huracan IDA"},{"id":"00034919","subnational":[],"title":"Seguridad Alimentaria Centroamerica"},{"id":"00056632","subnational":[{"awardID":"00056632","focus_area":"-","focus_area_descr":"-","lat":"12.13282","lon":"-86.2504","name":"Managua","outputID":"00069437","output_locID":"00069437-1","precision":"3","type":"PPLC"}],"title":"Alianza para el Manejo Desechos Solidos en Managua"},{"id":"00014045","subnational":[{"awardID":"00014045","focus_area":"-","focus_area_descr":"-","lat":"13","lon":"-85","name":"Nicaragua","outputID":"00014045","output_locID":"00014045-1","precision":"9","type":"PCL"}],"title":"Desarrollo de la Hidroelectricidad a Peque\u00f1a Escala"},{"id":"00050727","subnational":[{"awardID":"00050727","focus_area":"-","focus_area_descr":"-","lat":"13","lon":"-85","name":"Nicaragua","outputID":"00062787","output_locID":"00062787-1","precision":"9","type":"PCL"}],"title":"Fondo ODM G\u00e9nero"},{"id":"00058275","subnational":[{"awardID":"00058275","focus_area":"-","focus_area_descr":"-","lat":"13","lon":"-85","name":"Region Autonoma del Atlantico Norte, Nicaragua","outputID":"00072339","output_locID":"00072339-1","precision":"9","type":"PCL"}],"title":"Fortalecer Policia y Modelo Policia-Comunidad-Proactiva"},{"id":"00061548","subnational":[{"awardID":"00061548","focus_area":"-","focus_area_descr":"-","lat":"13","lon":"-85","name":"Nicaragua","outputID":"00078007","output_locID":"00078007-1","precision":"9","type":"PCL"}],"title":"Fortalecer Seguridad Ciudadana con medidas alternas"},{"id":"00050419","subnational":[{"awardID":"00050419","focus_area":"-","focus_area_descr":"-","lat":"12.13282","lon":"-86.2504","name":"Ministerio de Relaciones Exteriores, Nicaragua","outputID":"00062287","output_locID":"00062287-1","precision":"3","type":"PPLC"},{"awardID":"00050419","focus_area":"-","focus_area_descr":"-","lat":"12.13282","lon":"-86.2504","name":"Ministerio de Relaciones Exteriores, Nicaragua","outputID":"00062737","output_locID":"00062737-1","precision":"3","type":"PPLC"}],"title":"Fortalecimiento al Ministerio de Relaciones Exteriores"},{"id":"00050751","subnational":[{"awardID":"00050751","focus_area":"-","focus_area_descr":"-","lat":"13","lon":"-85","name":"Nicaragua","outputID":"00062823","output_locID":"00062823-1","precision":"9","type":"PCL"}],"title":"Incorporacion Acuerdos Multilaterales Ambientales"},{"id":"00033462","subnational":[],"title":"Iniciativa MA Prevenci\u00f3n VIH/Sida"},{"id":"00050749","subnational":[{"awardID":"00050749","focus_area":"-","focus_area_descr":"-","lat":"13","lon":"-85","name":"Nicaragua","outputID":"00062821","output_locID":"00062821-1","precision":"9","type":"PCL"}],"title":"Mejoramiento del Manejo y Contenci\u00f3n de Contaminantes"},{"id":"00049894","subnational":[{"awardID":"00049894","focus_area":"-","focus_area_descr":"-","lat":"13","lon":"-85","name":"Nicaragua","outputID":"00061278","output_locID":"00061278-1","precision":"9","type":"PCL"}],"title":"Programa Asentamientos Humanos Sostenibles"},{"id":"00034097","subnational":[{"awardID":"00034097","focus_area":"-","focus_area_descr":"-","lat":"13","lon":"-85","name":"Nicaragua","outputID":"00036000","output_locID":"00036000-1","precision":"9","type":"PCL"}],"title":"Programa de Peque\u00f1as Donaciones Nicaragua"}]}