{"iso_num":"558","op_unit":"NIC","projects":[{"id":"00070217","subnational":[{"awardID":"00070217","lat":"13.53333","lon":"-85.53333","name":"Alto Wangki","precision":"3","type":"PPL"},{"awardID":"00070217","lat":"13.53333","lon":"-85.53333","name":"Bocay","precision":"3","type":"PPL"}],"title":"Acompa\u00f1amiento a la Secretaria de Desarrollo de la CC"},{"id":"00014029","subnational":[{"awardID":"00014029","lat":"13","lon":"-85","name":"Nicaragua","precision":"9","type":"PCL"},{"awardID":"00014029","lat":"13","lon":"-85","name":"Nicaragua","precision":"9","type":"PCL"}],"title":"Agencia de Promoci\u00f3n de Inversiones PRONicaragua"},{"id":"00069797","subnational":[{"awardID":"00069797","lat":"13","lon":"-85","name":"Nicaragua","precision":"9","type":"PCL"}],"title":"Apoyo a Comisar\u00edas para cumplir Ley 779"},{"id":"00073313","subnational":[{"awardID":"00073313","lat":"13","lon":"-85","name":"Nicaragua","precision":"9","type":"PCL"},{"awardID":"00073313","lat":"13","lon":"-85","name":"Nicaragua","precision":"9","type":"PCL"},{"awardID":"00073313","lat":"13","lon":"-85","name":"Nicaragua","precision":"9","type":"PCL"}],"title":"Apoyo a Secretaria de Cooperaci\u00f3n Externa"},{"id":"00061289","subnational":[{"awardID":"00061289","lat":"13","lon":"-85","name":"Nicaragua","precision":"9","type":"PCL"}],"title":"Apoyo al Control de Armas en Nicaragua"},{"id":"00075103","subnational":[{"awardID":"00075103","lat":"13","lon":"-85","name":"Nicaragua","precision":"9","type":"PCL"},{"awardID":"00075103","lat":"13","lon":"-85","name":"Nicaragua","precision":"9","type":"PCL"},{"awardID":"00075103","lat":"13","lon":"-85","name":"Nicaragua","precision":"9","type":"PCL"},{"awardID":"00075103","lat":"13","lon":"-85","name":"Nicaragua","precision":"9","type":"PCL"},{"awardID":"00075103","lat":"13","lon":"-85","name":"Nicaragua","precision":"9","type":"PCL"}],"title":"Apoyo al Fortalecimiento Asamblea Nacional"},{"id":"00068819","subnational":[{"awardID":"00068819","lat":"13.09185","lon":"-86.35384","name":"Esteli","precision":"9","type":"ADM2"},{"awardID":"00068819","lat":"13.09185","lon":"-86.35384","name":"Esteli","precision":"9","type":"ADM2"},{"awardID":"00068819","lat":"13.7","lon":"-86.16667","name":"Nueva Segovia","precision":"4","type":"ADM1"},{"awardID":"00068819","lat":"13.5","lon":"-86.41667","name":"Madriz","precision":"4","type":"ADM1"}],"title":"Articulaci\u00f3n Redes Territoriales y Tem\u00e1ticas (ART)"},{"id":"00035481","subnational":[{"awardID":"00035481","lat":"11.97444","lon":"-86.09417","name":"Masaya","precision":"4","type":"ADM1"},{"awardID":"00035481","lat":"13","lon":"-85","name":"Nicaragua","precision":"9","type":"PCL"}],"title":"Capacitaci\u00f3n en Autoconstrucci\u00f3n de Viviendas y Centros"},{"id":"00045509","subnational":[{"awardID":"00045509","lat":"13","lon":"-85","name":"Nicaragua","precision":"9","type":"PCL"}],"title":"Cobertura Rural de Seguridad Ciudadana de la Policia"},{"id":"00072145","subnational":[{"awardID":"00072145","lat":"13.53333","lon":"-85.53333","name":"Alto Wangki","precision":"3","type":"PPL"},{"awardID":"00072145","lat":"13.53333","lon":"-85.53333","name":"Bocay","precision":"3","type":"PPL"}],"title":"Comunicaci\u00f3n para el Cambio"},{"id":"00072230","subnational":[{"awardID":"00072230","lat":"13.11278","lon":"-87.59417","name":"Golfo de Fonseca","precision":"4","type":"RES"},{"awardID":"00072230","lat":"12.62937","lon":"-87.13105","name":"Chinandega","precision":"3","type":"PPLA"},{"awardID":"00072230","lat":"13.44305","lon":"-85.14404","name":"Bosawas","precision":"4","type":"RES"}],"title":"Desarrollo de capacidades locales para gesti\u00f3n ambiental"},{"id":"00071274","subnational":[{"awardID":"00071274","lat":"12.13282","lon":"-86.2504","name":"Managua","precision":"3","type":"PPLC"}],"title":"Desarrollo Econ\u00f3mico Local - Turismo Sostenible"},{"id":"00059154","subnational":[{"awardID":"00059154","lat":"13","lon":"-85","name":"Region Autonoma del Atlantico Norte, Nicaragua","precision":"9","type":"PCL"}],"title":"Desarrollo hidroelectricidad a peque\u00f1a escala Fase II"},{"id":"00014048","subnational":[{"awardID":"00014048","lat":"13","lon":"-85","name":"Atlantico Sur","precision":"9","type":"PCL"},{"awardID":"00014048","lat":"13","lon":"-85","name":"Atlantico Norte","precision":"9","type":"PCL"},{"awardID":"00014048","lat":"12.13282","lon":"-86.2504","name":"Managua","precision":"3","type":"PPLC"}],"title":"Desarrollo Humano Costa Caribe de Nicaragua"},{"id":"00032004","subnational":[{"awardID":"00032004","lat":"12.13282","lon":"-86.2504","name":"Managua","precision":"3","type":"PPLC"}],"title":"DSS  & DAS"},{"id":"00063593","subnational":[{"awardID":"00063593","lat":"13.65328","lon":"-86.61297","name":"Macuelizo","precision":"3","type":"PPL"},{"awardID":"00063593","lat":"13.19643","lon":"-85.82687","name":"Santa Maria","precision":"3","type":"ADM2"},{"awardID":"00063593","lat":"13.66034","lon":"-86.43841","name":"Mozonte","precision":"3","type":"PPL"},{"awardID":"00063593","lat":"13.7","lon":"-86.16667","name":"Nueva Segovia","precision":"4","type":"ADM1"},{"awardID":"00063593","lat":"13.4138","lon":"-86.6111","name":"San Lucas","precision":"3","type":"PPL"},{"awardID":"00063593","lat":"13.53166","lon":"-86.2871","name":"Telpaneca","precision":"3","type":"PPL"},{"awardID":"00063593","lat":"13.5","lon":"-86.41667","name":"Madriz","precision":"4","type":"ADM1"},{"awardID":"00063593","lat":"13.09185","lon":"-86.35384","name":"Esteli","precision":"3","type":"PPLA"},{"awardID":"00063593","lat":"13.63208","lon":"-86.47516","name":"Ocotal","precision":"3","type":"PPLA"},{"awardID":"00063593","lat":"13.48082","lon":"-86.58208","name":"Somoto","precision":"3","type":"PPLA"}],"title":"Enfoque Territorial contra el Cambio Clim\u00e1tico (TACC)"},{"id":"00043528","subnational":[{"awardID":"00043528","lat":"13","lon":"-85","name":"Nicaragua","precision":"9","type":"PCL"}],"title":"Equidad de GENERO"},{"id":"00071228","subnational":[{"awardID":"00071228","lat":"13","lon":"-85","name":"Nicaragua","precision":"9","type":"PCL"}],"title":"Fomento de Mercados para la Agroindustria Sostenible"},{"id":"00051458","subnational":[{"awardID":"00051458","lat":"13","lon":"-85","name":"Regiones Autonomas del Atlantico Sur","precision":"9","type":"PCL"},{"awardID":"00051458","lat":"13","lon":"-85","name":"Regiones Autonomas del Atlantico Norte","precision":"9","type":"PCL"},{"awardID":"00051458","lat":"12.13282","lon":"-86.2504","name":"Managua","precision":"3","type":"PPLC"}],"title":"Fondo ODM Gobernabilidad Agua y Saneamiento Nicaragua"},{"id":"00058930","subnational":[{"awardID":"00058930","lat":"14.02885","lon":"-84.59103","name":"Bonanza","precision":"3","type":"PPL"},{"awardID":"00058930","lat":"14.02885","lon":"-84.59103","name":"Bonanza","precision":"3","type":"PPL"}],"title":"Fondo ODM Infancia y Seguridad Alimentaria"},{"id":"00057114","subnational":[{"awardID":"00057114","lat":"13","lon":"-85","name":"Nicaragua","precision":"9","type":"PCL"},{"awardID":"00057114","lat":"13","lon":"-85","name":"Regiones Autonomas del Atlantico Norte","precision":"9","type":"PCL"},{"awardID":"00057114","lat":"12.13282","lon":"-86.2504","name":"Managua","precision":"3","type":"PPLC"}],"title":"Fondo ODM Revitalizacion Cultural y Des Productivo"},{"id":"00074363","subnational":[{"awardID":"00074363","lat":"13","lon":"-85","name":"Nicaragua","precision":"9","type":"PCL"}],"title":"Fortalecer capacidades en Gestion de Riesgos y Recupera"},{"id":"00046611","subnational":[{"awardID":"00046611","lat":"13","lon":"-85","name":"Nicaragua","precision":"9","type":"PCL"},{"awardID":"00046611","lat":"12.43787","lon":"-86.87804","name":"Leon","precision":"3","type":"PPLA"},{"awardID":"00046611","lat":"13","lon":"-85","name":"Nicaragua","precision":"9","type":"PCL"},{"awardID":"00046611","lat":"12.62937","lon":"-87.13105","name":"Chinandega","precision":"3","type":"PPLA"},{"awardID":"00046611","lat":"13","lon":"-85","name":"Nicaragua","precision":"9","type":"PCL"},{"awardID":"00046611","lat":"13.09171","lon":"-86.00177","name":"Jinotega","precision":"3","type":"PPLA"},{"awardID":"00046611","lat":"13","lon":"-85","name":"Nicaragua","precision":"9","type":"PCL"},{"awardID":"00046611","lat":"13","lon":"-85","name":"Nicaragua","precision":"9","type":"PCL"}],"title":"Fortalecimiento Sistema Areas Protegidas"},{"id":"00074358","subnational":[{"awardID":"00074358","lat":"13.11278","lon":"-87.59417","name":"Golfo de Fonseca","precision":"4","type":"RES"},{"awardID":"00074358","lat":"13.09171","lon":"-86.00177","name":"Jinotega","precision":"3","type":"PPLA"},{"awardID":"00074358","lat":"13.7","lon":"-86.16667","name":"Nueva Segovia","precision":"4","type":"ADM1"}],"title":"Frontera Norte de Nicaragua"},{"id":"00070142","subnational":[{"awardID":"00070142","lat":"13","lon":"-85","name":"Nicaragua","precision":"9","type":"PCL"}],"title":"Gesti\u00f3n del Conocimiento, Innovaci\u00f3n y Desarrollo"},{"id":"00068773","subnational":[{"awardID":"00068773","lat":"12.01366","lon":"-83.76353","name":"Bluefields","precision":"9","type":"ADM2"},{"awardID":"00068773","lat":"12.1629","lon":"-83.0638","name":"Corn Island","precision":"9","type":"PPL"},{"awardID":"00068773","lat":"13.09185","lon":"-86.35384","name":"Esteli","precision":"9","type":"ADM1"},{"awardID":"00068773","lat":"12.01366","lon":"-83.76353","name":"Bluefields","precision":"9","type":"ADM2"},{"awardID":"00068773","lat":"12.1629","lon":"-83.0638","name":"Corn Island","precision":"9","type":"PPL"},{"awardID":"00068773","lat":"13.09185","lon":"-86.35384","name":"Esteli","precision":"9","type":"ADM2"},{"awardID":"00068773","lat":"12.01366","lon":"-83.76353","name":"Bluefields","precision":"9","type":"ADM2"},{"awardID":"00068773","lat":"12.1629","lon":"-83.0638","name":"Corn Island","precision":"9","type":"PPL"},{"awardID":"00068773","lat":"13.09185","lon":"-86.35384","name":"Esteli","precision":"9","type":"ADM2"}],"title":"Gesti\u00f3n Integral y Sostenible de Residuos S\u00f3lidos RAAS"},{"id":"00050658","subnational":[{"awardID":"00050658","lat":"13","lon":"-85","name":"Nicaragua","precision":"9","type":"PCL"}],"title":"Grupo Tem\u00e1tico VIH Nicaragua"},{"id":"00048917","subnational":[{"awardID":"00048917","lat":"13","lon":"-85","name":"Nicaragua","precision":"9","type":"PCL"}],"title":"Institucionalidad Democr\u00e1tica Parlamento"},{"id":"00041235","subnational":[{"awardID":"00041235","lat":"12.88687","lon":"-86.53903","name":"El Sauce","precision":"3","type":"PPL"},{"awardID":"00041235","lat":"13.22956","lon":"-86.86744","name":"Cinco Pinos","precision":"3","type":"PPL"},{"awardID":"00041235","lat":"12.06938","lon":"-85.09059","name":"Santo Tomas","precision":"3","type":"PPL"},{"awardID":"00041235","lat":"13.23333","lon":"-86.7","name":"San Francisco del norte","precision":"3","type":"ADM2"},{"awardID":"00041235","lat":"12.50497","lon":"-86.29942","name":"San Francisco Libre","precision":"3","type":"PPL"}],"title":"Manejo Sostenible de la Tierra en Areas Degradadas"},{"id":"00068892","subnational":[{"awardID":"00068892","lat":"12.13282","lon":"-86.2504","name":"Managua","precision":"9","type":"PPLC"},{"awardID":"00068892","lat":"14.03507","lon":"-83.38882","name":"Bilwi","precision":"9","type":"ADM2"},{"awardID":"00068892","lat":"12.01366","lon":"-83.76353","name":"Bluefields","precision":"9","type":"ADM2"},{"awardID":"00068892","lat":"13.09185","lon":"-86.35384","name":"Esteli","precision":"9","type":"ADM2"},{"awardID":"00068892","lat":"12.34294","lon":"-83.67123","name":"Laguna Perlas","precision":"9","type":"PPL"},{"awardID":"00068892","lat":"13.48082","lon":"-86.58208","name":"Somoto","precision":"9","type":"ADM2"},{"awardID":"00068892","lat":"12.43787","lon":"-86.87804","name":"Leon","precision":"9","type":"ADM2"},{"awardID":"00068892","lat":"12.13282","lon":"-86.2504","name":"Managua","precision":"9","type":"PPLC"},{"awardID":"00068892","lat":"14.03507","lon":"-83.38882","name":"Bilwi","precision":"9","type":"ADM2"},{"awardID":"00068892","lat":"12.01366","lon":"-83.76353","name":"Bluefields","precision":"9","type":"ADM2"},{"awardID":"00068892","lat":"13.09185","lon":"-86.35384","name":"Esteli","precision":"9","type":"ADM2"},{"awardID":"00068892","lat":"12.34294","lon":"-83.67123","name":"Laguna Perlas","precision":"9","type":"PPL"},{"awardID":"00068892","lat":"13.48082","lon":"-86.58208","name":"Somoto","precision":"9","type":"ADM2"},{"awardID":"00068892","lat":"12.43787","lon":"-86.87804","name":"Leon","precision":"9","type":"ADM2"},{"awardID":"00068892","lat":"12.13282","lon":"-86.2504","name":"Managua","precision":"9","type":"PPLC"},{"awardID":"00068892","lat":"14.03507","lon":"-83.38882","name":"Bilwi","precision":"9","type":"ADM2"},{"awardID":"00068892","lat":"12.01366","lon":"-83.76353","name":"Bluefields","precision":"9","type":"ADM2"},{"awardID":"00068892","lat":"13.09185","lon":"-86.35384","name":"Esteli","precision":"9","type":"ADM2"},{"awardID":"00068892","lat":"12.34294","lon":"-83.67123","name":"Laguna Perlas","precision":"9","type":"PPL"},{"awardID":"00068892","lat":"13.48082","lon":"-86.58208","name":"Somoto","precision":"9","type":"ADM2"},{"awardID":"00068892","lat":"12.43787","lon":"-86.87804","name":"Leon","precision":"9","type":"ADM2"}],"title":"Mejoramiento de Prevencion y Acceso a la Justicia VIFS"},{"id":"00072953","subnational":[{"awardID":"00072953","lat":"13","lon":"-85","name":"Nicaragua","precision":"9","type":"PCL"}],"title":"Plan de Inicio Agenda Joven Nicaragua"},{"id":"00070631","subnational":[{"awardID":"00070631","lat":"13","lon":"-85","name":"Nicaragua","precision":"9","type":"PCL"}],"title":"Planificaci\u00f3n Nacional de la Biodiversidad"},{"id":"00066868","subnational":[{"awardID":"00066868","lat":"13","lon":"-85","name":"Nicaragua","precision":"9","type":"PCL"}],"title":"Programa  Pueblos Indigenas y Afrodescendientes"},{"id":"00066306","subnational":[{"awardID":"00066306","lat":"13","lon":"-85","name":"Nicaragua","precision":"9","type":"PCL"}],"title":"Programa Apoyo Integral Desarrollo de H\u00e1bitat Sostenible"},{"id":"00048669","subnational":[{"awardID":"00048669","lat":"13.8897","lon":"-84.4089","name":"Rosita","precision":"3","type":"PPL"},{"awardID":"00048669","lat":"14.02885","lon":"-84.59103","name":"Bonanza","precision":"3","type":"PPL"},{"awardID":"00048669","lat":"14.74189","lon":"-83.9717","name":"Waspan","precision":"3","type":"PPL"}],"title":"Programa conjunto de gesti\u00f3n ambiental"},{"id":"00050792","subnational":[{"awardID":"00050792","lat":"11.97444","lon":"-86.09417","name":"Masaya","precision":"3","type":"PPLA"},{"awardID":"00050792","lat":"13.04328","lon":"-86.90645","name":"Somotillo","precision":"3","type":"PPL"},{"awardID":"00050792","lat":"12.62937","lon":"-87.13105","name":"Chinandega","precision":"3","type":"PPLA"},{"awardID":"00050792","lat":"13.04416","lon":"-85.74872","name":"Tuma La Dalia","precision":"3","type":"ADM2"},{"awardID":"00050792","lat":"12.85321","lon":"-86.0963","name":"Sebaco","precision":"3","type":"PPL"},{"awardID":"00050792","lat":"12.92559","lon":"-85.91747","name":"Matagalpa","precision":"3","type":"PPLA"},{"awardID":"00050792","lat":"13.19528","lon":"-86.16674","name":"La Concordia","precision":"3","type":"PPL"},{"awardID":"00050792","lat":"13.09171","lon":"-86.00177","name":"Jinotega","precision":"3","type":"PPLA"},{"awardID":"00050792","lat":"12.50497","lon":"-86.29942","name":"San Francisco Libre","precision":"3","type":"PPL"},{"awardID":"00050792","lat":"11.56615","lon":"-85.5784","name":"Altagracia","precision":"3","type":"PPL"},{"awardID":"00050792","lat":"12.13282","lon":"-86.2504","name":"Managua","precision":"3","type":"PPLA"},{"awardID":"00050792","lat":"11.97444","lon":"-86.09417","name":"Masaya","precision":"3","type":"PPLA"},{"awardID":"00050792","lat":"13.04328","lon":"-86.90645","name":"Somotillo","precision":"3","type":"PPL"},{"awardID":"00050792","lat":"12.62937","lon":"-87.13105","name":"Chinandega","precision":"3","type":"PPLA"},{"awardID":"00050792","lat":"13.04416","lon":"-85.74872","name":"Tuma La Dalia","precision":"3","type":"ADM2"},{"awardID":"00050792","lat":"12.85321","lon":"-86.0963","name":"Sebaco","precision":"3","type":"PPL"},{"awardID":"00050792","lat":"12.92559","lon":"-85.91747","name":"Matagalpa","precision":"3","type":"PPLA"},{"awardID":"00050792","lat":"13.19528","lon":"-86.16674","name":"La Concordia","precision":"3","type":"PPL"},{"awardID":"00050792","lat":"13.09171","lon":"-86.00177","name":"Jinotega","precision":"3","type":"PPLA"},{"awardID":"00050792","lat":"12.50497","lon":"-86.29942","name":"San Francisco Libre","precision":"3","type":"PPL"},{"awardID":"00050792","lat":"11.56615","lon":"-85.5784","name":"Altagracia","precision":"3","type":"PPL"},{"awardID":"00050792","lat":"12.13282","lon":"-86.2504","name":"Managua","precision":"3","type":"PPLC"},{"awardID":"00050792","lat":"11.97444","lon":"-86.09417","name":"Masaya","precision":"3","type":"PPLA"},{"awardID":"00050792","lat":"13.04328","lon":"-86.90645","name":"Somotillo","precision":"3","type":"PPL"},{"awardID":"00050792","lat":"12.62937","lon":"-87.13105","name":"Chinandega","precision":"3","type":"PPLA"},{"awardID":"00050792","lat":"13.04416","lon":"-85.74872","name":"Tuma La Dalia","precision":"3","type":"ADM2"},{"awardID":"00050792","lat":"12.85321","lon":"-86.0963","name":"Sebaco","precision":"3","type":"PPL"},{"awardID":"00050792","lat":"12.92559","lon":"-85.91747","name":"Matagalpa","precision":"3","type":"PPLA"},{"awardID":"00050792","lat":"13.19528","lon":"-86.16674","name":"La Concordia","precision":"3","type":"PPL"},{"awardID":"00050792","lat":"13.09171","lon":"-86.00177","name":"Jinotega","precision":"3","type":"PPLA"},{"awardID":"00050792","lat":"12.50497","lon":"-86.29942","name":"San Francisco Libre","precision":"3","type":"PPL"},{"awardID":"00050792","lat":"11.56615","lon":"-85.5784","name":"Altagracia","precision":"3","type":"PPL"},{"awardID":"00050792","lat":"12.13282","lon":"-86.2504","name":"Managua","precision":"3","type":"PPLC"},{"awardID":"00050792","lat":"11.97444","lon":"-86.09417","name":"Masaya","precision":"3","type":"PPLA"},{"awardID":"00050792","lat":"13.04328","lon":"-86.90645","name":"Somotillo","precision":"3","type":"PPL"},{"awardID":"00050792","lat":"12.62937","lon":"-87.13105","name":"Chinandega","precision":"3","type":"PPLA"},{"awardID":"00050792","lat":"13.04416","lon":"-85.74872","name":"Tuma La Dalia","precision":"3","type":"ADM2"},{"awardID":"00050792","lat":"12.85321","lon":"-86.0963","name":"Sebaco","precision":"3","type":"PPL"},{"awardID":"00050792","lat":"12.92559","lon":"-85.91747","name":"Matagalpa","precision":"3","type":"PPLA"},{"awardID":"00050792","lat":"13.19528","lon":"-86.16674","name":"La Concordia","precision":"3","type":"PPL"},{"awardID":"00050792","lat":"13.09171","lon":"-86.00177","name":"Jinotega","precision":"3","type":"PPLA"},{"awardID":"00050792","lat":"12.50497","lon":"-86.29942","name":"San Francisco Libre","precision":"3","type":"PPL"},{"awardID":"00050792","lat":"11.56615","lon":"-85.5784","name":"Altagracia","precision":"3","type":"PPL"},{"awardID":"00050792","lat":"12.13282","lon":"-86.2504","name":"Managua","precision":"3","type":"PPLC"},{"awardID":"00050792","lat":"11.97444","lon":"-86.09417","name":"Masaya","precision":"3","type":"PPLA"},{"awardID":"00050792","lat":"13.04328","lon":"-86.90645","name":"Somotillo","precision":"3","type":"PPL"},{"awardID":"00050792","lat":"12.62937","lon":"-87.13105","name":"Chinandega","precision":"3","type":"PPLA"},{"awardID":"00050792","lat":"13.04416","lon":"-85.74872","name":"Tuma La Dalia","precision":"3","type":"ADM2"},{"awardID":"00050792","lat":"12.85321","lon":"-86.0963","name":"Sebaco","precision":"3","type":"PPL"},{"awardID":"00050792","lat":"12.92559","lon":"-85.91747","name":"Matagalpa","precision":"3","type":"PPLA"},{"awardID":"00050792","lat":"13.19528","lon":"-86.16674","name":"La Concordia","precision":"3","type":"PPL"},{"awardID":"00050792","lat":"13.09171","lon":"-86.00177","name":"Jinotega","precision":"3","type":"PPLA"},{"awardID":"00050792","lat":"12.50497","lon":"-86.29942","name":"San Francisco Libre","precision":"3","type":"PPL"},{"awardID":"00050792","lat":"11.56615","lon":"-85.5784","name":"Altagracia","precision":"3","type":"PPL"},{"awardID":"00050792","lat":"12.13282","lon":"-86.2504","name":"Managua","precision":"3","type":"PPLC"}],"title":"Programa Conjunto Juventud, Empleo y Migracion (JEM)"},{"id":"00060676","subnational":[{"awardID":"00060676","lat":"13","lon":"-85","name":"Nicaragua","precision":"9","type":"PCL"}],"title":"Programa de Apoyo a la Integraci\u00f3n Regional Fase II"},{"id":"00050197","subnational":[{"awardID":"00050197","lat":"13","lon":"-85","name":"Nicaragua","precision":"9","type":"PCL"},{"awardID":"00050197","lat":"13","lon":"-85","name":"Nicaragua","precision":"9","type":"PCL"}],"title":"Programa Desarrollo Humano de Nicaragua"},{"id":"00046305","subnational":[{"awardID":"00046305","lat":"13","lon":"-85","name":"Regiones Autonomas del Atlantico Sur","precision":"9","type":"PCL"},{"awardID":"00046305","lat":"13","lon":"-85","name":"Regiones Autonomas del Atlantico Norte","precision":"9","type":"PCL"},{"awardID":"00046305","lat":"12.13282","lon":"-86.2504","name":"Managua","precision":"3","type":"PPLC"}],"title":"Programa Gobernabilidad Costa Caribe de Nicaragua"},{"id":"00061888","subnational":[{"awardID":"00061888","lat":"12.43787","lon":"-86.87804","name":"Leon","precision":"3","type":"PPLA"},{"awardID":"00061888","lat":"12.92559","lon":"-85.91747","name":"Matagalpa","precision":"3","type":"PPLA"},{"awardID":"00061888","lat":"13.09185","lon":"-86.35384","name":"Esteli","precision":"3","type":"PPLA"},{"awardID":"00061888","lat":"12.13282","lon":"-86.2504","name":"Managua","precision":"3","type":"PPLC"}],"title":"Programa Interagencial de Gesti\u00f3n de Riesgos"},{"id":"00059913","subnational":[{"awardID":"00059913","lat":"13","lon":"-85","name":"Nicaragua","precision":"9","type":"PCL"},{"awardID":"00059913","lat":"13","lon":"-85","name":"Nicaragua","precision":"9","type":"PCL"}],"title":"Programa Regional  de Seguridad Alimentaria Fase II"},{"id":"00048774","subnational":[{"awardID":"00048774","lat":"12.13282","lon":"-86.2504","name":"Managua","precision":"3","type":"PPLC"}],"title":"Promoci\u00f3n de un Transporte Ambientalmente Sostenible"},{"id":"00058273","subnational":[{"awardID":"00058273","lat":"10.73036","lon":"-83.96498","name":"Academia de Policia Walter Mendoza","precision":"4","type":"ADM1"},{"awardID":"00058273","lat":"13","lon":"-85","name":"Nicaragua","precision":"9","type":"PCL"},{"awardID":"00058273","lat":"13","lon":"-85","name":"Nicaragua","precision":"9","type":"PCL"},{"awardID":"00058273","lat":"13","lon":"-85","name":"Nicaragua","precision":"9","type":"PCL"},{"awardID":"00058273","lat":"13","lon":"-85","name":"Nicaragua","precision":"9","type":"PCL"},{"awardID":"00058273","lat":"13","lon":"-85","name":"Nicaragua","precision":"9","type":"PCL"},{"awardID":"00058273","lat":"13","lon":"-85","name":"Nicaragua","precision":"9","type":"PCL"}],"title":"Proyecto Pana Laka II"},{"id":"00059776","subnational":[{"awardID":"00059776","lat":"12.92058","lon":"-87.36315","name":"Rio Estero Real","precision":"4","type":"RES"}],"title":"Reducci\u00f3n de Riesgos y Vulnerabilidad"},{"id":"00059357","subnational":[{"awardID":"00059357","lat":"13","lon":"-85","name":"Nicaragua","precision":"9","type":"PCL"},{"awardID":"00059357","lat":"13","lon":"-85","name":"Nicaragua","precision":"9","type":"PCL"}],"title":"Regional Sistemas de Informacion Seguridad Alimentaria"},{"id":"00063002","subnational":[{"awardID":"00063002","lat":"12.62937","lon":"-87.13105","name":"Chinandega","precision":"3","type":"PPLA"},{"awardID":"00063002","lat":"12.70264","lon":"-87.00588","name":"El Viejo","precision":"3","type":"PPL"},{"awardID":"00063002","lat":"12.96361","lon":"-86.81472","name":"Villanueva","precision":"3","type":"PPL"},{"awardID":"00063002","lat":"13.04328","lon":"-86.90645","name":"Somotillo","precision":"3","type":"PPL"},{"awardID":"00063002","lat":"13.22956","lon":"-86.86744","name":"Cinco Pinos","precision":"3","type":"PPL"},{"awardID":"00063002","lat":"12.06938","lon":"-85.09059","name":"Santo Tomas","precision":"3","type":"PPL"},{"awardID":"00063002","lat":"12.26667","lon":"-85.38333","name":"San Francisco","precision":"3","type":"ADM2"},{"awardID":"00063002","lat":"12.70264","lon":"-87.00588","name":"San Pedro","precision":"3","type":"PPL"},{"awardID":"00063002","lat":"12.62937","lon":"-87.13105","name":"Chinandega","precision":"3","type":"PPLA"},{"awardID":"00063002","lat":"12.70264","lon":"-87.00588","name":"El Viejo","precision":"3","type":"PPL"},{"awardID":"00063002","lat":"12.96361","lon":"-86.81472","name":"Villanueva","precision":"3","type":"PPL"},{"awardID":"00063002","lat":"13.04328","lon":"-86.90645","name":"Somotillo","precision":"3","type":"PPL"},{"awardID":"00063002","lat":"13.22956","lon":"-86.86744","name":"Cinco Pinos","precision":"3","type":"PPL"},{"awardID":"00063002","lat":"12.06938","lon":"-85.09059","name":"Santo Tomas","precision":"3","type":"PPL"},{"awardID":"00063002","lat":"12.26667","lon":"-85.38333","name":"San Francisco","precision":"3","type":"ADM2"},{"awardID":"00063002","lat":"12.70264","lon":"-87.00588","name":"San Pedro","precision":"3","type":"PPL"},{"awardID":"00063002","lat":"12.62937","lon":"-87.13105","name":"Chinandega","precision":"3","type":"PPLA"},{"awardID":"00063002","lat":"12.70264","lon":"-87.00588","name":"El Viejo","precision":"3","type":"PPL"},{"awardID":"00063002","lat":"12.96361","lon":"-86.81472","name":"Villanueva","precision":"3","type":"PPL"},{"awardID":"00063002","lat":"13.04328","lon":"-86.90645","name":"Somotillo","precision":"3","type":"PPL"},{"awardID":"00063002","lat":"13.22956","lon":"-86.86744","name":"Cinco Pinos","precision":"3","type":"PPL"},{"awardID":"00063002","lat":"12.06938","lon":"-85.09059","name":"Santo Tomas","precision":"3","type":"PPL"},{"awardID":"00063002","lat":"12.26667","lon":"-85.38333","name":"San Francisco","precision":"3","type":"ADM2"},{"awardID":"00063002","lat":"12.70264","lon":"-87.00588","name":"San Pedro","precision":"3","type":"PPL"}],"title":"Respuesta Emergencia causada por Depresion Tropical E12"},{"id":"00070023","subnational":[{"awardID":"00070023","lat":"13.53333","lon":"-85.53333","name":"Alto Wangki","precision":"3","type":"PPL"},{"awardID":"00070023","lat":"13.53333","lon":"-85.53333","name":"Bocay","precision":"3","type":"PPL"}],"title":"Seguridad Humana en el Alto Wangki y Bocay"},{"id":"00032161","subnational":[],"title":"Support to United Nations Coordination"}]}