{"iso_num":"642","op_unit":"ROU","projects":[{"id":"00014598","subnational":[{"awardID":"00014598","focus_area":"-","focus_area_descr":"-","lat":"46","lon":"25","name":"Romania","outputID":"00014598","output_locID":"00014598-1","precision":"9","type":"PCL"}],"title":"All about HIV/AIDS"},{"id":"00014600","subnational":[{"awardID":"00014600","focus_area":"-","focus_area_descr":"-","lat":"46","lon":"25","name":"Romania","outputID":"00014600","output_locID":"00014600-1","precision":"9","type":"PCL"}],"title":"Assistance to the Presidential Administration"},{"id":"00014599","subnational":[{"awardID":"00014599","focus_area":"4","focus_area_descr":"Environment & sustainable development","lat":"46.06667","lon":"23.58333","name":"Alba Iulia, Romania","outputID":"00014599","output_locID":"00014599-1","precision":"3","type":"PPLA"},{"awardID":"00014599","focus_area":"4","focus_area_descr":"Environment & sustainable development","lat":"47.13316","lon":"24.50011","name":"Bistrita, Romania","outputID":"00014599","output_locID":"00014599-2","precision":"3","type":"PPLA"},{"awardID":"00014599","focus_area":"4","focus_area_descr":"Environment & sustainable development","lat":"45.26667","lon":"27.98333","name":"Braila, Romania","outputID":"00014599","output_locID":"00014599-3","precision":"3","type":"PPLA"},{"awardID":"00014599","focus_area":"4","focus_area_descr":"Environment & sustainable development","lat":"45.64861","lon":"25.60613","name":"Brasov, Romania","outputID":"00014599","output_locID":"00014599-4","precision":"3","type":"PPLA"},{"awardID":"00014599","focus_area":"4","focus_area_descr":"Environment & sustainable development","lat":"44.43225","lon":"26.10626","name":"Bucuresti, Romania","outputID":"00014599","output_locID":"00014599-5","precision":"3","type":"PPLC"},{"awardID":"00014599","focus_area":"4","focus_area_descr":"Environment & sustainable development","lat":"44.31667","lon":"23.8","name":"Craiova, Romania","outputID":"00014599","output_locID":"00014599-6","precision":"3","type":"PPLA"},{"awardID":"00014599","focus_area":"4","focus_area_descr":"Environment & sustainable development","lat":"46.16667","lon":"24.35","name":"Medias, Romania","outputID":"00014599","output_locID":"00014599-7","precision":"3","type":"PPLA2"},{"awardID":"00014599","focus_area":"4","focus_area_descr":"Environment & sustainable development","lat":"46.35","lon":"25.8","name":"Miercurea Ciuc, Romania","outputID":"00014599","output_locID":"00014599-8","precision":"3","type":"PPL"},{"awardID":"00014599","focus_area":"4","focus_area_descr":"Environment & sustainable development","lat":"45.8","lon":"24.15","name":"Sibiu, Romania","outputID":"00014599","output_locID":"00014599-9","precision":"3","type":"PPLA"},{"awardID":"00014599","focus_area":"4","focus_area_descr":"Environment & sustainable development","lat":"46.22816","lon":"24.77927","name":"Sighisoara, Romania","outputID":"00014599","output_locID":"00014599-10","precision":"3","type":"ADM2"},{"awardID":"00014599","focus_area":"4","focus_area_descr":"Environment & sustainable development","lat":"45.15608","lon":"29.65197","name":"Sulina, Romania","outputID":"00014599","output_locID":"00014599-11","precision":"3","type":"ADM2"},{"awardID":"00014599","focus_area":"4","focus_area_descr":"Environment & sustainable development","lat":"44.92543","lon":"25.4567","name":"Targoviste","outputID":"00014599","output_locID":"00014599-12","precision":"3","type":"PPLA"}],"title":"Beautiful Romania"},{"id":"00041352","subnational":[{"awardID":"00041352","focus_area":"4","focus_area_descr":"Environment & sustainable development","lat":"46","lon":"25","name":"Romania","outputID":"00047111","output_locID":"00047111-1","precision":"9","type":"PCL"}],"title":"Best Management Practices Macin Mountains National Park"},{"id":"00051473","subnational":[{"awardID":"00051473","focus_area":"4","focus_area_descr":"Environment & sustainable development","lat":"46","lon":"25","name":"Romania","outputID":"00064117","output_locID":"00064117-1","precision":"9","type":"PCL"}],"title":"Enhancing Good Governance in Romania UDF-ROM-07-193"},{"id":"00037408","subnational":[{"awardID":"00037408","focus_area":"1","focus_area_descr":"Poverty reduction & MDG achievement","lat":"46.06667","lon":"23.58333","name":"Alba Iulia, Romania","outputID":"00072886","output_locID":"00072886-1","precision":"3","type":"PPLA"},{"awardID":"00037408","focus_area":"1","focus_area_descr":"Poverty reduction & MDG achievement","lat":"45.64861","lon":"25.60613","name":"Brasov, Romania","outputID":"00072886","output_locID":"00072886-2","precision":"3","type":"PPLA"},{"awardID":"00037408","focus_area":"1","focus_area_descr":"Poverty reduction & MDG achievement","lat":"46.55","lon":"23.88333","name":"Campia Turzii, Romania","outputID":"00072886","output_locID":"00072886-3","precision":"3","type":"PPLA2"},{"awardID":"00037408","focus_area":"1","focus_area_descr":"Poverty reduction & MDG achievement","lat":"47.96772","lon":"26.41685","name":"Dorohoi, Romania","outputID":"00072886","output_locID":"00072886-4","precision":"3","type":"ADM2"},{"awardID":"00037408","focus_area":"1","focus_area_descr":"Poverty reduction & MDG achievement","lat":"43.8","lon":"28.58333","name":"Mangalia, Romania","outputID":"00072886","output_locID":"00072886-5","precision":"3","type":"PPLA2"},{"awardID":"00037408","focus_area":"1","focus_area_descr":"Poverty reduction & MDG achievement","lat":"47.8","lon":"22.88333","name":"Satu Mare, Romania","outputID":"00072886","output_locID":"00072886-6","precision":"3","type":"PPLA"},{"awardID":"00037408","focus_area":"1","focus_area_descr":"Poverty reduction & MDG achievement","lat":"45.86667","lon":"25.78333","name":"Sfantu Gheorghe","outputID":"00072886","output_locID":"00072886-7","precision":"3","type":"PPLA"},{"awardID":"00037408","focus_area":"1","focus_area_descr":"Poverty reduction & MDG achievement","lat":"46.54245","lon":"24.55747","name":"Targu Mures, Romania","outputID":"00072886","output_locID":"00072886-8","precision":"3","type":"PPLA"}],"title":"Establishment and Dev. of Business Incubators"},{"id":"00057844","subnational":[{"awardID":"00057844","focus_area":"1","focus_area_descr":"Poverty reduction & MDG achievement","lat":"46","lon":"25","name":"Romania","outputID":"00071601","output_locID":"00071601-1","precision":"9","type":"PCL"}],"title":"Financial Literacy Programme"},{"id":"00058266","subnational":[{"awardID":"00058266","focus_area":"4","focus_area_descr":"Environment & sustainable development","lat":"44.43225","lon":"26.10626","name":"Bucharest, Romania","outputID":"00072323","output_locID":"00072323-1","precision":"3","type":"PPLC"}],"title":"Financial Sustainability of Carpathian Protected Areas"},{"id":"00037355","subnational":[{"awardID":"00037355","focus_area":"-","focus_area_descr":"-","lat":"46","lon":"25","name":"Romania","outputID":"00040878","output_locID":"00040878-1","precision":"9","type":"PCL"}],"title":"Gender"},{"id":"00061005","subnational":[{"awardID":"00061005","focus_area":"4","focus_area_descr":"Environment & sustainable development","lat":"46","lon":"25","name":"Romania","outputID":"00077064","output_locID":"00077064-1","precision":"9","type":"PCL"}],"title":"Improving Energy Efficiency in Low-Income Households"},{"id":"00059835","subnational":[{"awardID":"00059835","focus_area":"1","focus_area_descr":"Poverty reduction & MDG achievement","lat":"44.43225","lon":"26.10626","name":"Bucharest, Romania","outputID":"00075021","output_locID":"00075021-1","precision":"3","type":"PPLC"}],"title":"Increased adaptability of Rom companies through CSR"},{"id":"00062609","subnational":[{"awardID":"00062609","focus_area":"4","focus_area_descr":"Environment & sustainable development","lat":"46","lon":"25","name":"Romania","outputID":"00080121","output_locID":"00080121-1","precision":"9","type":"PCL"}],"title":"Integrated Urban Development for Soustainable Tourism"},{"id":"00059837","subnational":[{"awardID":"00059837","focus_area":"1","focus_area_descr":"Poverty reduction & MDG achievement","lat":"46","lon":"25","name":"Romania","outputID":"00075023","output_locID":"00075023-1","precision":"9","type":"PCL"}],"title":"Model Project for making the most of EU Fund for Roma"},{"id":"00014597","subnational":[{"awardID":"00014597","focus_area":"-","focus_area_descr":"-","lat":"46","lon":"25","name":"Romania","outputID":"00014597","output_locID":"00014597-1","precision":"9","type":"PCL"}],"title":"PIMS 98 CC Energy Efficiency"},{"id":"00061648","subnational":[{"awardID":"00061648","focus_area":"1","focus_area_descr":"Poverty reduction & MDG achievement","lat":"44.43225","lon":"26.10626","name":"Bucharest, Romania","outputID":"00078185","output_locID":"00078185-1","precision":"3","type":"PPLC"}],"title":"Reintegration of ex-convicts into labor market & society"},{"id":"00059834","subnational":[{"awardID":"00059834","focus_area":"1","focus_area_descr":"Poverty reduction & MDG achievement","lat":"44.43225","lon":"26.10626","name":"Bucharest, Romania","outputID":"00075020","output_locID":"00075020-1","precision":"3","type":"PPLC"}],"title":"Social Economy Model for Roma"},{"id":"00059833","subnational":[{"awardID":"00059833","focus_area":"1","focus_area_descr":"Poverty reduction & MDG achievement","lat":"46","lon":"25","name":"Romania","outputID":"00075018","output_locID":"00075018-1","precision":"9","type":"PCL"}],"title":"Social Economy Model for Romania"},{"id":"00048649","subnational":[{"awardID":"00048649","focus_area":"2","focus_area_descr":"Democratic governance","lat":"44.43225","lon":"26.10626","name":"Bucharest, Romania","outputID":"00058892","output_locID":"00058892-1","precision":"3","type":"PPLC"},{"awardID":"00048649","focus_area":"2","focus_area_descr":"Democratic governance","lat":"46","lon":"25","name":"Romania","outputID":"00083347","output_locID":"00083347-1","precision":"9","type":"PCL"},{"awardID":"00048649","focus_area":"2","focus_area_descr":"Democratic governance","lat":"46","lon":"25","name":"Romania","outputID":"00083348","output_locID":"00083348-1","precision":"9","type":"PCL"},{"awardID":"00048649","focus_area":"-","focus_area_descr":"-","lat":"44.43225","lon":"26.10626","name":"Bucharest, Romania","outputID":"00073521","output_locID":"00073521-1","precision":"3","type":"PPLC"},{"awardID":"00048649","focus_area":"-","focus_area_descr":"-","lat":"44.43225","lon":"26.10626","name":"Bucharest, Romania","outputID":"00078923","output_locID":"00078923-1","precision":"3","type":"PPLC"},{"awardID":"00048649","focus_area":"-","focus_area_descr":"-","lat":"44.43225","lon":"26.10626","name":"Bucharest, Romania","outputID":"00078928","output_locID":"00078928-1","precision":"3","type":"PPLC"},{"awardID":"00048649","focus_area":"-","focus_area_descr":"-","lat":"44.43225","lon":"26.10626","name":"Bucharest, Romania","outputID":"00079440","output_locID":"00079440-1","precision":"3","type":"PPLC"}],"title":"Strengthen Capacity to Carry out ODA Programmes"},{"id":"00062417","subnational":[{"awardID":"00062417","focus_area":"1","focus_area_descr":"Poverty reduction & MDG achievement","lat":"46","lon":"25","name":"Romania","outputID":"00079899","output_locID":"00079899-1","precision":"9","type":"PCL"}],"title":"Support to PEA in Electoral Management"},{"id":"00049180","subnational":[{"awardID":"00049180","focus_area":"-","focus_area_descr":"-","lat":"46","lon":"25","name":"Romania","outputID":"00059788","output_locID":"00059788-1","precision":"9","type":"PCL"}],"title":"Alignment of NBSAP with CBD and development of CHM"},{"id":"UNCTROUP11A","subnational":[],"title":"Consolidated UN support for 2011 Population Census"},{"id":"00032136","subnational":[],"title":"Development Support Services"},{"id":"00046850","subnational":[],"title":"I'm young, I get involved, therefore I count"},{"id":"00050245","subnational":[{"awardID":"00050245","focus_area":"-","focus_area_descr":"-","lat":"44.43225","lon":"26.10626","name":"Bucharest, Romania","outputID":"00061965","output_locID":"00061965-1","precision":"3","type":"PPLC"}],"title":"Strengthen capacity to integrate resource management"},{"id":"00049180","subnational":[{"awardID":"00049180","focus_area":"-","focus_area_descr":"-","lat":"46","lon":"25","name":"Romania","outputID":"00059788","output_locID":"00059788-1","precision":"9","type":"PCL"}],"title":"Alignment of NBSAP with CBD and development of CHM"},{"id":"00050245","subnational":[{"awardID":"00050245","focus_area":"-","focus_area_descr":"-","lat":"44.43225","lon":"26.10626","name":"Bucharest, Romania","outputID":"00061965","output_locID":"00061965-1","precision":"3","type":"PPLC"}],"title":"Strengthen capacity to integrate resource management"}]}