<<<<<<< HEAD
{"op_unit":"ROU","projects":[{"id":"00014599","subnational":[{"lat":44.19,"lon":23.48,"precision":"3","scope":"3","type":"2"},{"lat":44.2556,"lon":26.622,"precision":"3","scope":"3","type":"2"},{"lat":44.5531,"lon":25.2724,"precision":"3","scope":"1","type":"2"},{"lat":45.16,"lon":27.59,"precision":"3","scope":"3","type":"2"},{"lat":45.3855,"lon":25.3622,"precision":"3","scope":"3","type":"2"},{"lat":45.48,"lon":24.9,"precision":"3","scope":"3","type":"2"},{"lat":45.921,"lon":29.3912,"precision":"3","scope":"3","type":"2"},{"lat":46.1,"lon":24.21,"precision":"3","scope":"3","type":"2"},{"lat":46.1341,"lon":24.4645,"precision":"3","scope":"3","type":"2"},{"lat":46.21,"lon":25.48,"precision":"3","scope":"3","type":"2"},{"lat":46.4,"lon":23.35,"precision":"3","scope":"3","type":"2"},{"lat":47.759,"lon":24.3,"precision":"3","scope":"3","type":"2"}],"title":"Beautiful Romania"},{"id":"00032136","subnational":[],"title":"Development Support Services"},{"id":"00037408","subnational":[{"lat":43.48,"lon":28.35,"precision":"3","scope":"3","type":"2"},{"lat":45.3855,"lon":25.3622,"precision":"3","scope":"3","type":"2"},{"lat":45.52,"lon":25.47,"precision":"3","scope":"3","type":"2"},{"lat":46.3232,"lon":24.3326,"precision":"3","scope":"3","type":"2"},{"lat":46.33,"lon":23.53,"precision":"3","scope":"3","type":"2"},{"lat":46.4,"lon":23.35,"precision":"3","scope":"3","type":"2"},{"lat":47.48,"lon":22.53,"precision":"3","scope":"3","type":"2"},{"lat":47.583,"lon":26.25,"precision":"3","scope":"3","type":"2"}],"title":"Establishment and Dev. of Business Incubators"},{"id":"00041352","subnational":[],"title":"Best Management Practices Macin Mountains National Park"},{"id":"00046850","subnational":[],"title":"I'm young, I get involved, therefore I count"},{"id":"00048649","subnational":[{"lat":44.2556,"lon":26.622,"precision":"3","scope":"1","type":"1"},{"lat":44.2556,"lon":26.622,"precision":"3","scope":"1","type":"1"},{"lat":44.2556,"lon":26.622,"precision":"3","scope":"1","type":"1"},{"lat":44.2556,"lon":26.622,"precision":"3","scope":"1","type":"1"},{"lat":44.2556,"lon":26.622,"precision":"3","scope":"1","type":"1"}],"title":"Strengthen Capacity to Carry out ODA Programmes"},{"id":"00049180","subnational":[],"title":"Alignment of NBSAP with CBD and development of CHM"},{"id":"00050245","subnational":[{"lat":44.2556,"lon":26.622,"precision":"3","scope":"1","type":"1"}],"title":"Strengthen capacity to integrate resource management"},{"id":"00057844","subnational":[],"title":"Financial Literacy Programme"},{"id":"00058266","subnational":[{"lat":44.2556,"lon":26.622,"precision":"3","scope":"1","type":"1"}],"title":"Financial Sustainability of Carpathian Protected Areas"},{"id":"00059833","subnational":[],"title":"Social Economy Model for Romania"},{"id":"00059834","subnational":[{"lat":44.2556,"lon":26.622,"precision":"3","scope":"1","type":"1"}],"title":"Social Economy Model for Roma"},{"id":"00059835","subnational":[{"lat":44.2556,"lon":26.622,"precision":"3","scope":"1","type":"1"}],"title":"Increased adaptability of Rom companies through CSR"},{"id":"00059837","subnational":[],"title":"Model Project for making the most of EU Fund for Roma"},{"id":"00061005","subnational":[],"title":"Improving Energy Efficiency in Low-Income Households"},{"id":"00061648","subnational":[{"lat":44.2556,"lon":26.622,"precision":"3","scope":"1","type":"1"}],"title":"Reintegration of ex-convicts into labor market & society"},{"id":"00062417","subnational":[],"title":"Support to PEA in Electoral Management"},{"id":"00062609","subnational":[],"title":"Integrated Urban Development for Soustainable Tourism"},{"id":"UNCTROUP11A","subnational":[],"title":"Consolidated UN support for 2011 Population Census"}]}
=======
{"op_unit":"ROU","projects":[{"id":"00014599","subnational":[{"lat":44.19,"lon":23.48,"precision":"3","scope":"3","type":"2"},{"lat":44.2556,"lon":26.622,"precision":"3","scope":"3","type":"2"},{"lat":44.5531,"lon":25.2724,"precision":"3","scope":"1","type":"2"},{"lat":45.16,"lon":27.59,"precision":"3","scope":"3","type":"2"},{"lat":45.3855,"lon":25.3622,"precision":"3","scope":"3","type":"2"},{"lat":45.48,"lon":24.9,"precision":"3","scope":"3","type":"2"},{"lat":45.921,"lon":29.3912,"precision":"3","scope":"3","type":"2"},{"lat":46.1,"lon":24.21,"precision":"3","scope":"3","type":"2"},{"lat":46.1341,"lon":24.4645,"precision":"3","scope":"3","type":"2"},{"lat":46.21,"lon":25.48,"precision":"3","scope":"3","type":"2"},{"lat":46.4,"lon":23.35,"precision":"3","scope":"3","type":"2"},{"lat":47.759,"lon":24.3,"precision":"3","scope":"3","type":"2"}]},{"id":"00032136","subnational":[]},{"id":"00037408","subnational":[{"lat":43.48,"lon":28.35,"precision":"3","scope":"3","type":"2"},{"lat":45.3855,"lon":25.3622,"precision":"3","scope":"3","type":"2"},{"lat":45.52,"lon":25.47,"precision":"3","scope":"3","type":"2"},{"lat":46.3232,"lon":24.3326,"precision":"3","scope":"3","type":"2"},{"lat":46.33,"lon":23.53,"precision":"3","scope":"3","type":"2"},{"lat":46.4,"lon":23.35,"precision":"3","scope":"3","type":"2"},{"lat":47.48,"lon":22.53,"precision":"3","scope":"3","type":"2"},{"lat":47.583,"lon":26.25,"precision":"3","scope":"3","type":"2"}]},{"id":"00041352","subnational":[]},{"id":"00046850","subnational":[]},{"id":"00048649","subnational":[{"lat":44.2556,"lon":26.622,"precision":"3","scope":"1","type":"1"},{"lat":44.2556,"lon":26.622,"precision":"3","scope":"1","type":"1"},{"lat":44.2556,"lon":26.622,"precision":"3","scope":"1","type":"1"},{"lat":44.2556,"lon":26.622,"precision":"3","scope":"1","type":"1"},{"lat":44.2556,"lon":26.622,"precision":"3","scope":"1","type":"1"}]},{"id":"00049180","subnational":[]},{"id":"00050245","subnational":[{"lat":44.2556,"lon":26.622,"precision":"3","scope":"1","type":"1"}]},{"id":"00057844","subnational":[]},{"id":"00058266","subnational":[{"lat":44.2556,"lon":26.622,"precision":"3","scope":"1","type":"1"}]},{"id":"00059833","subnational":[]},{"id":"00059834","subnational":[{"lat":44.2556,"lon":26.622,"precision":"3","scope":"1","type":"1"}]},{"id":"00059835","subnational":[{"lat":44.2556,"lon":26.622,"precision":"3","scope":"1","type":"1"}]},{"id":"00059837","subnational":[]},{"id":"00061005","subnational":[]},{"id":"00061648","subnational":[{"lat":44.2556,"lon":26.622,"precision":"3","scope":"1","type":"1"}]},{"id":"00062417","subnational":[]},{"id":"00062609","subnational":[]},{"id":"UNCTROUP11A","subnational":[]}]}
>>>>>>> 17333319183c99511330aeb2b2811e37cf46d8f8
