{"operating_unit":"ROU","projects":[{"document_name":[],"end":"2012-12-31","fiscal_year":["2011","2010","2012"],"inst_descr":"GOVERNMENT","inst_id":"02631","inst_type_descr":"Gov Counterpart Institution","inst_type_id":"GOV","operating_unit":"Reg Bur for Europe & CIS","operating_unit_id":"RBEC","outputs":[],"project_descr":"Generate an economic sustainable development through a process of urban revitalization of neglected or degraded historical city centres while initiating employment, social inclusion and job creation for vulnerable groups or youth unemployed","project_id":"00014599","project_title":"Beautiful Romania","region_id":"ROU","region_name":"Romania","start":"2001-06-01","subnational":[{"lat":"44.19","lon":"23.48","precision":"3","scope":"3","type":"2"},{"lat":"44.2556","lon":"26.622","precision":"3","scope":"3","type":"2"},{"lat":"44.5531","lon":"25.2724","precision":"3","scope":"1","type":"2"},{"lat":"45.16","lon":"27.59","precision":"3","scope":"3","type":"2"},{"lat":"45.3855","lon":"25.3622","precision":"3","scope":"3","type":"2"},{"lat":"45.48","lon":"24.9","precision":"3","scope":"3","type":"2"},{"lat":"45.921","lon":"29.3912","precision":"3","scope":"3","type":"2"},{"lat":"46.1","lon":"24.21","precision":"3","scope":"3","type":"2"},{"lat":"46.1341","lon":"24.4645","precision":"3","scope":"3","type":"2"},{"lat":"46.21","lon":"25.48","precision":"3","scope":"3","type":"2"},{"lat":"46.4","lon":"23.35","precision":"3","scope":"3","type":"2"},{"lat":"47.759","lon":"24.3","precision":"3","scope":"3","type":"2"}]},{"document_name":[],"end":"2012-12-31","fiscal_year":["2011"],"inst_descr":"UNDP","inst_id":"02647","inst_type_descr":"UNDP","inst_type_id":"UND","operating_unit":"Reg Bur for Europe & CIS","operating_unit_id":"RBEC","outputs":[],"project_descr":"UNDP Romania Country Office - Development Support Services","project_id":"00032136","project_title":"Development Support Services","region_id":"ROU","region_name":"Romania","start":"2004-01-01","subnational":[]},{"document_name":[],"end":"2012-12-31","fiscal_year":["2011","2010","2012"],"inst_descr":"GOVERNMENT","inst_id":"02631","inst_type_descr":"Gov Counterpart Institution","inst_type_id":"GOV","operating_unit":"Reg Bur for Europe & CIS","operating_unit_id":"RBEC","outputs":[],"project_descr":"The Project \u201cEstablishment and Development of Business Incubators in Romania\u201d aims to support the entrepreneurial spirit and economic development of the targeted areas, by through the development of the SME sector.","project_id":"00037408","project_title":"Establishment and Dev. of Business Incubators","region_id":"ROU","region_name":"Romania","start":"2004-11-1","subnational":[{"lat":"43.48","lon":"28.35","precision":"3","scope":"3","type":"2"},{"lat":"45.3855","lon":"25.3622","precision":"3","scope":"3","type":"2"},{"lat":"45.52","lon":"25.47","precision":"3","scope":"3","type":"2"},{"lat":"46.3232","lon":"24.3326","precision":"3","scope":"3","type":"2"},{"lat":"46.33","lon":"23.53","precision":"3","scope":"3","type":"2"},{"lat":"46.4","lon":"23.35","precision":"3","scope":"3","type":"2"},{"lat":"47.48","lon":"22.53","precision":"3","scope":"3","type":"2"},{"lat":"47.583","lon":"26.25","precision":"3","scope":"3","type":"2"}]},{"document_name":[],"end":"2011-12-31","fiscal_year":["2011","2010","2012"],"inst_descr":"GOVERNMENT","inst_id":"02631","inst_type_descr":"Gov Counterpart Institution","inst_type_id":"GOV","operating_unit":"Reg Bur for Europe & CIS","operating_unit_id":"RBEC","outputs":[],"project_descr":"Strengthening Romania\u2019s Protected Area System by Demonstrating Best Practices for Management of Small Protected Areas in Macin Mountains National Park","project_id":"00041352","project_title":"Best Management Practices Macin Mountains National Park","region_id":"ROU","region_name":"Romania","start":"2005-09-14","subnational":[]},{"document_name":[],"end":"2011-09-3","fiscal_year":["2011","2010"],"inst_descr":"UNDP","inst_id":"02647","inst_type_descr":"UNDP","inst_type_id":"UND","operating_unit":"Reg Bur for Europe & CIS","operating_unit_id":"RBEC","outputs":[],"project_descr":"UNDEF Project \u201cI\u2019m young, I get involved, therefore I count\u201d supporting the development of the participatory democracy","project_id":"00046850","project_title":"I'm young, I get involved, therefore I count","region_id":"ROU","region_name":"Romania","start":"2007-03-01","subnational":[]},{"document_name":[],"end":"2012-12-31","fiscal_year":["2011","2010","2012"],"inst_descr":"UNDP","inst_id":"02647","inst_type_descr":"UNDP","inst_type_id":"UND","operating_unit":"Reg Bur for Europe & CIS","operating_unit_id":"RBEC","outputs":[],"project_descr":"Strengthening the National Institutional and Educational Capacity to Carry Out Official Development Assistance (ODA) Programmes and Projects (SNIECODA)","project_id":"00048649","project_title":"Strengthen Capacity to Carry out ODA Programmes","region_id":"ROU","region_name":"Romania","start":"2007-01-01","subnational":[{"lat":"44.2556","lon":"26.622","precision":"3","scope":"1","type":"1"},{"lat":"44.2556","lon":"26.622","precision":"3","scope":"1","type":"1"},{"lat":"44.2556","lon":"26.622","precision":"3","scope":"1","type":"1"},{"lat":"44.2556","lon":"26.622","precision":"3","scope":"1","type":"1"},{"lat":"44.2556","lon":"26.622","precision":"3","scope":"1","type":"1"}]},{"document_name":[],"end":"2012-12-31","fiscal_year":["2011","2010","2012"],"inst_descr":"GOVERNMENT","inst_id":"02631","inst_type_descr":"Gov Counterpart Institution","inst_type_id":"GOV","operating_unit":"Reg Bur for Europe & CIS","operating_unit_id":"RBEC","outputs":[],"project_descr":"Support to alignment of the National Biodiversity Strategy and Action Plan with the Convention on Biological Diversity obligations and the development of Clearing House Mechanism","project_id":"00049180","project_title":"Alignment of NBSAP with CBD and development of CHM","region_id":"ROU","region_name":"Romania","start":"2008-03-01","subnational":[]},{"document_name":[],"end":"2012-12-31","fiscal_year":["2011","2010","2012"],"inst_descr":"GOVERNMENT","inst_id":"02631","inst_type_descr":"Gov Counterpart Institution","inst_type_id":"GOV","operating_unit":"Reg Bur for Europe & CIS","operating_unit_id":"RBEC","outputs":[],"project_descr":"Strengthening capacity to integrate environment and natural resource management for global environmental benefits - CB2","project_id":"00050245","project_title":"Strengthen capacity to integrate resource management","region_id":"ROU","region_name":"Romania","start":"2008-06-3","subnational":[{"lat":"44.2556","lon":"26.622","precision":"3","scope":"1","type":"1"}]},{"document_name":[],"end":"2012-12-31","fiscal_year":["2012"],"inst_descr":"NGO'S","inst_id":"02641","inst_type_descr":"Local NGO","inst_type_id":"NGL","operating_unit":"Reg Bur for Europe & CIS","operating_unit_id":"RBEC","outputs":[],"project_descr":"The Project aims to increase the financial management capabilities of adult population in Romania.","project_id":"00057844","project_title":"Financial Literacy Programme","region_id":"ROU","region_name":"Romania","start":"2012-04-15","subnational":[]},{"document_name":[],"end":"2013-12-31","fiscal_year":["2011","2010","2012"],"inst_descr":"GOVERNMENT","inst_id":"02631","inst_type_descr":"Gov Counterpart Institution","inst_type_id":"GOV","operating_unit":"Reg Bur for Europe & CIS","operating_unit_id":"RBEC","outputs":[],"project_descr":"Improving Financial Sustainability of the Carpathian System of Protected Areas","project_id":"00058266","project_title":"Financial Sustainability of Carpathian Protected Areas","region_id":"ROU","region_name":"Romania","start":"2010-01-01","subnational":[{"lat":"44.2556","lon":"26.622","precision":"3","scope":"1","type":"1"}]},{"document_name":[],"end":"2014-02-28","fiscal_year":["2011","2012"],"inst_descr":"UNDP","inst_id":"99999","inst_type_descr":"UNDP","inst_type_id":"UND","operating_unit":"Reg Bur for Europe & CIS","operating_unit_id":"RBEC","outputs":[],"project_descr":"The project will develop the Social Economy concept in Romania and implement a set of activities that will increase the awareness among targeted vulnerable groups and the general population.","project_id":"00059833","project_title":"Social Economy Model for Romania","region_id":"ROU","region_name":"Romania","start":"2011-03-01","subnational":[]},{"document_name":[],"end":"2014-02-28","fiscal_year":["2011","2012"],"inst_descr":"UNDP","inst_id":"99999","inst_type_descr":"UNDP","inst_type_id":"UND","operating_unit":"Reg Bur for Europe & CIS","operating_unit_id":"RBEC","outputs":[],"project_descr":"The project promotes Social Economy as an instrument for integrated development, with a special focus on Roma women, Roma with disabilities and Roma post institutionalised children.","project_id":"00059834","project_title":"Social Economy Model for Roma","region_id":"ROU","region_name":"Romania","start":"2011-03-01","subnational":[{"lat":"44.2556","lon":"26.622","precision":"3","scope":"1","type":"1"}]},{"document_name":[],"end":"2013-02-28","fiscal_year":["2011","2012"],"inst_descr":"UNDP","inst_id":"99999","inst_type_descr":"UNDP","inst_type_id":"UND","operating_unit":"Reg Bur for Europe & CIS","operating_unit_id":"RBEC","outputs":[],"project_descr":"The project stimulate employers\u2019 and other stakeholders\u2019 interest to increase investment in human resources and to increase Romanian companies\u2019 social responsibility.","project_id":"00059835","project_title":"Increased adaptability of Rom companies through CSR","region_id":"ROU","region_name":"Romania","start":"2011-03-01","subnational":[{"lat":"44.2556","lon":"26.622","precision":"3","scope":"1","type":"1"}]},{"document_name":[],"end":"2013-12-31","fiscal_year":["2012"],"inst_descr":"UNDP","inst_id":"99999","inst_type_descr":"UNDP","inst_type_id":"UND","operating_unit":"Reg Bur for Europe & CIS","operating_unit_id":"RBEC","outputs":[],"project_descr":"Model Project for making the most of EU Fund for Sustainable Housing and Inclusion of disadvantaged Roma (explicitly but not exclusively targeted) in Cluj Metropolitan Area","project_id":"00059837","project_title":"Model Project for making the most of EU Fund for Roma","region_id":"ROU","region_name":"Romania","start":"2012-05-01","subnational":[]},{"document_name":[],"end":"2015-12-31","fiscal_year":["2011","2012"],"inst_descr":"GOVERNMENT","inst_id":"02631","inst_type_descr":"Gov Counterpart Institution","inst_type_id":"GOV","operating_unit":"Reg Bur for Europe & CIS","operating_unit_id":"RBEC","outputs":[],"project_descr":"Improving Energy Efficiency in Low-Income Households and Communities in Romania","project_id":"00061005","project_title":"Improving Energy Efficiency in Low-Income Households","region_id":"ROU","region_name":"Romania","start":"2011-03-01","subnational":[]},{"document_name":[],"end":"2014-12-31","fiscal_year":["2011","2012"],"inst_descr":"UNDP","inst_id":"02647","inst_type_descr":"UNDP","inst_type_id":"UND","operating_unit":"Reg Bur for Europe & CIS","operating_unit_id":"RBEC","outputs":[],"project_descr":"The return of former convicts to the labour markets and their integration in society","project_id":"00061648","project_title":"Reintegration of ex-convicts into labor market & society","region_id":"ROU","region_name":"Romania","start":"2011-03-01","subnational":[{"lat":"44.2556","lon":"26.622","precision":"3","scope":"1","type":"1"}]},{"document_name":[],"end":"2012-10-31","fiscal_year":["2011","2012"],"inst_descr":"UNDP","inst_id":"99999","inst_type_descr":"UNDP","inst_type_id":"UND","operating_unit":"Reg Bur for Europe & CIS","operating_unit_id":"RBEC","outputs":[],"project_descr":"The UNDP supports the Permanent Electoral Authority (PEA) and local public administration by strengthening their capacity to implement best practices in electoral management and to conduct multi-party elections in accordance with international standards.","project_id":"00062417","project_title":"Support to PEA in Electoral Management","region_id":"ROU","region_name":"Romania","start":"2011-09-01","subnational":[]},{"document_name":[],"end":"2012-12-31","fiscal_year":["2011","2012"],"inst_descr":"UNDP","inst_id":"99999","inst_type_descr":"UNDP","inst_type_id":"UND","operating_unit":"Reg Bur for Europe & CIS","operating_unit_id":"RBEC","outputs":[],"project_descr":"Support the Government of Romania in achieving its development objectives through building a successful tourism sector based on its cultural heritage and environmental assets.","project_id":"00062609","project_title":"Integrated Urban Development for Soustainable Tourism","region_id":"ROU","region_name":"Romania","start":"2011-10-16","subnational":[]},{"document_name":[],"end":"2011-10-31","fiscal_year":["2011"],"inst_descr":"UNDP","inst_id":"02647","inst_type_descr":"UNDP","inst_type_id":"UND","operating_unit":"Reg Bur for Europe & CIS","operating_unit_id":"RBEC","outputs":[],"project_descr":"Strengthening the capacity of the National Institute of Statistics to increase the credibility of the census data and the legitimacy particularly regarding national minorities\u2019 issues.","project_id":"UNCTROUP11A","project_title":"Consolidated UN support for 2011 Population Census","region_id":"ROU","region_name":"Romania","start":"2011-05-01","subnational":[]}]}