{"iso_num":"642","op_unit":"ROU","projects":[{"id":"00014598","subnational":[],"title":"All about HIV/AIDS"},{"id":"00014600","subnational":[],"title":"Assistance to the Presidential Administration"},{"id":"00014599","subnational":[{"awardID":"00014599","lat":"46.06667","lon":"23.58333","name":"Alba Iulia, Romania","precision":"3","type":"PPLA"},{"awardID":"00014599","lat":"47.13316","lon":"24.50011","name":"Bistrita, Romania","precision":"3","type":"PPLA"},{"awardID":"00014599","lat":"45.26667","lon":"27.98333","name":"Braila, Romania","precision":"3","type":"PPLA"},{"awardID":"00014599","lat":"45.64861","lon":"25.60613","name":"Brasov, Romania","precision":"3","type":"PPLA"},{"awardID":"00014599","lat":"44.43225","lon":"26.10626","name":"Bucuresti, Romania","precision":"3","type":"PPLC"},{"awardID":"00014599","lat":"44.31667","lon":"23.8","name":"Craiova, Romania","precision":"3","type":"PPLA"},{"awardID":"00014599","lat":"46.16667","lon":"24.35","name":"Medias, Romania","precision":"3","type":"PPLA2"},{"awardID":"00014599","lat":"46.35","lon":"25.8","name":"Miercurea Ciuc, Romania","precision":"3","type":"PPL"},{"awardID":"00014599","lat":"45.8","lon":"24.15","name":"Sibiu, Romania","precision":"3","type":"PPLA"},{"awardID":"00014599","lat":"46.22816","lon":"24.77927","name":"Sighisoara, Romania","precision":"3","type":"ADM2"},{"awardID":"00014599","lat":"45.15608","lon":"29.65197","name":"Sulina, Romania","precision":"3","type":"ADM2"},{"awardID":"00014599","lat":"44.92543","lon":"25.4567","name":"Targoviste","precision":"3","type":"PPLA"}],"title":"Beautiful Romania"},{"id":"00041352","subnational":[{"awardID":"00041352","lat":"46","lon":"25","name":"Romania","precision":"9","type":"PCL"}],"title":"Best Management Practices Macin Mountains National Park"},{"id":"00051473","subnational":[],"title":"Enhancing Good Governance in Romania UDF-ROM-07-193"},{"id":"00037408","subnational":[{"awardID":"00037408","lat":"45.64861","lon":"25.60613","name":"Brasov, Romania","precision":"3","type":"PPLA"},{"awardID":"00037408","lat":"45.86667","lon":"25.78333","name":"Sfantu Gheorghe","precision":"3","type":"PPLA"},{"awardID":"00037408","lat":"46.06667","lon":"23.58333","name":"Alba Iulia, Romania","precision":"3","type":"PPLA"},{"awardID":"00037408","lat":"43.8","lon":"28.58333","name":"Mangalia, Romania","precision":"3","type":"PPLA2"},{"awardID":"00037408","lat":"46.54245","lon":"24.55747","name":"Targu Mures, Romania","precision":"3","type":"PPLA"},{"awardID":"00037408","lat":"47.8","lon":"22.88333","name":"Satu Mare, Romania","precision":"3","type":"PPLA"},{"awardID":"00037408","lat":"46.55","lon":"23.88333","name":"Campia Turzii, Romania","precision":"3","type":"PPLA2"},{"awardID":"00037408","lat":"47.96772","lon":"26.41685","name":"Dorohoi, Romania","precision":"3","type":"ADM2"}],"title":"Establishment and Dev. of Business Incubators"},{"id":"00057844","subnational":[],"title":"Financial Literacy Programme"},{"id":"00058266","subnational":[{"awardID":"00058266","lat":"44.43225","lon":"26.10626","name":"Bucharest, Romania","precision":"3","type":"PPLC"}],"title":"Financial Sustainability of Carpathian Protected Areas"},{"id":"00061005","subnational":[{"awardID":"00061005","lat":"46","lon":"25","name":"Romania","precision":"9","type":"PCL"}],"title":"Improving Energy Efficiency in Low-Income Households"},{"id":"00059835","subnational":[{"awardID":"00059835","lat":"44.43225","lon":"26.10626","name":"Bucharest, Romania","precision":"3","type":"PPLC"}],"title":"Increased adaptability of Rom companies through CSR"},{"id":"00062609","subnational":[{"awardID":"00062609","lat":"46","lon":"25","name":"Romania","precision":"9","type":"PCL"}],"title":"Integrated Urban Development for Soustainable Tourism"},{"id":"00059837","subnational":[],"title":"Model Project for making the most of EU Fund for Roma"},{"id":"00014597","subnational":[],"title":"PIMS 98 CC Energy Efficiency"},{"id":"00061648","subnational":[{"awardID":"00061648","lat":"44.43225","lon":"26.10626","name":"Bucharest, Romania","precision":"3","type":"PPLC"}],"title":"Reintegration of ex-convicts into labor market & society"},{"id":"00059834","subnational":[{"awardID":"00059834","lat":"44.43225","lon":"26.10626","name":"Bucharest, Romania","precision":"3","type":"PPLC"}],"title":"Social Economy Model for Roma"},{"id":"00059833","subnational":[{"awardID":"00059833","lat":"46","lon":"25","name":"Romania","precision":"9","type":"PCL"}],"title":"Social Economy Model for Romania"},{"id":"00048649","subnational":[{"awardID":"00048649","lat":"44.43225","lon":"26.10626","name":"Bucharest, Romania","precision":"3","type":"PPLC"}],"title":"Strengthen Capacity to Carry out ODA Programmes"}]}