{"iso_num":"642","op_unit":"ROU","projects":[{"id":"00014598","subnational":[],"title":"All about HIV/AIDS"},{"id":"00014600","subnational":[],"title":"Assistance to the Presidential Administration"},{"id":"00014599","subnational":[{"awardID":"00014599","focus_area":"4","focus_area_descr":"Environment & sustainable development","lat":"46.06667","lon":"23.58333","name":"Alba Iulia, Romania","outputID":"00014599","precision":"3","type":"PPLA"},{"awardID":"00014599","focus_area":"4","focus_area_descr":"Environment & sustainable development","lat":"47.13316","lon":"24.50011","name":"Bistrita, Romania","outputID":"00014599","precision":"3","type":"PPLA"},{"awardID":"00014599","focus_area":"4","focus_area_descr":"Environment & sustainable development","lat":"45.26667","lon":"27.98333","name":"Braila, Romania","outputID":"00014599","precision":"3","type":"PPLA"},{"awardID":"00014599","focus_area":"4","focus_area_descr":"Environment & sustainable development","lat":"45.64861","lon":"25.60613","name":"Brasov, Romania","outputID":"00014599","precision":"3","type":"PPLA"},{"awardID":"00014599","focus_area":"4","focus_area_descr":"Environment & sustainable development","lat":"44.43225","lon":"26.10626","name":"Bucuresti, Romania","outputID":"00014599","precision":"3","type":"PPLC"},{"awardID":"00014599","focus_area":"4","focus_area_descr":"Environment & sustainable development","lat":"44.31667","lon":"23.8","name":"Craiova, Romania","outputID":"00014599","precision":"3","type":"PPLA"},{"awardID":"00014599","focus_area":"4","focus_area_descr":"Environment & sustainable development","lat":"46.16667","lon":"24.35","name":"Medias, Romania","outputID":"00014599","precision":"3","type":"PPLA2"},{"awardID":"00014599","focus_area":"4","focus_area_descr":"Environment & sustainable development","lat":"46.35","lon":"25.8","name":"Miercurea Ciuc, Romania","outputID":"00014599","precision":"3","type":"PPL"},{"awardID":"00014599","focus_area":"4","focus_area_descr":"Environment & sustainable development","lat":"45.8","lon":"24.15","name":"Sibiu, Romania","outputID":"00014599","precision":"3","type":"PPLA"},{"awardID":"00014599","focus_area":"4","focus_area_descr":"Environment & sustainable development","lat":"46.22816","lon":"24.77927","name":"Sighisoara, Romania","outputID":"00014599","precision":"3","type":"ADM2"},{"awardID":"00014599","focus_area":"4","focus_area_descr":"Environment & sustainable development","lat":"45.15608","lon":"29.65197","name":"Sulina, Romania","outputID":"00014599","precision":"3","type":"ADM2"},{"awardID":"00014599","focus_area":"4","focus_area_descr":"Environment & sustainable development","lat":"44.92543","lon":"25.4567","name":"Targoviste","outputID":"00014599","precision":"3","type":"PPLA"}],"title":"Beautiful Romania"},{"id":"00041352","subnational":[{"awardID":"00041352","focus_area":"4","focus_area_descr":"Environment & sustainable development","lat":"46","lon":"25","name":"Romania","outputID":"00047111","precision":"9","type":"PCL"}],"title":"Best Management Practices Macin Mountains National Park"},{"id":"00051473","subnational":[],"title":"Enhancing Good Governance in Romania UDF-ROM-07-193"},{"id":"00037408","subnational":[{"awardID":"00037408","focus_area":"1","focus_area_descr":"Poverty reduction & MDG achievement","lat":"45.64861","lon":"25.60613","name":"Brasov, Romania","outputID":"00072886","precision":"3","type":"PPLA"},{"awardID":"00037408","focus_area":"1","focus_area_descr":"Poverty reduction & MDG achievement","lat":"45.86667","lon":"25.78333","name":"Sfantu Gheorghe","outputID":"00072886","precision":"3","type":"PPLA"},{"awardID":"00037408","focus_area":"1","focus_area_descr":"Poverty reduction & MDG achievement","lat":"46.06667","lon":"23.58333","name":"Alba Iulia, Romania","outputID":"00072886","precision":"3","type":"PPLA"},{"awardID":"00037408","focus_area":"1","focus_area_descr":"Poverty reduction & MDG achievement","lat":"43.8","lon":"28.58333","name":"Mangalia, Romania","outputID":"00072886","precision":"3","type":"PPLA2"},{"awardID":"00037408","focus_area":"1","focus_area_descr":"Poverty reduction & MDG achievement","lat":"46.54245","lon":"24.55747","name":"Targu Mures, Romania","outputID":"00072886","precision":"3","type":"PPLA"},{"awardID":"00037408","focus_area":"1","focus_area_descr":"Poverty reduction & MDG achievement","lat":"47.8","lon":"22.88333","name":"Satu Mare, Romania","outputID":"00072886","precision":"3","type":"PPLA"},{"awardID":"00037408","focus_area":"1","focus_area_descr":"Poverty reduction & MDG achievement","lat":"46.55","lon":"23.88333","name":"Campia Turzii, Romania","outputID":"00072886","precision":"3","type":"PPLA2"},{"awardID":"00037408","focus_area":"1","focus_area_descr":"Poverty reduction & MDG achievement","lat":"47.96772","lon":"26.41685","name":"Dorohoi, Romania","outputID":"00072886","precision":"3","type":"ADM2"}],"title":"Establishment and Dev. of Business Incubators"},{"id":"00057844","subnational":[],"title":"Financial Literacy Programme"},{"id":"00058266","subnational":[{"awardID":"00058266","focus_area":"4","focus_area_descr":"Environment & sustainable development","lat":"44.43225","lon":"26.10626","name":"Bucharest, Romania","outputID":"00072323","precision":"3","type":"PPLC"}],"title":"Financial Sustainability of Carpathian Protected Areas"},{"id":"00037355","subnational":[],"title":"Gender"},{"id":"00061005","subnational":[{"awardID":"00061005","focus_area":"4","focus_area_descr":"Environment & sustainable development","lat":"46","lon":"25","name":"Romania","outputID":"00077064","precision":"9","type":"PCL"}],"title":"Improving Energy Efficiency in Low-Income Households"},{"id":"00059835","subnational":[{"awardID":"00059835","focus_area":"1","focus_area_descr":"Poverty reduction & MDG achievement","lat":"44.43225","lon":"26.10626","name":"Bucharest, Romania","outputID":"00075021","precision":"3","type":"PPLC"}],"title":"Increased adaptability of Rom companies through CSR"},{"id":"00062609","subnational":[{"awardID":"00062609","focus_area":"4","focus_area_descr":"Environment & sustainable development","lat":"46","lon":"25","name":"Romania","outputID":"00080121","precision":"9","type":"PCL"}],"title":"Integrated Urban Development for Soustainable Tourism"},{"id":"00059837","subnational":[],"title":"Model Project for making the most of EU Fund for Roma"},{"id":"00014597","subnational":[],"title":"PIMS 98 CC Energy Efficiency"},{"id":"00061648","subnational":[{"awardID":"00061648","focus_area":"1","focus_area_descr":"Poverty reduction & MDG achievement","lat":"44.43225","lon":"26.10626","name":"Bucharest, Romania","outputID":"00078185","precision":"3","type":"PPLC"}],"title":"Reintegration of ex-convicts into labor market & society"},{"id":"00059834","subnational":[{"awardID":"00059834","focus_area":"1","focus_area_descr":"Poverty reduction & MDG achievement","lat":"44.43225","lon":"26.10626","name":"Bucharest, Romania","outputID":"00075020","precision":"3","type":"PPLC"}],"title":"Social Economy Model for Roma"},{"id":"00059833","subnational":[{"awardID":"00059833","focus_area":"1","focus_area_descr":"Poverty reduction & MDG achievement","lat":"46","lon":"25","name":"Romania","outputID":"00075018","precision":"9","type":"PCL"}],"title":"Social Economy Model for Romania"},{"id":"00048649","subnational":[{"awardID":"00048649","focus_area":"2","focus_area_descr":"Democratic governance","lat":"44.43225","lon":"26.10626","name":"Bucharest, Romania","outputID":"00058892","precision":"3","type":"PPLC"}],"title":"Strengthen Capacity to Carry out ODA Programmes"},{"id":"00062417","subnational":[{"awardID":"00062417","focus_area":"1","focus_area_descr":"Poverty reduction & MDG achievement","lat":"46","lon":"25","name":"Romania","outputID":"00079899","precision":"9","type":"PCL"}],"title":"Support to PEA in Electoral Management"}]}