{"iso_num": null, "projects": [{"title": "improving energy efficiency in low-income households", "id": "00061005", "subnational": [{"outputID": "00077064", "output_locID": "00077064-1", "name": "Rom\u00e2nia", "focus_area": "8", "lat": "46.000000", "type": "PCLI", "awardID": "00061005", "lon": "25.000000", "precision": "1", "focus_area_descr": "South-South"}]}, {"title": "support to pea in electoral management", "id": "00062417", "subnational": [{"outputID": "00079899", "output_locID": "00079899-1", "name": "Rom\u00e2nia", "focus_area": "2", "lat": "46.000000", "type": "PCLI", "awardID": "00062417", "lon": "25.000000", "precision": "1", "focus_area_descr": "Democratic Governance"}]}, {"title": "strengthen capacity to carry out oda programmes", "id": "00048649", "subnational": [{"outputID": "00083347", "output_locID": "00083347-1", "name": "Rom\u00e2nia", "focus_area": "8", "lat": "46.000000", "type": "PCLI", "awardID": "00048649", "lon": "25.000000", "precision": "1", "focus_area_descr": "South-South"}, {"outputID": "00083348", "output_locID": "00083348-1", "name": "Rom\u00e2nia", "focus_area": "8", "lat": "46.000000", "type": "PCLI", "awardID": "00048649", "lon": "25.000000", "precision": "1", "focus_area_descr": "South-South"}, {"outputID": "00058892", "output_locID": "00058892-1", "name": "Bucharest, Romania", "focus_area": "8", "lat": "44.43225", "type": "PPLC", "awardID": "00048649", "lon": "26.10626", "precision": "3", "focus_area_descr": "South-South"}, {"outputID": "00073521", "output_locID": "00073521-1", "name": "Bucharest, Romania", "focus_area": "8", "lat": "44.43225", "type": "PPLC", "awardID": "00048649", "lon": "26.10626", "precision": "3", "focus_area_descr": "South-South"}, {"outputID": "00078923", "output_locID": "00078923-1", "name": "Bucharest, Romania", "focus_area": "8", "lat": "44.43225", "type": "PPLC", "awardID": "00048649", "lon": "26.10626", "precision": "3", "focus_area_descr": "South-South"}, {"outputID": "00078928", "output_locID": "00078928-1", "name": "Bucharest, Romania", "focus_area": "8", "lat": "44.43225", "type": "PPLC", "awardID": "00048649", "lon": "26.10626", "precision": "3", "focus_area_descr": "South-South"}, {"outputID": "00079440", "output_locID": "00079440-1", "name": "Bucharest, Romania", "focus_area": "8", "lat": "44.43225", "type": "PPLC", "awardID": "00048649", "lon": "26.10626", "precision": "3", "focus_area_descr": "South-South"}]}, {"title": "financial sustainability of carpathian protected areas", "id": "00058266", "subnational": [{"outputID": "00072323", "output_locID": "00072323-1", "name": "Bucharest", "focus_area": "8", "lat": "44.432250", "type": "PPLC", "awardID": "00058266", "lon": "26.106260", "precision": "1", "focus_area_descr": "South-South"}]}, {"title": "social economy model for romania", "id": "00059833", "subnational": [{"outputID": "00075018", "output_locID": "00075018-1", "name": "Rom\u00e2nia", "focus_area": "1", "lat": "46.000000", "type": "PCLI", "awardID": "00059833", "lon": "25.000000", "precision": "1", "focus_area_descr": "Inclusive & Sustainable Growth"}]}, {"title": "social economy model for roma", "id": "00059834", "subnational": [{"outputID": "00075020", "output_locID": "00075020-1", "name": "Bucharest", "focus_area": "1", "lat": "44.432250", "type": "PPLC", "awardID": "00059834", "lon": "26.106260", "precision": "1", "focus_area_descr": "Inclusive & Sustainable Growth"}]}, {"title": "increased adaptability of rom companies through csr", "id": "00059835", "subnational": [{"outputID": "00075021", "output_locID": "00075021-1", "name": "Bucharest", "focus_area": "-", "lat": "44.432250", "type": "PPLC", "awardID": "00059835", "lon": "26.106260", "precision": "1", "focus_area_descr": "-"}]}, {"title": "reintegration of ex-convicts into labor market & society", "id": "00061648", "subnational": [{"outputID": "00078185", "output_locID": "00078185-1", "name": "Bucharest", "focus_area": "1", "lat": "44.432250", "type": "PPLC", "awardID": "00061648", "lon": "26.106260", "precision": "1", "focus_area_descr": "Inclusive & Sustainable Growth"}]}, {"title": "all about hiv/aids", "id": "00014598", "subnational": [{"outputID": "00014598", "output_locID": "00014598-1", "name": "Romania", "focus_area": "-", "lat": "46", "type": "PCL", "awardID": "00014598", "lon": "25", "precision": "9", "focus_area_descr": "-"}]}, {"title": "assistance to the presidential administration", "id": "00014600", "subnational": [{"outputID": "00014600", "output_locID": "00014600-1", "name": "Romania", "focus_area": "-", "lat": "46", "type": "PCL", "awardID": "00014600", "lon": "25", "precision": "9", "focus_area_descr": "-"}]}, {"title": "beautiful romania", "id": "00014599", "subnational": [{"outputID": "00014599", "output_locID": "00014599-1", "name": "Alba Iulia, Romania", "focus_area": "5", "lat": "46.06667", "type": "PPLA", "awardID": "00014599", "lon": "23.58333", "precision": "3", "focus_area_descr": "Climate Change & Disaster Resilience"}, {"outputID": "00014599", "output_locID": "00014599-2", "name": "Bistrita, Romania", "focus_area": "5", "lat": "47.13316", "type": "PPLA", "awardID": "00014599", "lon": "24.50011", "precision": "3", "focus_area_descr": "Climate Change & Disaster Resilience"}, {"outputID": "00014599", "output_locID": "00014599-3", "name": "Braila, Romania", "focus_area": "5", "lat": "45.26667", "type": "PPLA", "awardID": "00014599", "lon": "27.98333", "precision": "3", "focus_area_descr": "Climate Change & Disaster Resilience"}, {"outputID": "00014599", "output_locID": "00014599-4", "name": "Brasov, Romania", "focus_area": "5", "lat": "45.64861", "type": "PPLA", "awardID": "00014599", "lon": "25.60613", "precision": "3", "focus_area_descr": "Climate Change & Disaster Resilience"}, {"outputID": "00014599", "output_locID": "00014599-5", "name": "Bucuresti, Romania", "focus_area": "5", "lat": "44.43225", "type": "PPLC", "awardID": "00014599", "lon": "26.10626", "precision": "3", "focus_area_descr": "Climate Change & Disaster Resilience"}, {"outputID": "00014599", "output_locID": "00014599-6", "name": "Craiova, Romania", "focus_area": "5", "lat": "44.31667", "type": "PPLA", "awardID": "00014599", "lon": "23.8", "precision": "3", "focus_area_descr": "Climate Change & Disaster Resilience"}, {"outputID": "00014599", "output_locID": "00014599-7", "name": "Medias, Romania", "focus_area": "5", "lat": "46.16667", "type": "PPLA2", "awardID": "00014599", "lon": "24.35", "precision": "3", "focus_area_descr": "Climate Change & Disaster Resilience"}, {"outputID": "00014599", "output_locID": "00014599-8", "name": "Miercurea Ciuc, Romania", "focus_area": "5", "lat": "46.35", "type": "PPL", "awardID": "00014599", "lon": "25.8", "precision": "3", "focus_area_descr": "Climate Change & Disaster Resilience"}, {"outputID": "00014599", "output_locID": "00014599-9", "name": "Sibiu, Romania", "focus_area": "5", "lat": "45.8", "type": "PPLA", "awardID": "00014599", "lon": "24.15", "precision": "3", "focus_area_descr": "Climate Change & Disaster Resilience"}, {"outputID": "00014599", "output_locID": "00014599-10", "name": "Sighisoara, Romania", "focus_area": "5", "lat": "46.22816", "type": "ADM2", "awardID": "00014599", "lon": "24.77927", "precision": "3", "focus_area_descr": "Climate Change & Disaster Resilience"}, {"outputID": "00014599", "output_locID": "00014599-11", "name": "Sulina, Romania", "focus_area": "5", "lat": "45.15608", "type": "ADM2", "awardID": "00014599", "lon": "29.65197", "precision": "3", "focus_area_descr": "Climate Change & Disaster Resilience"}, {"outputID": "00014599", "output_locID": "00014599-12", "name": "Targoviste", "focus_area": "5", "lat": "44.92543", "type": "PPLA", "awardID": "00014599", "lon": "25.4567", "precision": "3", "focus_area_descr": "Climate Change & Disaster Resilience"}]}, {"title": "best management practices macin mountains national park", "id": "00041352", "subnational": [{"outputID": "00047111", "output_locID": "00047111-1", "name": "Romania", "focus_area": "5", "lat": "46", "type": "PCL", "awardID": "00041352", "lon": "25", "precision": "9", "focus_area_descr": "Climate Change & Disaster Resilience"}]}, {"title": "enhancing good governance in romania udf-rom-07-193", "id": "00051473", "subnational": [{"outputID": "00064117", "output_locID": "00064117-1", "name": "Romania", "focus_area": "5", "lat": "46", "type": "PCL", "awardID": "00051473", "lon": "25", "precision": "9", "focus_area_descr": "Climate Change & Disaster Resilience"}]}, {"title": "establishment and dev. of business incubators", "id": "00037408", "subnational": [{"outputID": "00072886", "output_locID": "00072886-1", "name": "Alba Iulia, Romania", "focus_area": "1", "lat": "46.06667", "type": "PPLA", "awardID": "00037408", "lon": "23.58333", "precision": "3", "focus_area_descr": "Inclusive & Sustainable Growth"}, {"outputID": "00072886", "output_locID": "00072886-2", "name": "Brasov, Romania", "focus_area": "1", "lat": "45.64861", "type": "PPLA", "awardID": "00037408", "lon": "25.60613", "precision": "3", "focus_area_descr": "Inclusive & Sustainable Growth"}, {"outputID": "00072886", "output_locID": "00072886-3", "name": "Campia Turzii, Romania", "focus_area": "1", "lat": "46.55", "type": "PPLA2", "awardID": "00037408", "lon": "23.88333", "precision": "3", "focus_area_descr": "Inclusive & Sustainable Growth"}, {"outputID": "00072886", "output_locID": "00072886-4", "name": "Dorohoi, Romania", "focus_area": "1", "lat": "47.96772", "type": "ADM2", "awardID": "00037408", "lon": "26.41685", "precision": "3", "focus_area_descr": "Inclusive & Sustainable Growth"}, {"outputID": "00072886", "output_locID": "00072886-5", "name": "Mangalia, Romania", "focus_area": "1", "lat": "43.8", "type": "PPLA2", "awardID": "00037408", "lon": "28.58333", "precision": "3", "focus_area_descr": "Inclusive & Sustainable Growth"}, {"outputID": "00072886", "output_locID": "00072886-6", "name": "Satu Mare, Romania", "focus_area": "1", "lat": "47.8", "type": "PPLA", "awardID": "00037408", "lon": "22.88333", "precision": "3", "focus_area_descr": "Inclusive & Sustainable Growth"}, {"outputID": "00072886", "output_locID": "00072886-7", "name": "Sfantu Gheorghe", "focus_area": "1", "lat": "45.86667", "type": "PPLA", "awardID": "00037408", "lon": "25.78333", "precision": "3", "focus_area_descr": "Inclusive & Sustainable Growth"}, {"outputID": "00072886", "output_locID": "00072886-8", "name": "Targu Mures, Romania", "focus_area": "1", "lat": "46.54245", "type": "PPLA", "awardID": "00037408", "lon": "24.55747", "precision": "3", "focus_area_descr": "Inclusive & Sustainable Growth"}]}, {"title": "financial literacy programme", "id": "00057844", "subnational": [{"outputID": "00071601", "output_locID": "00071601-1", "name": "Romania", "focus_area": "1", "lat": "46", "type": "PCL", "awardID": "00057844", "lon": "25", "precision": "9", "focus_area_descr": "Inclusive & Sustainable Growth"}]}, {"title": "gender", "id": "00037355", "subnational": [{"outputID": "00040878", "output_locID": "00040878-1", "name": "Romania", "focus_area": "-", "lat": "46", "type": "PCL", "awardID": "00037355", "lon": "25", "precision": "9", "focus_area_descr": "-"}]}, {"title": "integrated urban development for soustainable tourism", "id": "00062609", "subnational": [{"outputID": "00080121", "output_locID": "00080121-1", "name": "Romania", "focus_area": "5", "lat": "46", "type": "PCL", "awardID": "00062609", "lon": "25", "precision": "9", "focus_area_descr": "Climate Change & Disaster Resilience"}]}, {"title": "model project for making the most of eu fund for roma", "id": "00059837", "subnational": [{"outputID": "00075023", "output_locID": "00075023-1", "name": "Romania", "focus_area": "1", "lat": "46", "type": "PCL", "awardID": "00059837", "lon": "25", "precision": "9", "focus_area_descr": "Inclusive & Sustainable Growth"}]}, {"title": "pims 98 cc energy efficiency", "id": "00014597", "subnational": [{"outputID": "00014597", "output_locID": "00014597-1", "name": "Romania", "focus_area": "-", "lat": "46", "type": "PCL", "awardID": "00014597", "lon": "25", "precision": "9", "focus_area_descr": "-"}]}, {"title": "alignment of nbsap with cbd and development of chm", "id": "00049180", "subnational": [{"outputID": "00059788", "output_locID": "00059788-1", "name": "Romania", "focus_area": "-", "lat": "46", "type": "PCL", "awardID": "00049180", "lon": "25", "precision": "9", "focus_area_descr": "-"}]}, {"title": "strengthen capacity to integrate resource management", "id": "00050245", "subnational": [{"outputID": "00061965", "output_locID": "00061965-1", "name": "Bucharest, Romania", "focus_area": "-", "lat": "44.43225", "type": "PPLC", "awardID": "00050245", "lon": "26.10626", "precision": "3", "focus_area_descr": "-"}]}, {"title": "consolidated un support for 2011 population census", "id": "UNCTROUP11A", "subnational": []}, {"title": "development support services", "id": "00032136", "subnational": []}, {"title": "i'm young, i get involved, therefore i count", "id": "00046850", "subnational": []}], "op_unit": "ROU"}