{"iso_num":"686","op_unit":"SEN","projects":[{"id":"00047260","subnational":[{"awardID":"00047260","focus_area":"-","focus_area_descr":"-","lat":"15.61867","lon":"-16.22436","name":"Luga","outputID":"00056615","precision":"3","type":"PPLA"},{"awardID":"00047260","focus_area":"-","focus_area_descr":"-","lat":"12.58333","lon":"-16.27194","name":"Ziguinchor","outputID":"00056615","precision":"3","type":"PPLA"},{"awardID":"00047260","focus_area":"-","focus_area_descr":"-","lat":"14.76877","lon":"-16.18682","name":"Diourbel","outputID":"00056615","precision":"4","type":"ADM1"}],"title":"APPUI COORD/PROM. VOLONTARIAT AU SENEGAL"},{"id":"00050327","subnational":[{"awardID":"00050327","focus_area":"2","focus_area_descr":"Democratic governance","lat":"15.61867","lon":"-16.22436","name":"Luga","outputID":"00062132","precision":"3","type":"PPLA"},{"awardID":"00050327","focus_area":"2","focus_area_descr":"Democratic governance","lat":"14.10528","lon":"-15.54565","name":"Kaffrine","outputID":"00062132","precision":"4","type":"ADM1"},{"awardID":"00050327","focus_area":"2","focus_area_descr":"Democratic governance","lat":"15.318","lon":"-16.221","name":"Kebemer","outputID":"00062132","precision":"3","type":"ADM2"}],"title":"APPUI DEV. ECONOMIQUE LOCAL"},{"id":"00051420","subnational":[{"awardID":"00051420","focus_area":"-","focus_area_descr":"-","lat":"12.75","lon":"-15.5","name":"Casamance region","outputID":"00064016","precision":"3","type":"ADM1"},{"awardID":"00051420","focus_area":"2","focus_area_descr":"Democratic governance","lat":"12.75","lon":"-15.5","name":"Casamance region","outputID":"00075611","precision":"3","type":"ADM1"}],"title":"APPUI EC STRATEGIE LUTTE ANTIMINES EN CASAMANCE"},{"id":"00044017","subnational":[{"awardID":"00044017","focus_area":"-","focus_area_descr":"-","lat":"14.6937","lon":"-17.44406","name":"Dakar Region","outputID":"00051598","precision":"4","type":"PPLC"}],"title":"CELLULE APPUI MISE OEUVRE PROJETS/PROGRAMMES"},{"id":"00058548","subnational":[{"awardID":"00058548","focus_area":"1","focus_area_descr":"Poverty reduction & MDG achievement","lat":"14.6937","lon":"-17.44406","name":"Dakar","outputID":"00072750","precision":"3","type":"PPLC"},{"awardID":"00058548","focus_area":"1","focus_area_descr":"Poverty reduction & MDG achievement","lat":"13.77073","lon":"-13.66734","name":"Tambacounda","outputID":"00072750","precision":"3","type":"PPLA"},{"awardID":"00058548","focus_area":"1","focus_area_descr":"Poverty reduction & MDG achievement","lat":"12.88333","lon":"-14.95","name":"Kolda","outputID":"00072750","precision":"3","type":"PPLA"},{"awardID":"00058548","focus_area":"1","focus_area_descr":"Poverty reduction & MDG achievement","lat":"16.01793","lon":"-16.48962","name":"Saint Louis","outputID":"00072750","precision":"3","type":"PPLA"}],"title":"COHESION SOCIALE/EMPLOI JEUNES"},{"id":"00064649","subnational":[],"title":"Development Effectiveness (Fund 02550) Project"},{"id":"00060989","subnational":[],"title":"Evaluation Micro HACT"},{"id":"00050641","subnational":[{"awardID":"00050641","focus_area":"1","focus_area_descr":"Poverty reduction & MDG achievement","lat":"15.5","lon":"-13.5","name":"Matam","outputID":"00062658","precision":"3","type":"ADM1"},{"awardID":"00050641","focus_area":"1","focus_area_descr":"Poverty reduction & MDG achievement","lat":"16.01793","lon":"-16.48962","name":"Saint Louis","outputID":"00062658","precision":"3","type":"PPLA"},{"awardID":"00050641","focus_area":"1","focus_area_descr":"Poverty reduction & MDG achievement","lat":"15.44748","lon":"-15.47192","name":"Louga","outputID":"00062658","precision":"4","type":"ADM1"}],"title":"FDL3/FDL4"},{"id":"00044370","subnational":[{"awardID":"00044370","focus_area":"-","focus_area_descr":"-","lat":"14","lon":"-14","name":"Senegal","outputID":"00052143","precision":"9","type":"PCL"}],"title":"FONDS LOCAL SOLIDARITE EAU/ASSAINISSEMENT"},{"id":"00050360","subnational":[{"awardID":"00050360","focus_area":"1","focus_area_descr":"Poverty reduction & MDG achievement","lat":"14","lon":"-14","name":"Senegal","outputID":"00062181","precision":"9","type":"PCL"}],"title":"GATE/ PROG NAT PTFM LUTTE PAUVRETE"},{"id":"00075198","subnational":[],"title":"Gouvernance Pour l'Atteinte des OMD (GPAO)"},{"id":"00065369","subnational":[],"title":"Gouvernance, politique de gestion des ressources Marines"},{"id":"00059590","subnational":[{"awardID":"00059590","focus_area":"4","focus_area_descr":"Environment & sustainable development","lat":"14","lon":"-12.75","name":"Bakel","outputID":"00074585","precision":"3","type":"ADM2"}],"title":"Initiatives pilotes Irrigation et Gestion Durable- Bakel"},{"id":"00058917","subnational":[{"awardID":"00058917","focus_area":"4","focus_area_descr":"Environment & sustainable development","lat":"14.87284","lon":"-16.85196","name":"Thies","outputID":"00073411","precision":"3","type":"ADM1"},{"awardID":"00058917","focus_area":"4","focus_area_descr":"Environment & sustainable development","lat":"14.6937","lon":"-17.44406","name":"Dakar","outputID":"00073411","precision":"3","type":"PPLC"}],"title":"Int\u00e9grat. Adapt.Changem. Climat. dans le D\u00e9velop. Durabl"},{"id":"00048224","subnational":[{"awardID":"00048224","focus_area":"4","focus_area_descr":"Environment & sustainable development","lat":"14.38643","lon":"-16.40175","name":"Fatick and Fimla","outputID":"00058254","precision":"3","type":"ADM1"}],"title":"PIMS 3341 CC-A FSP: WAF ACCC_Senegal"},{"id":"00045638","subnational":[{"awardID":"00045638","focus_area":"-","focus_area_descr":"-","lat":"14","lon":"-14","name":"Senegal","outputID":"00053951","precision":"9","type":"PCL"}],"title":"PIMS 3341 FSP CC_Shoreline Adaptation to Climate Change"},{"id":"00060987","subnational":[{"awardID":"00060987","focus_area":"4","focus_area_descr":"Environment & sustainable development","lat":"15.41667","lon":"-16.66667","name":"Niayes","outputID":"00077029","precision":"3","type":"ADM1"},{"awardID":"00060987","focus_area":"4","focus_area_descr":"Environment & sustainable development","lat":"15.428","lon":"-16.7199","name":"village Loumpoul","outputID":"00077029","precision":"3","type":"PPL"},{"awardID":"00060987","focus_area":"4","focus_area_descr":"Environment & sustainable development","lat":"14.83333","lon":"-14","name":"Ferlo","outputID":"00077029","precision":"3","type":"RES"},{"awardID":"00060987","focus_area":"4","focus_area_descr":"Environment & sustainable development","lat":"14.51667","lon":"-13.5","name":"Villages Toubel Bali","outputID":"00077029","precision":"3","type":"PPL"},{"awardID":"00060987","focus_area":"4","focus_area_descr":"Environment & sustainable development","lat":"15.1404","lon":"-14.5487","name":"Kak","outputID":"00077029","precision":"3","type":"PPL"},{"awardID":"00060987","focus_area":"4","focus_area_descr":"Environment & sustainable development","lat":"16.33333","lon":"-15","name":"Senegal River","outputID":"00077029","precision":"3","type":"ADM1"},{"awardID":"00060987","focus_area":"4","focus_area_descr":"Environment & sustainable development","lat":"13.07712","lon":"-12.72712","name":"National Park Niokolo Koba","outputID":"00077029","precision":"3","type":"PPL"},{"awardID":"00060987","focus_area":"4","focus_area_descr":"Environment & sustainable development","lat":"13.92944","lon":"-16.76611","name":"Saloum","outputID":"00077029","precision":"3","type":"PPL"},{"awardID":"00060987","focus_area":"4","focus_area_descr":"Environment & sustainable development","lat":"15.1128","lon":"-15.8496","name":"Mbam","outputID":"00077029","precision":"3","type":"PPL"},{"awardID":"00060987","focus_area":"4","focus_area_descr":"Environment & sustainable development","lat":"13.60389","lon":"-16.52611","name":"Massarinko","outputID":"00077029","precision":"3","type":"PPL"}],"title":"PIMS 4313 FSP Ecovillages Pilotes"},{"id":"00048859","subnational":[],"title":"P\u00f4le r\u00e9gional d'appui aux Cadres Strat\u00e9giques"},{"id":"00048401","subnational":[{"awardID":"00048401","focus_area":"1","focus_area_descr":"Poverty reduction & MDG achievement","lat":"14","lon":"-14","name":"Senegal","outputID":"00058534","precision":"9","type":"PCL"}],"title":"PROG. AP. LETTRE POL SECTORIELLE MICRO-FINANCE"},{"id":"00050614","subnational":[{"awardID":"00050614","focus_area":"1","focus_area_descr":"Poverty reduction & MDG achievement","lat":"14","lon":"-14","name":"Senegal","outputID":"00062611","precision":"9","type":"PCL"}],"title":"PROG. AP. MISE OEUVRE STRATEGIE REDUCTION PAUVETE"},{"id":"00058028","subnational":[{"awardID":"00058028","focus_area":"1","focus_area_descr":"Poverty reduction & MDG achievement","lat":"15.61867","lon":"-16.22436","name":"Luga","outputID":"00071913","precision":"3","type":"PPLA"},{"awardID":"00058028","focus_area":"1","focus_area_descr":"Poverty reduction & MDG achievement","lat":"12.75","lon":"-15.5","name":"Casamance","outputID":"00071913","precision":"4","type":"ADM1"}],"title":"PROG. APPUI RESEAUX TERR GOUV LOC DE DEV"},{"id":"00058486","subnational":[{"awardID":"00058486","focus_area":"2","focus_area_descr":"Democratic governance","lat":"14","lon":"-14","name":"Senegal","outputID":"00072665","precision":"9","type":"PCL"}],"title":"PROG. NAT. MOBILISATION EXPERTISE DIASPORA"},{"id":"00049508","subnational":[{"awardID":"00049508","focus_area":"2","focus_area_descr":"Democratic governance","lat":"14","lon":"-14","name":"Senegal","outputID":"00060418","precision":"9","type":"PCL"}],"title":"PROG. RENFORCEMENT CAPACITES BONNE GOUVERNANCE"},{"id":"00014720","subnational":[{"awardID":"00014720","focus_area":"-","focus_area_descr":"-","lat":"14","lon":"-14","name":"Senegal","outputID":"00014720","precision":"9","type":"PCL"}],"title":"Programme d'Appui au PNBG"},{"id":"00075241","subnational":[],"title":"Programme de D\u00e9veloppement Economique et Social"},{"id":"00057243","subnational":[{"awardID":"00057243","focus_area":"4","focus_area_descr":"Environment & sustainable development","lat":"14","lon":"-14","name":"Senegal","outputID":"00070643","precision":"9","type":"PCL"}],"title":"PROJ AMELIORAT/VALORISAT. SERVICES ECOSYST FORESTIERS"},{"id":"00057632","subnational":[{"awardID":"00057632","focus_area":"1","focus_area_descr":"Poverty reduction & MDG achievement","lat":"14","lon":"-14","name":"Senegal","outputID":"00071290","precision":"9","type":"PCL"}],"title":"PROJ CONJ. MDGF CULT/DEV"},{"id":"00047901","subnational":[{"awardID":"00047901","focus_area":"2","focus_area_descr":"Democratic governance","lat":"12.75","lon":"-15.5","name":"Casamance region","outputID":"00057811","precision":"3","type":"ADM1"}],"title":"PROJ.  ASSISTANCE LUTTE ANTIMINES CASAMANCE"},{"id":"00045897","subnational":[{"awardID":"00045897","focus_area":"4","focus_area_descr":"Environment & sustainable development","lat":"15.61867","lon":"-16.22436","name":"Luga","outputID":"00054345","precision":"3","type":"PPLA"},{"awardID":"00045897","focus_area":"4","focus_area_descr":"Environment & sustainable development","lat":"14.38643","lon":"-16.40175","name":"Fatick Kaffrine","outputID":"00054345","precision":"4","type":"ADM1"},{"awardID":"00045897","focus_area":"4","focus_area_descr":"Environment & sustainable development","lat":"14.1825","lon":"-16.25333","name":"Kaolack","outputID":"00054345","precision":"3","type":"PPLA"},{"awardID":"00045897","focus_area":"4","focus_area_descr":"Environment & sustainable development","lat":"14.87284","lon":"-16.85196","name":"Thies","outputID":"00054345","precision":"4","type":"ADM1"},{"awardID":"00045897","focus_area":"4","focus_area_descr":"Environment & sustainable development","lat":"14.76877","lon":"-16.18682","name":"Diourbel","outputID":"00054345","precision":"4","type":"ADM1"}],"title":"PROJ. GESTIO.RESTAURATION.TERRES.DEGRADE.BASSIN ARACHIDI"},{"id":"00064013","subnational":[],"title":"Projet de Gestion Int\u00e9gr\u00e9e des Ecosyst\u00e8mes du S\u00e9n\u00e9gal"},{"id":"00069919","subnational":[],"title":"PROJET EFFICACITE ENERGETIQUE DANS LE BATIMENT SENEGAL"},{"id":"00057987","subnational":[{"awardID":"00057987","focus_area":"1","focus_area_descr":"Poverty reduction & MDG achievement","lat":"14.38643","lon":"-16.40175","name":"Regionde Fatick","outputID":"00071830","precision":"3","type":"ADM1"},{"awardID":"00057987","focus_area":"1","focus_area_descr":"Poverty reduction & MDG achievement","lat":"12.55146","lon":"-12.17586","name":"Kedougou","outputID":"00071830","precision":"4","type":"ADM1"}],"title":"PROM. INITIATIVES/INDUSTRIES CULT. AU SENEGAL"},{"id":"00050590","subnational":[{"awardID":"00050590","focus_area":"-","focus_area_descr":"-","lat":"14","lon":"-14","name":"Senegal","outputID":"00062574","precision":"9","type":"PCL"}],"title":"Rapport sur la dimension genre au S\u00e9n\u00e9gal 2008"},{"id":"00065668","subnational":[],"title":"SUPPORT TO THE ELECTORAL PROCESS AND GOVERNANCE REFORM"},{"id":"00069488","subnational":[],"title":"TRANSFERT TECHNOLOGIE - PRODUCTION MATERIAUX ISOLANTS TH"},{"id":"00059626","subnational":[{"awardID":"00059626","focus_area":"4","focus_area_descr":"Environment & sustainable development","lat":"14.10528","lon":"-15.54565","name":"Fatick Kaffrine saint louis","outputID":"00074641","precision":"3","type":"ADM1"},{"awardID":"00059626","focus_area":"4","focus_area_descr":"Environment & sustainable development","lat":"13.77073","lon":"-13.66734","name":"Tambacounda","outputID":"00074641","precision":"3","type":"PPLA"},{"awardID":"00059626","focus_area":"4","focus_area_descr":"Environment & sustainable development","lat":"15.5","lon":"-13.5","name":"Matam","outputID":"00074641","precision":"3","type":"ADM1"},{"awardID":"00059626","focus_area":"4","focus_area_descr":"Environment & sustainable development","lat":"15.44748","lon":"-15.47192","name":"Louga","outputID":"00074641","precision":"3","type":"ADM1"}],"title":"Vers un D\u00e9veloppement Local Moins Emetteur de CO2"}]}