{"iso_num": null, "projects": [{"title": "pims1148/fsp/senega/iem phase i (pgies)", "id": "00014716", "subnational": []}, {"title": "parep/fonds dev. local", "id": "00038190", "subnational": [{"outputID": "00042113", "output_locID": "00042113-1", "name": "Republic of Senegal", "focus_area": "0", "lat": "14.500000", "type": "PCLI", "awardID": "00038190", "lon": "-14.250000", "precision": "1", "focus_area_descr": "SP_NONE_APPLIES"}]}, {"title": "projet charg\u00e9 appui terrain - fida", "id": "00042095", "subnational": [{"outputID": "00048185", "output_locID": "00048185-1", "name": "Republic of Senegal", "focus_area": "9", "lat": "14.500000", "type": "PCLI", "awardID": "00042095", "lon": "-14.250000", "precision": "1", "focus_area_descr": "Organizational Results Area 2"}]}, {"title": "convention monaco pnud ptf niger", "id": "00045394", "subnational": []}, {"title": "proj.  assistance lutte antimines casamance", "id": "00047901", "subnational": [{"outputID": "00057811", "output_locID": "00057811-1", "name": "Casamance", "focus_area": "2", "lat": "12.750000", "type": "RGN", "awardID": "00047901", "lon": "-15.500000", "precision": "1", "focus_area_descr": "Democratic Governance"}]}, {"title": "p\u00f4le r\u00e9gional d'appui aux cadres strat\u00e9giques", "id": "00048859", "subnational": [{"outputID": "00059205", "output_locID": "00059205-1", "name": "Dakar", "focus_area": "2", "lat": "14.693700", "type": "PPLC", "awardID": "00048859", "lon": "-17.444060", "precision": "1", "focus_area_descr": "Democratic Governance"}, {"outputID": "00059205", "output_locID": "00059205-2", "name": "Dakar", "focus_area": "2", "lat": "14.693700", "type": "PPLC", "awardID": "00048859", "lon": "-17.444060", "precision": "1", "focus_area_descr": "Democratic Governance"}]}, {"title": "appui dev. economique local", "id": "00050327", "subnational": [{"outputID": "00062132", "output_locID": "00062132-1", "name": "Louga", "focus_area": "2", "lat": "15.618670", "type": "PPLA", "awardID": "00050327", "lon": "-16.224360", "precision": "1", "focus_area_descr": "Democratic Governance"}]}, {"title": "gate/ prog nat ptfm lutte pauvrete", "id": "00050360", "subnational": [{"outputID": "00062181", "output_locID": "00062181-1", "name": "Republic of Senegal", "focus_area": "1", "lat": "14.500000", "type": "PCLI", "awardID": "00050360", "lon": "-14.250000", "precision": "1", "focus_area_descr": "Inclusive & Sustainable Growth"}]}, {"title": "appui ec strategie lutte antimines en casamance", "id": "00051420", "subnational": [{"outputID": "00075611", "output_locID": "00075611-1", "name": "Casamance", "focus_area": "5", "lat": "12.750000", "type": "RGN", "awardID": "00051420", "lon": "-15.500000", "precision": "1", "focus_area_descr": "Climate Change & Disaster Resilience"}, {"outputID": "00064016", "output_locID": "00064016-1", "name": "Ziguinchor", "focus_area": "-", "lat": "12.750000", "type": "ADM1", "awardID": "00051420", "lon": "-16.333330", "precision": "1", "focus_area_descr": "-"}]}, {"title": "proj conj. mdgf cult/dev", "id": "00057632", "subnational": [{"outputID": "00071290", "output_locID": "00071290-1", "name": "Republic of Senegal", "focus_area": "1", "lat": "14.500000", "type": "PCLI", "awardID": "00057632", "lon": "-14.250000", "precision": "1", "focus_area_descr": "Inclusive & Sustainable Growth"}]}, {"title": "prom. initiatives/industries cult. au senegal", "id": "00057987", "subnational": [{"outputID": "00071830", "output_locID": "00071830-1", "name": "Fatick", "focus_area": "1", "lat": "14.386430", "type": "ADM1", "awardID": "00057987", "lon": "-16.401750", "precision": "1", "focus_area_descr": "Inclusive & Sustainable Growth"}]}, {"title": "prog. appui reseaux terr gouv loc de dev", "id": "00058028", "subnational": [{"outputID": "00071913", "output_locID": "00071913-1", "name": "Louga", "focus_area": "3", "lat": "15.618670", "type": "PPLA", "awardID": "00058028", "lon": "-16.224360", "precision": "1", "focus_area_descr": "Responsive Institutions"}]}, {"title": "cohesion sociale/emploi jeunes", "id": "00058548", "subnational": [{"outputID": "00072750", "output_locID": "00072750-1", "name": "Dakar", "focus_area": "0", "lat": "14.693700", "type": "PPLC", "awardID": "00058548", "lon": "-17.444060", "precision": "1", "focus_area_descr": "SP_NONE_APPLIES"}, {"outputID": "00072750", "output_locID": "00072750-2", "name": "Dakar", "focus_area": "0", "lat": "14.693700", "type": "PPLC", "awardID": "00058548", "lon": "-17.444060", "precision": "1", "focus_area_descr": "SP_NONE_APPLIES"}]}, {"title": "initiatives pilotes irrigation et gestion durable- bakel", "id": "00059590", "subnational": [{"outputID": "00074585", "output_locID": "00074585-1", "name": "Bakel", "focus_area": "0", "lat": "14.000000", "type": "ADM2", "awardID": "00059590", "lon": "-12.750000", "precision": "1", "focus_area_descr": "SP_NONE_APPLIES"}]}, {"title": "vers un d\u00e9veloppement local moins \u00e9metteur de ges", "id": "00059626", "subnational": [{"outputID": "00074641", "output_locID": "00074641-1", "name": "Fatick", "focus_area": "1", "lat": "14.386430", "type": "ADM1", "awardID": "00059626", "lon": "-16.401750", "precision": "1", "focus_area_descr": "Inclusive & Sustainable Growth"}]}, {"title": "pims 4313 fsp ecovillages pilotes", "id": "00060987", "subnational": [{"outputID": "00077029", "output_locID": "00077029-1", "name": "Kakur", "focus_area": "1", "lat": "18.100000", "type": "PPL", "awardID": "00060987", "lon": "30.916670", "precision": "1", "focus_area_descr": "Inclusive & Sustainable Growth"}, {"outputID": "00077029", "output_locID": "00077029-2", "name": "Parc National du Niokolo-Koba", "focus_area": "1", "lat": "13.007690", "type": "PRK", "awardID": "00060987", "lon": "-12.914590", "precision": "1", "focus_area_descr": "Inclusive & Sustainable Growth"}, {"outputID": "00077029", "output_locID": "00077029-3", "name": "Niayes", "focus_area": "1", "lat": "15.416670", "type": "RGN", "awardID": "00060987", "lon": "-16.666670", "precision": "1", "focus_area_descr": "Inclusive & Sustainable Growth"}, {"outputID": "00077029", "output_locID": "00077029-4", "name": "Niayes", "focus_area": "1", "lat": "15.416670", "type": "RGN", "awardID": "00060987", "lon": "-16.666670", "precision": "1", "focus_area_descr": "Inclusive & Sustainable Growth"}, {"outputID": "00077029", "output_locID": "00077029-5", "name": "Massarinko Bolon", "focus_area": "1", "lat": "13.603890", "type": "CRKT", "awardID": "00060987", "lon": "-16.526110", "precision": "1", "focus_area_descr": "Inclusive & Sustainable Growth"}, {"outputID": "00077029", "output_locID": "00077029-6", "name": "Ferlo Tyikkit\u00e9", "focus_area": "1", "lat": "16.130350", "type": "PPL", "awardID": "00060987", "lon": "-14.001420", "precision": "1", "focus_area_descr": "Inclusive & Sustainable Growth"}, {"outputID": "00077029", "output_locID": "00077029-7", "name": "Mbam", "focus_area": "1", "lat": "15.112800", "type": "PPL", "awardID": "00060987", "lon": "-15.849600", "precision": "1", "focus_area_descr": "Inclusive & Sustainable Growth"}, {"outputID": "00077029", "output_locID": "00077029-8", "name": "Saloum", "focus_area": "1", "lat": "14.250000", "type": "RGN", "awardID": "00060987", "lon": "-16.083330", "precision": "1", "focus_area_descr": "Inclusive & Sustainable Growth"}, {"outputID": "00077029", "output_locID": "00077029-9", "name": "Senegal River", "focus_area": "1", "lat": "15.788060", "type": "STM", "awardID": "00060987", "lon": "-16.528890", "precision": "1", "focus_area_descr": "Inclusive & Sustainable Growth"}]}, {"title": "evaluation micro hact", "id": "00060989", "subnational": [{"outputID": "00077031", "output_locID": "00077031-1", "name": "Thi\u00e8s", "focus_area": "10", "lat": "14.750000", "type": "ADM2", "awardID": "00060989", "lon": "-16.750000", "precision": "1", "focus_area_descr": "Organizational Results Area 3"}, {"outputID": "00077031", "output_locID": "00077031-2", "name": "Ta\u00efba Dakar", "focus_area": "10", "lat": "14.883330", "type": "PPL", "awardID": "00060989", "lon": "-16.283330", "precision": "1", "focus_area_descr": "Organizational Results Area 3"}, {"outputID": "00077031", "output_locID": "00077031-3", "name": "Saint-Louis", "focus_area": "10", "lat": "16.017930", "type": "PPLA", "awardID": "00060989", "lon": "-16.489620", "precision": "1", "focus_area_descr": "Organizational Results Area 3"}]}, {"title": "gouvernance, politique de gestion des ressources marines", "id": "00065369", "subnational": [{"outputID": "00081901", "output_locID": "00081901-1", "name": "Ta\u00efba Dakar", "focus_area": "2", "lat": "14.883330", "type": "PPL", "awardID": "00065369", "lon": "-16.283330", "precision": "1", "focus_area_descr": "Democratic Governance"}, {"outputID": "00081901", "output_locID": "00081901-2", "name": "Saint-Louis", "focus_area": "2", "lat": "16.017930", "type": "PPLA", "awardID": "00065369", "lon": "-16.489620", "precision": "1", "focus_area_descr": "Democratic Governance"}, {"outputID": "00081901", "output_locID": "00081901-3", "name": "Mbour", "focus_area": "2", "lat": "14.500000", "type": "ADM2", "awardID": "00065369", "lon": "-17.000000", "precision": "1", "focus_area_descr": "Democratic Governance"}, {"outputID": "00081901", "output_locID": "00081901-4", "name": "Casamance", "focus_area": "2", "lat": "12.750000", "type": "RGN", "awardID": "00065369", "lon": "-15.500000", "precision": "1", "focus_area_descr": "Democratic Governance"}]}, {"title": "transfert technologie - production materiaux isolants th", "id": "00069488", "subnational": [{"outputID": "00084037", "output_locID": "00084037-1", "name": "Ta\u00efba Dakar", "focus_area": "1", "lat": "14.883330", "type": "PPL", "awardID": "00069488", "lon": "-16.283330", "precision": "1", "focus_area_descr": "Inclusive & Sustainable Growth"}, {"outputID": "00084037", "output_locID": "00084037-2", "name": "Saint-Louis", "focus_area": "1", "lat": "16.017930", "type": "PPLA", "awardID": "00069488", "lon": "-16.489620", "precision": "1", "focus_area_descr": "Inclusive & Sustainable Growth"}]}, {"title": "projet efficacite energetique dans le batiment senegal", "id": "00069919", "subnational": [{"outputID": "00084195", "output_locID": "00084195-1", "name": "Republic of Senegal", "focus_area": "1", "lat": "14.500000", "type": "PCLI", "awardID": "00069919", "lon": "-14.250000", "precision": "1", "focus_area_descr": "Inclusive & Sustainable Growth"}]}, {"title": "gouvernance pour l'atteinte des omd (gpao)", "id": "00075198", "subnational": [{"outputID": "00087246", "output_locID": "00087246-1", "name": "Republic of Senegal", "focus_area": "2", "lat": "14.500000", "type": "PCLI", "awardID": "00075198", "lon": "-14.250000", "precision": "1", "focus_area_descr": "Democratic Governance"}]}, {"title": "programme de d\u00e9veloppement economique et social", "id": "00075241", "subnational": [{"outputID": "00087258", "output_locID": "00087258-1", "name": "Saint-Louis", "focus_area": "1", "lat": "16.017930", "type": "PPLA", "awardID": "00075241", "lon": "-16.489620", "precision": "1", "focus_area_descr": "Inclusive & Sustainable Growth"}, {"outputID": "00087258", "output_locID": "00087258-2", "name": "Matam", "focus_area": "1", "lat": "15.500000", "type": "ADM1", "awardID": "00075241", "lon": "-13.500000", "precision": "1", "focus_area_descr": "Inclusive & Sustainable Growth"}, {"outputID": "00087258", "output_locID": "00087258-3", "name": "Louga", "focus_area": "1", "lat": "15.447480", "type": "ADM1", "awardID": "00075241", "lon": "-15.471920", "precision": "1", "focus_area_descr": "Inclusive & Sustainable Growth"}]}, {"title": "renforcement de la gestion des terres et des ecoystemes", "id": "00078950", "subnational": []}, {"title": "programme d'appui creation opportunites emplois verts", "id": "00079492", "subnational": []}, {"title": "projet integre d'envergure nationale", "id": "00079574", "subnational": []}, {"title": "programme d'appui au suivi du  plan senegal emergent", "id": "00081708", "subnational": []}, {"title": "projet finance novatrice pour une adapation communautair", "id": "00083517", "subnational": []}, {"title": "secr\u00e9tariat de la coordination des ptf s\u00e9n\u00e9gal 2015", "id": "00086370", "subnational": []}, {"title": "programme d'urgence de developpement communautaire", "id": "00086871", "subnational": []}, {"title": "prgte", "id": "00087092", "subnational": []}, {"title": "prog. d'appui \u00e0 l'am\u00e9li  eff politique economique", "id": "00092495", "subnational": []}, {"title": "projet appui \u00e0 la coh\u00e9sion sociale et \u00e0 la cr\u00e9ation d\u2019op", "id": "00094710", "subnational": []}, {"title": "projet conjoint statistiques", "id": "00097071", "subnational": []}, {"title": "promotion emploi jeunes int\u00e9grant la variable migratoire", "id": "00098200", "subnational": []}, {"title": "programme d'appui au pnbg", "id": "00014720", "subnational": [{"outputID": "00014720", "output_locID": "00014720-1", "name": "Republic of Senegal", "focus_area": "0", "lat": "14.500000", "type": "PCLI", "awardID": "00014720", "lon": "-14.250000", "precision": "1", "focus_area_descr": "SP_NONE_APPLIES"}]}, {"title": "pims 3341 fsp cc_shoreline adaptation to climate change", "id": "00045638", "subnational": [{"outputID": "00053951", "output_locID": "00053951-1", "name": "Republic of Senegal", "focus_area": "5", "lat": "14.500000", "type": "PCLI", "awardID": "00045638", "lon": "-14.250000", "precision": "1", "focus_area_descr": "Climate Change & Disaster Resilience"}]}, {"title": "pims 3341 cc-a fsp: waf accc_senegal", "id": "00048224", "subnational": [{"outputID": "00058254", "output_locID": "00058254-1", "name": "Fatick", "focus_area": "5", "lat": "14.386430", "type": "ADM1", "awardID": "00048224", "lon": "-16.401750", "precision": "1", "focus_area_descr": "Climate Change & Disaster Resilience"}]}, {"title": "proj ameliorat/valorisat. services ecosyst forestiers", "id": "00057243", "subnational": [{"outputID": "00070643", "output_locID": "00070643-1", "name": "Republic of Senegal", "focus_area": "-", "lat": "14.500000", "type": "PCLI", "awardID": "00057243", "lon": "-14.250000", "precision": "1", "focus_area_descr": "-"}]}, {"title": "projet de gestion int\u00e9gr\u00e9e des ecosyst\u00e8mes du s\u00e9n\u00e9gal", "id": "00064013", "subnational": [{"outputID": "00080879", "output_locID": "00080879-1", "name": "Tambacounda", "focus_area": "1", "lat": "13.770730", "type": "PPLA", "awardID": "00064013", "lon": "-13.667340", "precision": "1", "focus_area_descr": "Inclusive & Sustainable Growth"}, {"outputID": "00080879", "output_locID": "00080879-2", "name": "Madina Toubacouta", "focus_area": "1", "lat": "13.031390", "type": "PPL", "awardID": "00064013", "lon": "-11.841180", "precision": "1", "focus_area_descr": "Inclusive & Sustainable Growth"}, {"outputID": "00080879", "output_locID": "00080879-3", "name": "Kolda", "focus_area": "1", "lat": "12.883330", "type": "PPLA", "awardID": "00064013", "lon": "-14.950000", "precision": "1", "focus_area_descr": "Inclusive & Sustainable Growth"}, {"outputID": "00080879", "output_locID": "00080879-4", "name": "Ferlo", "focus_area": "1", "lat": "15.000000", "type": "RGN", "awardID": "00064013", "lon": "-14.000000", "precision": "1", "focus_area_descr": "Inclusive & Sustainable Growth"}, {"outputID": "00080879", "output_locID": "00080879-5", "name": "Bandafassi", "focus_area": "1", "lat": "12.539650", "type": "PPL", "awardID": "00064013", "lon": "-12.310610", "precision": "1", "focus_area_descr": "Inclusive & Sustainable Growth"}, {"outputID": "00080879", "output_locID": "00080879-6", "name": "R\u00e9gion de K\u00e9dougou", "focus_area": "1", "lat": "12.551460", "type": "ADM1", "awardID": "00064013", "lon": "-12.175860", "precision": "1", "focus_area_descr": "Inclusive & Sustainable Growth"}]}, {"title": "development effectiveness (fund 02550) project", "id": "00064649", "subnational": [{"outputID": "00081339", "output_locID": "00081339-1", "name": "Republic of Senegal", "focus_area": "8", "lat": "14.500000", "type": "PCLI", "awardID": "00064649", "lon": "-14.250000", "precision": "1", "focus_area_descr": "Organizational Results Area 1"}]}, {"title": "support to the electoral process and governance reform", "id": "00065668", "subnational": [{"outputID": "00082062", "output_locID": "00082062-1", "name": "Republic of Senegal", "focus_area": "2", "lat": "14.500000", "type": "PCLI", "awardID": "00065668", "lon": "-14.250000", "precision": "1", "focus_area_descr": "Democratic Governance"}]}, {"title": "centre de suivi ecologique", "id": "00025890", "subnational": []}, {"title": "cellule appui mise oeuvre projets/programmes", "id": "00044017", "subnational": [{"outputID": "00051598", "output_locID": "00051598-1", "name": "Dakar", "focus_area": "-", "lat": "14.750000", "type": "ADM1", "awardID": "00044017", "lon": "-17.333330", "precision": "1", "focus_area_descr": "-"}]}, {"title": "proj. gestio.restauration.terres.degrade.bassin arachidi", "id": "00045897", "subnational": [{"outputID": "00054345", "output_locID": "00054345-1", "name": "Louga", "focus_area": "0", "lat": "15.618670", "type": "PPLA", "awardID": "00045897", "lon": "-16.224360", "precision": "1", "focus_area_descr": "SP_NONE_APPLIES"}]}, {"title": "appui coord/prom. volontariat au senegal", "id": "00047260", "subnational": [{"outputID": "00056615", "output_locID": "00056615-1", "name": "Louga", "focus_area": "-", "lat": "15.618670", "type": "PPLA", "awardID": "00047260", "lon": "-16.224360", "precision": "1", "focus_area_descr": "-"}]}, {"title": "ref adm pub/bonne gouvernance", "id": "00049163", "subnational": [{"outputID": "00059760", "output_locID": "00059760-1", "name": "Republic of Senegal", "focus_area": "-", "lat": "14.500000", "type": "PCLI", "awardID": "00049163", "lon": "-14.250000", "precision": "1", "focus_area_descr": "-"}]}, {"title": "prog. renforcement capacites bonne gouvernance", "id": "00049508", "subnational": [{"outputID": "00060418", "output_locID": "00060418-1", "name": "Republic of Senegal", "focus_area": "-", "lat": "14.500000", "type": "PCLI", "awardID": "00049508", "lon": "-14.250000", "precision": "1", "focus_area_descr": "-"}]}, {"title": "prog. ap. mise oeuvre strategie reduction pauvete", "id": "00050614", "subnational": [{"outputID": "00062611", "output_locID": "00062611-1", "name": "Republic of Senegal", "focus_area": "0", "lat": "14.500000", "type": "PCLI", "awardID": "00050614", "lon": "-14.250000", "precision": "1", "focus_area_descr": "SP_NONE_APPLIES"}]}, {"title": "fdl3/fdl4", "id": "00050641", "subnational": [{"outputID": "00062658", "output_locID": "00062658-1", "name": "Saint-Louis", "focus_area": "0", "lat": "16.017930", "type": "PPLA", "awardID": "00050641", "lon": "-16.489620", "precision": "1", "focus_area_descr": "SP_NONE_APPLIES"}, {"outputID": "00062658", "output_locID": "00062658-2", "name": "Matam", "focus_area": "0", "lat": "15.500000", "type": "ADM1", "awardID": "00050641", "lon": "-13.500000", "precision": "1", "focus_area_descr": "SP_NONE_APPLIES"}]}, {"title": "prog. nat. mobilisation expertise diaspora", "id": "00058486", "subnational": [{"outputID": "00072665", "output_locID": "00072665-1", "name": "Republic of Senegal", "focus_area": "-", "lat": "14.500000", "type": "PCLI", "awardID": "00058486", "lon": "-14.250000", "precision": "1", "focus_area_descr": "-"}]}, {"title": "appui plan nat. preparation et riposte ebola au senegal", "id": "00083234", "subnational": []}, {"title": "parep", "id": "00014719", "subnational": [{"outputID": "00014719", "output_locID": "00014719-1", "name": "Republic of Senegal", "focus_area": "-", "lat": "14.500000", "type": "PCLI", "awardID": "00014719", "lon": "-14.250000", "precision": "1", "focus_area_descr": "-"}]}, {"title": "prevention/gestion catastrophes", "id": "00045093", "subnational": [{"outputID": "00075890", "output_locID": "00075890-1", "name": "Republic of Senegal", "focus_area": "-", "lat": "14.500000", "type": "PCLI", "awardID": "00045093", "lon": "-14.250000", "precision": "1", "focus_area_descr": "-"}]}, {"title": "prog. ap. lettre pol sectorielle micro-finance", "id": "00048401", "subnational": [{"outputID": "00058534", "output_locID": "00058534-1", "name": "Republic of Senegal", "focus_area": "1", "lat": "14.500000", "type": "PCLI", "awardID": "00048401", "lon": "-14.250000", "precision": "1", "focus_area_descr": "Inclusive & Sustainable Growth"}]}, {"title": "rapport sur la dimension genre au s\u00e9n\u00e9gal 2008", "id": "00050590", "subnational": [{"outputID": "00062574", "output_locID": "00062574-1", "name": "Republic of Senegal", "focus_area": "9", "lat": "14.500000", "type": "PCLI", "awardID": "00050590", "lon": "-14.250000", "precision": "1", "focus_area_descr": "Organizational Results Area 2"}]}, {"title": "int\u00e9grat. adapt.changem. climat. dans le d\u00e9velop. durabl", "id": "00058917", "subnational": [{"outputID": "00073411", "output_locID": "00073411-1", "name": "R\u00e9gion de Thi\u00e8s", "focus_area": "0", "lat": "14.872840", "type": "ADM1", "awardID": "00058917", "lon": "-16.851960", "precision": "1", "focus_area_descr": "SP_NONE_APPLIES"}]}, {"title": "conservation communautaire biodiversit\u00e9", "id": "00025391", "subnational": []}, {"title": "adolescents/migration/sida", "id": "00025888", "subnational": [{"outputID": "00025888", "output_locID": "00025888-1", "name": "Republic of Senegal", "focus_area": "0", "lat": "14.500000", "type": "PCLI", "awardID": "00025888", "lon": "-14.250000", "precision": "1", "focus_area_descr": "SP_NONE_APPLIES"}]}, {"title": "proj.gestion.integree.ecosystemes.phase 2", "id": "00045997", "subnational": [{"outputID": "00054515", "output_locID": "00054515-1", "name": "Ziguinchor", "focus_area": "-", "lat": "12.583330", "type": "PPLA", "awardID": "00045997", "lon": "-16.271940", "precision": "1", "focus_area_descr": "-"}, {"outputID": "00054515", "output_locID": "00054515-2", "name": "Sinti\u00e2n Koba", "focus_area": "-", "lat": "12.950000", "type": "PPL", "awardID": "00045997", "lon": "-14.233330", "precision": "1", "focus_area_descr": "-"}, {"outputID": "00054515", "output_locID": "00054515-3", "name": "Sar\u00e9 Saloum", "focus_area": "-", "lat": "13.666670", "type": "PPL", "awardID": "00045997", "lon": "-13.666670", "precision": "1", "focus_area_descr": "-"}, {"outputID": "00054515", "output_locID": "00054515-4", "name": "Niokolo-Koba", "focus_area": "-", "lat": "13.077120", "type": "PPL", "awardID": "00045997", "lon": "-12.727120", "precision": "1", "focus_area_descr": "-"}, {"outputID": "00054515", "output_locID": "00054515-5", "name": "Niayes", "focus_area": "-", "lat": "15.416670", "type": "RGN", "awardID": "00045997", "lon": "-16.666670", "precision": "1", "focus_area_descr": "-"}, {"outputID": "00054515", "output_locID": "00054515-6", "name": "Louga", "focus_area": "-", "lat": "15.618670", "type": "PPLA", "awardID": "00045997", "lon": "-16.224360", "precision": "1", "focus_area_descr": "-"}, {"outputID": "00054515", "output_locID": "00054515-7", "name": "R\u00e9serve de Faune du Ferlo-Sud", "focus_area": "-", "lat": "14.833330", "type": "RESW", "awardID": "00045997", "lon": "-14.000000", "precision": "1", "focus_area_descr": "-"}, {"outputID": "00054515", "output_locID": "00054515-8", "name": "Diourbel", "focus_area": "-", "lat": "14.768770", "type": "ADM1", "awardID": "00045997", "lon": "-16.186820", "precision": "1", "focus_area_descr": "-"}]}, {"title": "proj.gestion.dioxines.et.mercure", "id": "00048413", "subnational": [{"outputID": "00058546", "output_locID": "00058546-1", "name": "Dakar", "focus_area": "-", "lat": "14.693700", "type": "PPLC", "awardID": "00048413", "lon": "-17.444060", "precision": "1", "focus_area_descr": "-"}, {"outputID": "00058546", "output_locID": "00058546-2", "name": "Dakar", "focus_area": "-", "lat": "14.693700", "type": "PPLC", "awardID": "00048413", "lon": "-17.444060", "precision": "1", "focus_area_descr": "-"}]}, {"title": "pims 4315 cc pdf-b transfert technologie typha-based", "id": "00058558", "subnational": [{"outputID": "00072769", "output_locID": "00072769-1", "name": "Republic of Senegal", "focus_area": "5", "lat": "14.500000", "type": "PCLI", "awardID": "00058558", "lon": "-14.250000", "precision": "1", "focus_area_descr": "Climate Change & Disaster Resilience"}]}, {"title": "programme national de r\u00e9duction de gaz \u00e0 effet de serre", "id": "00059838", "subnational": [{"outputID": "00075027", "output_locID": "00075027-1", "name": "Republic of Senegal", "focus_area": "-", "lat": "14.500000", "type": "PCLI", "awardID": "00059838", "lon": "-14.250000", "precision": "1", "focus_area_descr": "-"}]}, {"title": "ademe convention karite", "id": "00045417", "subnational": []}, {"title": "ap. adapt. chang. clim (paa/intac)", "id": "PAA INTAC", "subnational": []}, {"title": "appui prev. grippe aviaire senegal", "id": "00045512", "subnational": []}, {"title": "auto-eval. cap. a renf. gestion envir. mondial", "id": "00057393", "subnational": []}, {"title": "biological diversity conservation", "id": "00045891", "subnational": []}, {"title": "cadre integre - appui cellule redep industriel", "id": "00050178", "subnational": []}, {"title": "cadre integre - artisanat", "id": "00037493", "subnational": []}, {"title": "comprendre/appliquer trans/budg. du genre cadre omd", "id": "00040244", "subnational": []}, {"title": "ecovillages pilotes phase preparatoire", "id": "00058853", "subnational": []}, {"title": "financt crdi projet ptf reg", "id": "00043454", "subnational": []}, {"title": "fonds local solidarite eau/assainissement", "id": "00044370", "subnational": []}, {"title": "gestion int\u00e9gr\u00e9e des \u00e9cosyst\u00e8mes", "id": "00014723", "subnational": []}, {"title": "pims2669/cdac/pdfa/ncsa/nat cap self-as global env man", "id": "00041263", "subnational": []}, {"title": "pims3341/cc/pdfb/gestion integree de la zone cotiere", "id": "00041725", "subnational": []}, {"title": "renf. parti. osc aux proc dem", "id": "00047268", "subnational": []}, {"title": "renforcement capacit\u00e9s elus locaux", "id": "00037759", "subnational": []}, {"title": "senior economist - senegal", "id": "00033760", "subnational": []}], "op_unit": "SEN"}