{"iso_num":"686","op_unit":"SEN","projects":[{"id":"00047260","subnational":[{"awardID":"00047260","lat":"15.61867","lon":"-16.22436","name":"Luga","precision":"3","type":"PPLA"}],"title":"APPUI COORD/PROM. VOLONTARIAT AU SENEGAL"},{"id":"00050327","subnational":[{"awardID":"00050327","lat":"15.61867","lon":"-16.22436","name":"Luga","precision":"3","type":"PPLA"}],"title":"APPUI DEV. ECONOMIQUE LOCAL"},{"id":"00051420","subnational":[{"awardID":"00051420","lat":"12.75","lon":"-15.5","name":"Casamance region","precision":"4","type":"ADM1"},{"awardID":"00051420","lat":"12.75","lon":"-15.5","name":"Casamance region","precision":"4","type":"ADM1"}],"title":"APPUI EC STRATEGIE LUTTE ANTIMINES EN CASAMANCE"},{"id":"00044017","subnational":[{"awardID":"00044017","lat":"14.6937","lon":"-17.44406","name":"Dakar Region","precision":"3","type":"PPLC"}],"title":"CELLULE APPUI MISE OEUVRE PROJETS/PROGRAMMES"},{"id":"00058548","subnational":[{"awardID":"00058548","lat":"14.6937","lon":"-17.44406","name":"Dakar","precision":"3","type":"PPLC"}],"title":"COHESION SOCIALE/EMPLOI JEUNES"},{"id":"00064649","subnational":[{"awardID":"00064649","lat":"14","lon":"-14","name":"Senegal","precision":"9","type":"PCL"}],"title":"Development Effectiveness (Fund 02550) Project"},{"id":"00060989","subnational":[{"awardID":"00060989","lat":"14.6937","lon":"-17.44406","name":"Dakar","precision":"3","type":"PPL"},{"awardID":"00060989","lat":"16.01793","lon":"-16.48962","name":"Saint Louis","precision":"3","type":"PPLA"},{"awardID":"00060989","lat":"14.78333","lon":"-16.96667","name":"Thies","precision":"3","type":"PPL"},{"awardID":"00060989","lat":"14.78333","lon":"-16.96667","name":"Thies","precision":"3","type":"PPL"}],"title":"Evaluation Micro HACT"},{"id":"00050641","subnational":[{"awardID":"00050641","lat":"16.01793","lon":"-16.48962","name":"Saint Louis","precision":"3","type":"PPLA"},{"awardID":"00050641","lat":"15.5","lon":"-13.5","name":"Matam","precision":"4","type":"ADM1"}],"title":"FDL3/FDL4"},{"id":"00044370","subnational":[{"awardID":"00044370","lat":"14","lon":"-14","name":"Senegal","precision":"9","type":"PCL"}],"title":"FONDS LOCAL SOLIDARITE EAU/ASSAINISSEMENT"},{"id":"00050360","subnational":[{"awardID":"00050360","lat":"14","lon":"-14","name":"Senegal","precision":"9","type":"PCL"}],"title":"GATE/ PROG NAT PTFM LUTTE PAUVRETE"},{"id":"00075198","subnational":[{"awardID":"00075198","lat":"14","lon":"-14","name":"Senegal","precision":"9","type":"PCL"}],"title":"Gouvernance Pour l'Atteinte des OMD (GPAO)"},{"id":"00065369","subnational":[{"awardID":"00065369","lat":"14.6937","lon":"-17.44406","name":"Dakar","precision":"3","type":"PPL"},{"awardID":"00065369","lat":"16.01793","lon":"-16.48962","name":"Saint Louis","precision":"3","type":"PPLA"},{"awardID":"00065369","lat":"14.5","lon":"-17","name":"Mbour","precision":"3","type":"ADM2"},{"awardID":"00065369","lat":"12.75","lon":"-15.5","name":"Casamance","precision":"4","type":"ADM1"}],"title":"Gouvernance, politique de gestion des ressources Marines"},{"id":"00059590","subnational":[{"awardID":"00059590","lat":"14","lon":"-12.75","name":"Bakel","precision":"3","type":"ADM2"}],"title":"Initiatives pilotes Irrigation et Gestion Durable- Bakel"},{"id":"00058917","subnational":[{"awardID":"00058917","lat":"14.87284","lon":"-16.85196","name":"Thies","precision":"4","type":"ADM1"}],"title":"Int\u00e9grat. Adapt.Changem. Climat. dans le D\u00e9velop. Durabl"},{"id":"00014719","subnational":[{"awardID":"00014719","lat":"14","lon":"-14","name":"Senegal","precision":"9","type":"PCL"}],"title":"PAREP"},{"id":"00048224","subnational":[{"awardID":"00048224","lat":"14.38643","lon":"-16.40175","name":"Fatick and Fimla","precision":"4","type":"ADM1"}],"title":"PIMS 3341 CC-A FSP: WAF ACCC_Senegal"},{"id":"00045638","subnational":[{"awardID":"00045638","lat":"14","lon":"-14","name":"Senegal","precision":"9","type":"PCL"}],"title":"PIMS 3341 FSP CC_Shoreline Adaptation to Climate Change"},{"id":"00060987","subnational":[{"awardID":"00060987","lat":"15.41667","lon":"-16.66667","name":"Niayes","precision":"4","type":"ADM1"}],"title":"PIMS 4313 FSP Ecovillages Pilotes"},{"id":"00048859","subnational":[],"title":"P\u00f4le r\u00e9gional d'appui aux Cadres Strat\u00e9giques"},{"id":"00045093","subnational":[{"awardID":"00045093","lat":"14","lon":"-14","name":"Senegal","precision":"9","type":"PCL"}],"title":"PREVENTION/GESTION CATASTROPHES"},{"id":"00048401","subnational":[{"awardID":"00048401","lat":"14","lon":"-14","name":"Senegal","precision":"9","type":"PCL"}],"title":"PROG. AP. LETTRE POL SECTORIELLE MICRO-FINANCE"},{"id":"00050614","subnational":[{"awardID":"00050614","lat":"14","lon":"-14","name":"Senegal","precision":"9","type":"PCL"}],"title":"PROG. AP. MISE OEUVRE STRATEGIE REDUCTION PAUVETE"},{"id":"00058028","subnational":[{"awardID":"00058028","lat":"15.61867","lon":"-16.22436","name":"Luga","precision":"3","type":"PPLA"}],"title":"PROG. APPUI RESEAUX TERR GOUV LOC DE DEV"},{"id":"00058486","subnational":[{"awardID":"00058486","lat":"14","lon":"-14","name":"Senegal","precision":"9","type":"PCL"}],"title":"PROG. NAT. MOBILISATION EXPERTISE DIASPORA"},{"id":"00049508","subnational":[{"awardID":"00049508","lat":"14","lon":"-14","name":"Senegal","precision":"9","type":"PCL"}],"title":"PROG. RENFORCEMENT CAPACITES BONNE GOUVERNANCE"},{"id":"00014720","subnational":[{"awardID":"00014720","lat":"14","lon":"-14","name":"Senegal","precision":"9","type":"PCL"}],"title":"Programme d'Appui au PNBG"},{"id":"00075241","subnational":[{"awardID":"00075241","lat":"16.01793","lon":"-16.48962","name":"Saint Louis","precision":"3","type":"PPLA"},{"awardID":"00075241","lat":"15.5","lon":"-13.5","name":"Matam","precision":"4","type":"ADM1"},{"awardID":"00075241","lat":"15.44748","lon":"-15.47192","name":"Louga","precision":"4","type":"ADM1"}],"title":"Programme de D\u00e9veloppement Economique et Social"},{"id":"00057243","subnational":[{"awardID":"00057243","lat":"14","lon":"-14","name":"Senegal","precision":"9","type":"PCL"}],"title":"PROJ AMELIORAT/VALORISAT. SERVICES ECOSYST FORESTIERS"},{"id":"00057632","subnational":[{"awardID":"00057632","lat":"14","lon":"-14","name":"Senegal","precision":"9","type":"PCL"}],"title":"PROJ CONJ. MDGF CULT/DEV"},{"id":"00047901","subnational":[{"awardID":"00047901","lat":"12.75","lon":"-15.5","name":"Casamance region","precision":"4","type":"ADM1"}],"title":"PROJ.  ASSISTANCE LUTTE ANTIMINES CASAMANCE"},{"id":"00045897","subnational":[{"awardID":"00045897","lat":"15.61867","lon":"-16.22436","name":"Luga","precision":"3","type":"PPLA"}],"title":"PROJ. GESTIO.RESTAURATION.TERRES.DEGRADE.BASSIN ARACHIDI"},{"id":"00064013","subnational":[{"awardID":"00064013","lat":"13.77073","lon":"-13.66734","name":"Tambacounda","precision":"3","type":"PPLA"},{"awardID":"00064013","lat":"12.88333","lon":"-14.95","name":"Kolda","precision":"3","type":"PPLA"},{"awardID":"00064013","lat":"12.7025","lon":"-15.81917","name":"Toubacouta","precision":"3","type":"PPL"},{"awardID":"00064013","lat":"12.53965","lon":"-12.31061","name":"Bandafassi","precision":"3","type":"PPL"},{"awardID":"00064013","lat":"14.83333","lon":"-14","name":"Ferlo","precision":"4","type":"RES"},{"awardID":"00064013","lat":"13.17134","lon":"-12.0931","name":"Kedougou","precision":"4","type":"RES"}],"title":"Projet de Gestion Int\u00e9gr\u00e9e des Ecosyst\u00e8mes du S\u00e9n\u00e9gal"},{"id":"00069919","subnational":[{"awardID":"00069919","lat":"14","lon":"-14","name":"Senegal","precision":"9","type":"PCL"}],"title":"PROJET EFFICACITE ENERGETIQUE DANS LE BATIMENT SENEGAL"},{"id":"00057987","subnational":[{"awardID":"00057987","lat":"14.38643","lon":"-16.40175","name":"Regionde Fatick","precision":"4","type":"ADM1"}],"title":"PROM. INITIATIVES/INDUSTRIES CULT. AU SENEGAL"},{"id":"00050590","subnational":[{"awardID":"00050590","lat":"14","lon":"-14","name":"Senegal","precision":"9","type":"PCL"}],"title":"Rapport sur la dimension genre au S\u00e9n\u00e9gal 2008"},{"id":"00065668","subnational":[{"awardID":"00065668","lat":"14","lon":"-14","name":"Senegal","precision":"9","type":"PCL"}],"title":"SUPPORT TO THE ELECTORAL PROCESS AND GOVERNANCE REFORM"},{"id":"00069488","subnational":[{"awardID":"00069488","lat":"14.6937","lon":"-17.44406","name":"Dakar","precision":"3","type":"PPL"},{"awardID":"00069488","lat":"16.01793","lon":"-16.48962","name":"Saint Louis","precision":"3","type":"PPLA"}],"title":"TRANSFERT TECHNOLOGIE - PRODUCTION MATERIAUX ISOLANTS TH"},{"id":"00059626","subnational":[{"awardID":"00059626","lat":"14.10528","lon":"-15.54565","name":"Fatick Kaffrine saint louis","precision":"4","type":"ADM1"}],"title":"Vers un D\u00e9veloppement Local Moins Emetteur de CO2"}]}