{"iso_num":"686","op_unit":"SEN","projects":[{"id":"00047260","subnational":[{"awardID":"00047260","lat":"15.61867","lon":"-16.22436","name":"Luga","precision":"3","type":"PPLA"},{"awardID":"00047260","lat":"12.58333","lon":"-16.27194","name":"Ziguinchor","precision":"3","type":"PPLA"},{"awardID":"00047260","lat":"14.76877","lon":"-16.18682","name":"Diourbel","precision":"4","type":"ADM1"}],"title":"APPUI COORD/PROM. VOLONTARIAT AU SENEGAL"},{"id":"00050327","subnational":[{"awardID":"00050327","lat":"15.61867","lon":"-16.22436","name":"Luga","precision":"3","type":"PPLA"},{"awardID":"00050327","lat":"14.10528","lon":"-15.54565","name":"Kaffrine","precision":"4","type":"ADM1"},{"awardID":"00050327","lat":"15.318","lon":"-16.221","name":"Kebemer","precision":"3","type":"ADM2"}],"title":"APPUI DEV. ECONOMIQUE LOCAL"},{"id":"00051420","subnational":[{"awardID":"00051420","lat":"12.75","lon":"-15.5","name":"Casamance region","precision":"3","type":"ADM1"},{"awardID":"00051420","lat":"12.75","lon":"-15.5","name":"Casamance region","precision":"3","type":"ADM1"}],"title":"APPUI EC STRATEGIE LUTTE ANTIMINES EN CASAMANCE"},{"id":"00044017","subnational":[{"awardID":"00044017","lat":"14.6937","lon":"-17.44406","name":"Dakar Region","precision":"4","type":"PPLC"}],"title":"CELLULE APPUI MISE OEUVRE PROJETS/PROGRAMMES"},{"id":"00058548","subnational":[{"awardID":"00058548","lat":"14.6937","lon":"-17.44406","name":"Dakar","precision":"3","type":"PPLC"},{"awardID":"00058548","lat":"13.77073","lon":"-13.66734","name":"Tambacounda","precision":"3","type":"PPLA"},{"awardID":"00058548","lat":"12.88333","lon":"-14.95","name":"Kolda","precision":"3","type":"PPLA"},{"awardID":"00058548","lat":"16.01793","lon":"-16.48962","name":"Saint Louis","precision":"3","type":"PPLA"}],"title":"COHESION SOCIALE/EMPLOI JEUNES"},{"id":"00064649","subnational":[],"title":"Development Effectiveness (Fund 02550) Project"},{"id":"00060989","subnational":[],"title":"Evaluation Micro HACT"},{"id":"00050641","subnational":[{"awardID":"00050641","lat":"15.5","lon":"-13.5","name":"Matam","precision":"3","type":"ADM1"},{"awardID":"00050641","lat":"16.01793","lon":"-16.48962","name":"Saint Louis","precision":"3","type":"PPLA"},{"awardID":"00050641","lat":"15.44748","lon":"-15.47192","name":"Louga","precision":"4","type":"ADM1"}],"title":"FDL3/FDL4"},{"id":"00044370","subnational":[{"awardID":"00044370","lat":"14","lon":"-14","name":"Senegal","precision":"9","type":"PCL"}],"title":"FONDS LOCAL SOLIDARITE EAU/ASSAINISSEMENT"},{"id":"00050360","subnational":[{"awardID":"00050360","lat":"14","lon":"-14","name":"Senegal","precision":"9","type":"PCL"}],"title":"GATE/ PROG NAT PTFM LUTTE PAUVRETE"},{"id":"00075198","subnational":[],"title":"Gouvernance Pour l'Atteinte des OMD (GPAO)"},{"id":"00065369","subnational":[],"title":"Gouvernance, politique de gestion des ressources Marines"},{"id":"00059590","subnational":[{"awardID":"00059590","lat":"14","lon":"-12.75","name":"Bakel","precision":"3","type":"ADM2"}],"title":"Initiatives pilotes Irrigation et Gestion Durable- Bakel"},{"id":"00058917","subnational":[{"awardID":"00058917","lat":"14.87284","lon":"-16.85196","name":"Thies","precision":"3","type":"ADM1"},{"awardID":"00058917","lat":"14.6937","lon":"-17.44406","name":"Dakar","precision":"3","type":"PPLC"}],"title":"Int\u00e9grat. Adapt.Changem. Climat. dans le D\u00e9velop. Durabl"},{"id":"00048224","subnational":[{"awardID":"00048224","lat":"14.38643","lon":"-16.40175","name":"Fatick and Fimla","precision":"3","type":"ADM1"}],"title":"PIMS 3341 CC-A FSP: WAF ACCC_Senegal"},{"id":"00060987","subnational":[{"awardID":"00060987","lat":"15.41667","lon":"-16.66667","name":"Niayes","precision":"3","type":"ADM1"},{"awardID":"00060987","lat":"15.428","lon":"-16.7199","name":"village Loumpoul","precision":"3","type":"PPL"},{"awardID":"00060987","lat":"14.83333","lon":"-14","name":"Ferlo","precision":"3","type":"RES"},{"awardID":"00060987","lat":"14.51667","lon":"-13.5","name":"Villages Toubel Bali","precision":"3","type":"PPL"},{"awardID":"00060987","lat":"15.1404","lon":"-14.5487","name":"Kak","precision":"3","type":"PPL"},{"awardID":"00060987","lat":"16.33333","lon":"-15","name":"Senegal River","precision":"3","type":"ADM1"},{"awardID":"00060987","lat":"13.07712","lon":"-12.72712","name":"National Park Niokolo Koba","precision":"3","type":"PPL"},{"awardID":"00060987","lat":"13.92944","lon":"-16.76611","name":"Saloum","precision":"3","type":"PPL"},{"awardID":"00060987","lat":"15.1128","lon":"-15.8496","name":"Mbam","precision":"3","type":"PPL"},{"awardID":"00060987","lat":"13.60389","lon":"-16.52611","name":"Massarinko","precision":"3","type":"PPL"}],"title":"PIMS 4313 FSP Ecovillages Pilotes"},{"id":"00048859","subnational":[],"title":"P\u00f4le r\u00e9gional d'appui aux Cadres Strat\u00e9giques"},{"id":"00048401","subnational":[{"awardID":"00048401","lat":"14","lon":"-14","name":"Senegal","precision":"9","type":"PCL"}],"title":"PROG. AP. LETTRE POL SECTORIELLE MICRO-FINANCE"},{"id":"00050614","subnational":[{"awardID":"00050614","lat":"14","lon":"-14","name":"Senegal","precision":"9","type":"PCL"}],"title":"PROG. AP. MISE OEUVRE STRATEGIE REDUCTION PAUVETE"},{"id":"00058028","subnational":[{"awardID":"00058028","lat":"15.61867","lon":"-16.22436","name":"Luga","precision":"3","type":"PPLA"},{"awardID":"00058028","lat":"12.75","lon":"-15.5","name":"Casamance","precision":"4","type":"ADM1"}],"title":"PROG. APPUI RESEAUX TERR GOUV LOC DE DEV"},{"id":"00058486","subnational":[{"awardID":"00058486","lat":"14","lon":"-14","name":"Senegal","precision":"9","type":"PCL"}],"title":"PROG. NAT. MOBILISATION EXPERTISE DIASPORA"},{"id":"00049508","subnational":[{"awardID":"00049508","lat":"14","lon":"-14","name":"Senegal","precision":"9","type":"PCL"}],"title":"PROG. RENFORCEMENT CAPACITES BONNE GOUVERNANCE"},{"id":"00014720","subnational":[{"awardID":"00014720","lat":"14","lon":"-14","name":"Senegal","precision":"9","type":"PCL"}],"title":"Programme d'Appui au PNBG"},{"id":"00057243","subnational":[{"awardID":"00057243","lat":"14","lon":"-14","name":"Senegal","precision":"9","type":"PCL"}],"title":"PROJ AMELIORAT/VALORISAT. SERVICES ECOSYST FORESTIERS"},{"id":"00057632","subnational":[{"awardID":"00057632","lat":"14","lon":"-14","name":"Senegal","precision":"9","type":"PCL"}],"title":"PROJ CONJ. MDGF CULT/DEV"},{"id":"00047901","subnational":[{"awardID":"00047901","lat":"12.75","lon":"-15.5","name":"Casamance region","precision":"3","type":"ADM1"}],"title":"PROJ.  ASSISTANCE LUTTE ANTIMINES CASAMANCE"},{"id":"00045897","subnational":[{"awardID":"00045897","lat":"15.61867","lon":"-16.22436","name":"Luga","precision":"3","type":"PPLA"},{"awardID":"00045897","lat":"14.38643","lon":"-16.40175","name":"Fatick Kaffrine","precision":"4","type":"ADM1"},{"awardID":"00045897","lat":"14.1825","lon":"-16.25333","name":"Kaolack","precision":"3","type":"PPLA"},{"awardID":"00045897","lat":"14.87284","lon":"-16.85196","name":"Thies","precision":"4","type":"ADM1"},{"awardID":"00045897","lat":"14.76877","lon":"-16.18682","name":"Diourbel","precision":"4","type":"ADM1"}],"title":"PROJ. GESTIO.RESTAURATION.TERRES.DEGRADE.BASSIN ARACHIDI"},{"id":"00064013","subnational":[],"title":"Projet de Gestion Int\u00e9gr\u00e9e des Ecosyst\u00e8mes du S\u00e9n\u00e9gal"},{"id":"00069919","subnational":[],"title":"PROJET EFFICACITE ENERGETIQUE DANS LE BATIMENT SENEGAL"},{"id":"00057987","subnational":[{"awardID":"00057987","lat":"14.38643","lon":"-16.40175","name":"Regionde Fatick","precision":"3","type":"ADM1"},{"awardID":"00057987","lat":"12.55146","lon":"-12.17586","name":"Kedougou","precision":"4","type":"ADM1"}],"title":"PROM. INITIATIVES/INDUSTRIES CULT. AU SENEGAL"},{"id":"00050590","subnational":[{"awardID":"00050590","lat":"14","lon":"-14","name":"Senegal","precision":"9","type":"PCL"}],"title":"Rapport sur la dimension genre au S\u00e9n\u00e9gal 2008"},{"id":"00065668","subnational":[],"title":"SUPPORT TO THE ELECTORAL PROCESS AND GOVERNANCE REFORM"},{"id":"00069488","subnational":[],"title":"TRANSFERT TECHNOLOGIE - PRODUCTION MATERIAUX ISOLANTS TH"},{"id":"00059626","subnational":[{"awardID":"00059626","lat":"14.10528","lon":"-15.54565","name":"Fatick Kaffrine saint louis","precision":"3","type":"ADM1"},{"awardID":"00059626","lat":"13.77073","lon":"-13.66734","name":"Tambacounda","precision":"3","type":"PPLA"},{"awardID":"00059626","lat":"15.5","lon":"-13.5","name":"Matam","precision":"3","type":"ADM1"},{"awardID":"00059626","lat":"15.44748","lon":"-15.47192","name":"Louga","precision":"3","type":"ADM1"}],"title":"Vers un D\u00e9veloppement Local Moins Emetteur de CO2"}]}