{"iso_num":"222","op_unit":"SLV","projects":[{"id":"00049968","subnational":[{"awardID":"00049968","lat":"13.83333","lon":"-88.91667","name":"El Salvador","precision":"9","type":"PCL"}],"title":"Analisis y Escenarios Gobernabilidad"},{"id":"00050368","subnational":[{"awardID":"00050368","lat":"13.83333","lon":"-88.91667","name":"El Salvador","precision":"9","type":"PCL"}],"title":"Apoyo a la Direcci\u00f3n de Migraci\u00f3n Fase II"},{"id":"00057273","subnational":[{"awardID":"00057273","lat":"14.03333","lon":"-88.93333","name":"Chalatenango","precision":"3","type":"PPLA"},{"awardID":"00057273","lat":"13.67694","lon":"-89.27972","name":"La Libertad","precision":"3","type":"PPLA"},{"awardID":"00057273","lat":"13.65889","lon":"-89.18306","name":"San MArcos","precision":"3","type":"PPL"},{"awardID":"00057273","lat":"13.68935","lon":"-89.18718","name":"San Salvador","precision":"3","type":"PPLC"},{"awardID":"00057273","lat":"13.5","lon":"-88.86667","name":"Zacatecoluca","precision":"3","type":"PPLA"},{"awardID":"00057273","lat":"13.58944","lon":"-89.28889","name":"Zaragoza, El Salvador","precision":"3","type":"PPL"}],"title":"Asentamientos Urbanos Productivos"},{"id":"00048066","subnational":[{"awardID":"00048066","lat":"13.83333","lon":"-88.91667","name":"El Salvador","precision":"9","type":"PCL"}],"title":"Atenci\u00f3n a la pobreza y cumplimiento Objetivos Milenio"},{"id":"00051329","subnational":[{"awardID":"00051329","lat":"13.68935","lon":"-89.18718","name":"San Salvador","precision":"3","type":"PPLC"}],"title":"Building social capital to reduce Violence."},{"id":"00062423","subnational":[{"awardID":"00062423","lat":"13.83333","lon":"-88.91667","name":"El Salvador","precision":"9","type":"PCL"}],"title":"Cerrando brechas de participaci\u00f3n electoral con el voto"},{"id":"00061663","subnational":[],"title":"Consolidacion estrategia atencion a la pobreza en ES"},{"id":"00069421","subnational":[],"title":"Di\u00e1logo Pol\u00edtico y construcci\u00f3n Propuestas"},{"id":"00059394","subnational":[{"awardID":"00059394","lat":"13.68935","lon":"-89.18718","name":"Ministerio de Obras Publicas, El Salvador","precision":"1","type":"PPLC"}],"title":"Dinamizaci\u00f3n de Economias Locales"},{"id":"00060180","subnational":[{"awardID":"00060180","lat":"13.68935","lon":"-89.18718","name":"San Salvador","precision":"3","type":"PPLC"}],"title":"Energy Efficiency in Public Buildings"},{"id":"00059133","subnational":[{"awardID":"00059133","lat":"13.68935","lon":"-89.18718","name":"Instituto salvadoreno del Seguro Social","precision":"1","type":"PPLC"}],"title":"Fortalecimiento al Seguro Social en respuesta VIH/SIDA"},{"id":"00061024","subnational":[{"awardID":"00061024","lat":"13.68935","lon":"-89.18718","name":"Instituto Salvadoreno de Bien Estar MAgisterial","precision":"1","type":"PPLC"}],"title":"Fortalecimiento del Instituto de Bienestar Magisterial"},{"id":"00062099","subnational":[{"awardID":"00062099","lat":"13.83333","lon":"-88.91667","name":"El Salvador","precision":"9","type":"PCL"}],"title":"Fortalecimiento del mecanismo de coordinacion de pais"},{"id":"00068118","subnational":[],"title":"Fortalecimiento del Programa Nacional de Tuberculosis"},{"id":"00061325","subnational":[{"awardID":"00061325","lat":"13.83333","lon":"-88.91667","name":"El Salvador","precision":"9","type":"PCL"}],"title":"Gobernabilidad y Sostenibilidad de Agua y Saneamiento"},{"id":"00050253","subnational":[{"awardID":"00050253","lat":"13.83333","lon":"-88.91667","name":"El Salvador","precision":"9","type":"PCL"}],"title":"Hacia la Participaci\u00f3n Pol\u00edtica de las Mujeres"},{"id":"00050369","subnational":[{"awardID":"00050369","lat":"13.83333","lon":"-88.91667","name":"El Salvador","precision":"9","type":"PCL"}],"title":"Informes sobre Desarrollo Humano El Salvador"},{"id":"00061339","subnational":[{"awardID":"00061339","lat":"13.83333","lon":"-88.91667","name":"El Salvador","precision":"9","type":"PCL"}],"title":"Integraci\u00f3n de la Biodiversidad en Pesca y Turismo"},{"id":"00057473","subnational":[{"awardID":"00057473","lat":"14.03333","lon":"-88.93333","name":"Chalatenango","precision":"3","type":"PPLA"},{"awardID":"00057473","lat":"13.67694","lon":"-89.27972","name":"La Libertad","precision":"3","type":"PPLA"},{"awardID":"00057473","lat":"13.65889","lon":"-89.18306","name":"San MArcos","precision":"4","type":"PPL"},{"awardID":"00057473","lat":"13.68935","lon":"-89.18718","name":"San Salvador","precision":"4","type":"PPLC"},{"awardID":"00057473","lat":"13.5","lon":"-88.86667","name":"Zacatecoluca","precision":"4","type":"PPLA"},{"awardID":"00057473","lat":"13.58944","lon":"-89.28889","name":"Zaragoza, El Salvador","precision":"3","type":"PPL"}],"title":"Integraci\u00f3n en Educaci\u00f3n Basica"},{"id":"00075634","subnational":[],"title":"Joint Migration & Development Initiative II-El Salvador"},{"id":"00062852","subnational":[{"awardID":"00062852","lat":"13.83333","lon":"-88.91667","name":"El Salvador","precision":"9","type":"PCL"}],"title":"Lucha contra VIH en poblaciones vulnerables consolidado"},{"id":"00069442","subnational":[],"title":"Modernizacion y Gestion de los activos estrategicos"},{"id":"00070764","subnational":[],"title":"Optimizaci\u00f3n gasto e inversi\u00f3n social en VIH Min Salud"},{"id":"00050364","subnational":[{"awardID":"00050364","lat":"13.83333","lon":"-88.91667","name":"El Salvador","precision":"9","type":"PCL"}],"title":"Pacto por la Igualdad de G\u00e9nero"},{"id":"00069515","subnational":[],"title":"Plan de Eliminaci\u00f3n de los HCFC en El Salvador"},{"id":"00068999","subnational":[],"title":"Planificacion Biodiversidad Apoyo Plan Estrategico"},{"id":"00060122","subnational":[{"awardID":"00060122","lat":"13.83333","lon":"-88.91667","name":"El Salvador","precision":"9","type":"PCL"}],"title":"PREVENCION Y CONTROL TB EN POBLACIONES VULNERABLES"},{"id":"00067984","subnational":[],"title":"Programa Gobernabilidad Local"},{"id":"00059775","subnational":[{"awardID":"00059775","lat":"13.83333","lon":"-88.91667","name":"El Salvador","precision":"9","type":"PCL"}],"title":"Programa seguridad alimentaria y nutricional"},{"id":"00059195","subnational":[{"awardID":"00059195","lat":"13.68935","lon":"-89.18718","name":"Region Central, El Salvador","precision":"1","type":"PPLC"},{"awardID":"00059195","lat":"13.68935","lon":"-89.18718","name":"Region Paracentral, El Salvador","precision":"1","type":"PPLC"}],"title":"Proyecto Desarrollo y Modernizacion Rural Region Central"},{"id":"00057145","subnational":[{"awardID":"00057145","lat":"13.68935","lon":"-89.18718","name":"Region Oriental, El Salvador","precision":"1","type":"PPLC"}],"title":"PROYECTO DESARROLLO Y MODERNIZACION RURAL REGION ORIENTE"},{"id":"00060460","subnational":[{"awardID":"00060460","lat":"13.83333","lon":"-88.91667","name":"El Salvador","precision":"9","type":"PCL"}],"title":"Redes Territoriales y desarrollo humano"},{"id":"00062948","subnational":[{"awardID":"00062948","lat":"13.83333","lon":"-88.91667","name":"El Salvador","precision":"9","type":"PCL"}],"title":"Respuesta a los da\u00f1os causados por Tormenta Tropical 12E"},{"id":"00070673","subnational":[],"title":"Seamos Productivos"},{"id":"00060623","subnational":[{"awardID":"00060623","lat":"13.83333","lon":"-88.91667","name":"El Salvador","precision":"9","type":"PCL"}],"title":"Transparencia y Accountability"},{"id":"00059340","subnational":[{"awardID":"00059340","lat":"13.83333","lon":"-88.91667","name":"El Salvador","precision":"9","type":"PCL"}],"title":"Un nuevo Contrato Social"},{"id":"00069424","subnational":[],"title":"Voto Residencial"}]}