{"iso_num":"222","op_unit":"SLV","projects":[{"id":"00050368","subnational":[{"awardID":"00050368","lat":"13.83333","lon":"-88.91667","name":"El Salvador","precision":"9","type":"PCL"}],"title":"Apoyo a la Direcci\u00f3n de Migraci\u00f3n Fase II"},{"id":"00057273","subnational":[{"awardID":"00057273","lat":"13.67694","lon":"-89.27972","name":"La Libertad","precision":"3","type":"PPLA"},{"awardID":"00057273","lat":"13.67694","lon":"-89.27972","name":"Santa Tecla","precision":"3","type":"PPLA"},{"awardID":"00057273","lat":"13.68935","lon":"-89.18718","name":"San Salvador","precision":"3","type":"PPL"},{"awardID":"00057273","lat":"13.80722","lon":"-89.17917","name":"Apopa","precision":"3","type":"PPL"}],"title":"Asentamientos Urbanos Productivos"},{"id":"00048066","subnational":[{"awardID":"00048066","lat":"13.83333","lon":"-88.91667","name":"El Salvador","precision":"9","type":"PCL"}],"title":"Atenci\u00f3n a la pobreza y cumplimiento Objetivos Milenio"},{"id":"00051329","subnational":[{"awardID":"00051329","lat":"13.68935","lon":"-89.18718","name":"San Salvador","precision":"3","type":"PPLC"}],"title":"Building social capital to reduce Violence."},{"id":"00062423","subnational":[{"awardID":"00062423","lat":"13.83333","lon":"-88.91667","name":"El Salvador","precision":"9","type":"PCL"}],"title":"Cerrando brechas de participaci\u00f3n electoral con el voto"},{"id":"00061663","subnational":[{"awardID":"00061663","lat":"13.83333","lon":"-88.91667","name":"El Salvador","precision":"9","type":"PCL"},{"awardID":"00061663","lat":"13.59278","lon":"-89.8275","name":"Acajutla","precision":"3","type":"PPL"},{"awardID":"00061663","lat":"13.31667","lon":"-88.58333","name":"Jiquilisco","precision":"3","type":"PPL"},{"awardID":"00061663","lat":"13.99417","lon":"-89.55972","name":"Santa Ana","precision":"3","type":"PPLA"},{"awardID":"00061663","lat":"13.84028","lon":"-89.44722","name":"Ciudad Arce","precision":"3","type":"PPL"},{"awardID":"00061663","lat":"13.72667","lon":"-89.36889","name":"Colon","precision":"3","type":"PPL"},{"awardID":"00061663","lat":"13.86667","lon":"-89.4","name":"San Juan Opico","precision":"3","type":"ADM2"},{"awardID":"00061663","lat":"13.59278","lon":"-89.8275","name":"Acajutla","precision":"3","type":"PPL"},{"awardID":"00061663","lat":"13.71889","lon":"-89.72417","name":"Sonsonate","precision":"3","type":"PPLA"},{"awardID":"00061663","lat":"13.7775","lon":"-89.73667","name":"Nahuizalco","precision":"3","type":"PPL"},{"awardID":"00061663","lat":"13.81358","lon":"-89.63247","name":"Izalco","precision":"3","type":"PPL"},{"awardID":"00061663","lat":"13.80722","lon":"-89.17917","name":"Apopa","precision":"3","type":"PPL"},{"awardID":"00061663","lat":"13.65889","lon":"-89.18306","name":"San Marcos","precision":"3","type":"PPL"},{"awardID":"00061663","lat":"13.70167","lon":"-89.10944","name":"Ilopango","precision":"3","type":"PPL"},{"awardID":"00061663","lat":"13.73472","lon":"-89.15139","name":"Soyapango","precision":"3","type":"PPL"},{"awardID":"00061663","lat":"13.68935","lon":"-89.18718","name":"San Vicente","precision":"3","type":"PPL"},{"awardID":"00061663","lat":"13.48333","lon":"-88.18333","name":"San Miguel","precision":"3","type":"PPLA"},{"awardID":"00061663","lat":"13.61278","lon":"-89.18","name":"Panchimalco","precision":"3","type":"PPL"},{"awardID":"00061663","lat":"13.5","lon":"-88.86667","name":"Zacatecoluca","precision":"3","type":"PPLA"},{"awardID":"00061663","lat":"13.83333","lon":"-88.91667","name":"El Salvador","precision":"9","type":"PCL"},{"awardID":"00061663","lat":"13.83333","lon":"-88.91667","name":"El Salvador","precision":"9","type":"PCL"}],"title":"Consolidacion estrategia atencion a la pobreza en ES"},{"id":"00069421","subnational":[{"awardID":"00069421","lat":"13.83333","lon":"-88.91667","name":"El Salvador","precision":"9","type":"PCL"},{"awardID":"00069421","lat":"13.83333","lon":"-88.91667","name":"El Salvador","precision":"9","type":"PCL"},{"awardID":"00069421","lat":"13.83333","lon":"-88.91667","name":"El Salvador","precision":"9","type":"PCL"}],"title":"Di\u00e1logo Pol\u00edtico y construcci\u00f3n Propuestas"},{"id":"00059394","subnational":[{"awardID":"00059394","lat":"13.68935","lon":"-89.18718","name":"Ministerio de Obras Publicas, El Salvador","precision":"1","type":"PPLC"},{"awardID":"00059394","lat":"13.67694","lon":"-89.27972","name":"La Libertad","precision":"3","type":"PPLA"},{"awardID":"00059394","lat":"13.70167","lon":"-89.10944","name":"Ilopango","precision":"3","type":"PPL"},{"awardID":"00059394","lat":"13.68935","lon":"-89.18718","name":"San Salvador","precision":"3","type":"PPLC"},{"awardID":"00059394","lat":"13.73472","lon":"-89.15139","name":"Soyapango","precision":"3","type":"PPL"},{"awardID":"00059394","lat":"13.59833","lon":"-89.42028","name":"Tamanique","precision":"3","type":"PPL"},{"awardID":"00059394","lat":"13.67333","lon":"-89.43972","name":"Jayaque","precision":"3","type":"PPL"},{"awardID":"00059394","lat":"13.67333","lon":"-89.43972","name":"Jayaque","precision":"3","type":"PPL"},{"awardID":"00059394","lat":"13.46667","lon":"-88.98333","name":"La Paz","precision":"4","type":"ADM1"},{"awardID":"00059394","lat":"13.5","lon":"-88.86667","name":"Zacatecoluca","precision":"3","type":"PPLA"},{"awardID":"00059394","lat":"13.71889","lon":"-89.72417","name":"Sonsonate","precision":"3","type":"PPLA"},{"awardID":"00059394","lat":"13.87028","lon":"-89.84861","name":"Ataco","precision":"3","type":"PPL"},{"awardID":"00059394","lat":"13.86667","lon":"-88.75","name":"Cabanas","precision":"4","type":"ADM1"},{"awardID":"00059394","lat":"13.85","lon":"-88.9","name":"Tejutepeque","precision":"3","type":"PPL"},{"awardID":"00059394","lat":"13.88333","lon":"-88.9","name":"Jutiapa","precision":"3","type":"PPL"}],"title":"Dinamizaci\u00f3n de Economias Locales"},{"id":"00060180","subnational":[{"awardID":"00060180","lat":"13.68935","lon":"-89.18718","name":"San Salvador","precision":"3","type":"PPLC"},{"awardID":"00060180","lat":"13.99417","lon":"-89.55972","name":"Santa Ana","precision":"3","type":"PPLA"},{"awardID":"00060180","lat":"13.98667","lon":"-89.68111","name":"Chalchuapa","precision":"3","type":"PPL"},{"awardID":"00060180","lat":"13.71889","lon":"-89.72417","name":"Sonsonate","precision":"3","type":"PPLA"},{"awardID":"00060180","lat":"13.88333","lon":"-88.83333","name":"Ilobasco","precision":"3","type":"ADM2"},{"awardID":"00060180","lat":"13.98667","lon":"-89.68111","name":"Chalchuapa","precision":"3","type":"PPL"},{"awardID":"00060180","lat":"13.98667","lon":"-89.68111","name":"Chalchuapa","precision":"3","type":"PPL"},{"awardID":"00060180","lat":"13.76667","lon":"-88.26667","name":"Ciudad Barrios","precision":"3","type":"PPL"}],"title":"Energy Efficiency in Public Buildings"},{"id":"00045522","subnational":[{"awardID":"00045522","lat":"13.83333","lon":"-88.91667","name":"El Salvador","precision":"9","type":"PCL"}],"title":"Fase II del Componente VIH/SIDA del Fondo Mundial"},{"id":"00059133","subnational":[{"awardID":"00059133","lat":"13.68935","lon":"-89.18718","name":"Instituto salvadoreno del Seguro Social","precision":"3","type":"PPL"}],"title":"Fortalecimiento al Seguro Social en respuesta VIH/SIDA"},{"id":"00061024","subnational":[{"awardID":"00061024","lat":"13.68935","lon":"-89.18718","name":"Instituto Salvadoreno de Bien Estar MAgisterial","precision":"3","type":"PPL"}],"title":"Fortalecimiento del Instituto de Bienestar Magisterial"},{"id":"00062099","subnational":[{"awardID":"00062099","lat":"13.68935","lon":"-89.18718","name":"San Salvador","precision":"3","type":"PPLC"}],"title":"Fortalecimiento del mecanismo de coordinacion de pais"},{"id":"00068118","subnational":[{"awardID":"00068118","lat":"13.83333","lon":"-88.91667","name":"El Salvador","precision":"9","type":"PCL"}],"title":"Fortalecimiento del Programa Nacional de Tuberculosis"},{"id":"00061325","subnational":[{"awardID":"00061325","lat":"13.85","lon":"-88.3","name":"Carolina","precision":"3","type":"PPL"},{"awardID":"00061325","lat":"13.76667","lon":"-88.26667","name":"Ciudad Barrios","precision":"3","type":"PPL"},{"awardID":"00061325","lat":"13.71639","lon":"-89.73833","name":"San Antonio","precision":"3","type":"PPL"},{"awardID":"00061325","lat":"13.81667","lon":"-88.35","name":"San Luis de la Reina","precision":"3","type":"PPL"},{"awardID":"00061325","lat":"13.78333","lon":"-88.41667","name":"Sesori","precision":"3","type":"ADM2"},{"awardID":"00061325","lat":"13.63333","lon":"-88.26667","name":"Chapeltique","precision":"3","type":"PPL"},{"awardID":"00061325","lat":"13.83333","lon":"-88.91667","name":"El Salvador","precision":"9","type":"PCL"},{"awardID":"00061325","lat":"13.96667","lon":"-88.15","name":"Jocoaitique","precision":"3","type":"ADM2"},{"awardID":"00061325","lat":"13.86667","lon":"-88.21667","name":"Villa El Rosario","precision":"3","type":"PPL"},{"awardID":"00061325","lat":"13.91667","lon":"-88.13333","name":"Arambala","precision":"3","type":"PPL"},{"awardID":"00061325","lat":"13.95","lon":"-88.16667","name":"Perquin","precision":"3","type":"PPL"},{"awardID":"00061325","lat":"14.3","lon":"-89.03333","name":"San Fernando","precision":"3","type":"PPL"},{"awardID":"00061325","lat":"13.91667","lon":"-88.23333","name":"Torola","precision":"3","type":"PPL"},{"awardID":"00061325","lat":"13.76667","lon":"-88.08333","name":"Cacaopera","precision":"3","type":"PPL"},{"awardID":"00061325","lat":"13.81083","lon":"-87.97139","name":"Corinto","precision":"3","type":"PPL"},{"awardID":"00061325","lat":"13.9","lon":"-88.05","name":"Joateca","precision":"3","type":"PPL"}],"title":"Gobernabilidad y Sostenibilidad de Agua y Saneamiento"},{"id":"00050253","subnational":[{"awardID":"00050253","lat":"13.83333","lon":"-88.91667","name":"El Salvador","precision":"9","type":"PCL"}],"title":"Hacia la Participaci\u00f3n Pol\u00edtica de las Mujeres"},{"id":"00050369","subnational":[{"awardID":"00050369","lat":"13.83333","lon":"-88.91667","name":"El Salvador","precision":"9","type":"PCL"}],"title":"Informes sobre Desarrollo Humano El Salvador"},{"id":"00061339","subnational":[{"awardID":"00061339","lat":"13.31667","lon":"-88.58333","name":"Jiquilisco","precision":"3","type":"PPL"},{"awardID":"00061339","lat":"13.28333","lon":"-88.55","name":"Puerto El Triunfo","precision":"3","type":"PPL"},{"awardID":"00061339","lat":"13.28333","lon":"-88.46667","name":"San Dionisio","precision":"3","type":"PPL"},{"awardID":"00061339","lat":"13.35","lon":"-88.45","name":"Usulutan","precision":"3","type":"PPLA"},{"awardID":"00061339","lat":"13.48833","lon":"-89.32222","name":"Puerto La Libertad","precision":"3","type":"PPL"},{"awardID":"00061339","lat":"13.59833","lon":"-89.42028","name":"Tamanique","precision":"3","type":"PPL"},{"awardID":"00061339","lat":"13.30778","lon":"-87.86472","name":"Conchagua","precision":"3","type":"PPL"},{"awardID":"00061339","lat":"13.19694","lon":"-88.05444","name":"Intipuca","precision":"3","type":"PPL"},{"awardID":"00061339","lat":"13.17972","lon":"-87.6975","name":"Meanguera del Golfo","precision":"3","type":"PPL"},{"awardID":"00061339","lat":"13.58444","lon":"-87.84111","name":"Pasaquina","precision":"3","type":"PPL"},{"awardID":"00061339","lat":"13.43139","lon":"-87.96306","name":"San Alejo","precision":"3","type":"PPL"},{"awardID":"00061339","lat":"13.59278","lon":"-89.8275","name":"Acajutla","precision":"3","type":"PPL"},{"awardID":"00061339","lat":"13.84306","lon":"-90.01583","name":"San Francisco Menendez","precision":"3","type":"PPL"},{"awardID":"00061339","lat":"13.78694","lon":"-89.85722","name":"Jujutla","precision":"3","type":"PPL"},{"awardID":"00061339","lat":"13.35448","lon":"-88.94703","name":"San Luis La Herradura","precision":"3","type":"PPL"},{"awardID":"00061339","lat":"13.53333","lon":"-88.78333","name":"Tecoluca","precision":"3","type":"PPL"},{"awardID":"00061339","lat":"13.5","lon":"-88.86667","name":"Zacatecoluca","precision":"3","type":"PPLA"},{"awardID":"00061339","lat":"13.22028","lon":"-88.13861","name":"Chirilagua","precision":"3","type":"PPL"}],"title":"Integraci\u00f3n de la Biodiversidad en Pesca y Turismo"},{"id":"00057473","subnational":[{"awardID":"00057473","lat":"14.03333","lon":"-88.93333","name":"Chalatenango","precision":"3","type":"PPLA"},{"awardID":"00057473","lat":"13.67694","lon":"-89.27972","name":"La Libertad","precision":"3","type":"PPLA"},{"awardID":"00057473","lat":"13.58944","lon":"-89.28889","name":"Zaragoza, El Salvador","precision":"3","type":"PPL"},{"awardID":"00057473","lat":"13.65889","lon":"-89.18306","name":"San Marcos","precision":"4","type":"PPL"},{"awardID":"00057473","lat":"13.68935","lon":"-89.18718","name":"San Salvador","precision":"3","type":"PPLC"},{"awardID":"00057473","lat":"13.5","lon":"-88.86667","name":"Zacatecoluca","precision":"4","type":"ADM1"}],"title":"Integraci\u00f3n en Educaci\u00f3n Basica"},{"id":"00075634","subnational":[{"awardID":"00075634","lat":"13.83333","lon":"-88.91667","name":"El Salvador","precision":"9","type":"PCL"}],"title":"Joint Migration & Development Initiative II-El Salvador"},{"id":"00062852","subnational":[{"awardID":"00062852","lat":"13.83333","lon":"-88.91667","name":"El Salvador","precision":"9","type":"PCL"}],"title":"Lucha contra VIH en poblaciones vulnerables consolidado"},{"id":"00069442","subnational":[{"awardID":"00069442","lat":"13.46667","lon":"-88.98333","name":"La Paz","precision":"4","type":"ADM1"},{"awardID":"00069442","lat":"13.55","lon":"-87.9","name":"La Union","precision":"4","type":"ADM1"},{"awardID":"00069442","lat":"13.68935","lon":"-89.18718","name":"San Salvador","precision":"3","type":"PPL"},{"awardID":"00069442","lat":"13.71889","lon":"-89.72417","name":"Sonsonate","precision":"3","type":"PPLA"}],"title":"Modernizacion y Gestion de los activos estrategicos"},{"id":"00070764","subnational":[{"awardID":"00070764","lat":"13.83333","lon":"-88.91667","name":"El Salvador","precision":"9","type":"PCL"}],"title":"Optimizaci\u00f3n gasto e inversi\u00f3n social en VIH Min Salud"},{"id":"00050364","subnational":[{"awardID":"00050364","lat":"13.83333","lon":"-88.91667","name":"El Salvador","precision":"9","type":"PCL"}],"title":"Pacto por la Igualdad de G\u00e9nero"},{"id":"00069515","subnational":[{"awardID":"00069515","lat":"13.83333","lon":"-88.91667","name":"El Salvador","precision":"9","type":"PCL"},{"awardID":"00069515","lat":"13.83333","lon":"-88.91667","name":"El Salvador","precision":"9","type":"PCL"}],"title":"Plan de Eliminaci\u00f3n de los HCFC en El Salvador"},{"id":"00068999","subnational":[{"awardID":"00068999","lat":"13.83333","lon":"-88.91667","name":"El Salvador","precision":"9","type":"PCL"}],"title":"Planificacion Biodiversidad Apoyo Plan Estrategico"},{"id":"00060122","subnational":[{"awardID":"00060122","lat":"13.83333","lon":"-88.91667","name":"El Salvador","precision":"9","type":"PCL"}],"title":"PREVENCION Y CONTROL TB EN POBLACIONES VULNERABLES"},{"id":"00048860","subnational":[{"awardID":"00048860","lat":"13.83333","lon":"-88.91667","name":"El Salvador","precision":"9","type":"PCL"}],"title":"PROGRAMA DE DESARROLLO DE PROVEEDORES"},{"id":"00067984","subnational":[{"awardID":"00067984","lat":"13.83333","lon":"-88.91667","name":"El Salvador","precision":"9","type":"PCL"},{"awardID":"00067984","lat":"13.83333","lon":"-88.91667","name":"El Salvador","precision":"9","type":"PCL"},{"awardID":"00067984","lat":"13.83333","lon":"-88.91667","name":"El Salvador","precision":"9","type":"PCL"}],"title":"Programa Gobernabilidad Local"},{"id":"00059775","subnational":[{"awardID":"00059775","lat":"13.83333","lon":"-88.91667","name":"El Salvador","precision":"9","type":"PCL"}],"title":"Programa seguridad alimentaria y nutricional"},{"id":"00059195","subnational":[{"awardID":"00059195","lat":"13.68935","lon":"-89.18718","name":"San Vicente","precision":"3","type":"PPLC"},{"awardID":"00059195","lat":"13.68935","lon":"-89.18718","name":"San Vicente","precision":"3","type":"PPLC"}],"title":"Proyecto Desarrollo y Modernizacion Rural Region Central"},{"id":"00057145","subnational":[{"awardID":"00057145","lat":"13.48333","lon":"-88.18333","name":"San Miguel","precision":"3","type":"PPLA"}],"title":"PROYECTO DESARROLLO Y MODERNIZACION RURAL REGION ORIENTE"},{"id":"00060460","subnational":[{"awardID":"00060460","lat":"13.83333","lon":"-88.91667","name":"El Salvador","precision":"9","type":"PCL"}],"title":"Redes Territoriales y desarrollo humano"},{"id":"00062948","subnational":[{"awardID":"00062948","lat":"13.35","lon":"-88.45","name":"Usulutan","precision":"3","type":"PPLA"},{"awardID":"00062948","lat":"13.28333","lon":"-88.46667","name":"San Dionisio","precision":"3","type":"PPL"},{"awardID":"00062948","lat":"13.28333","lon":"-88.55","name":"Puerto El Triunfo","precision":"3","type":"PPL"},{"awardID":"00062948","lat":"13.31667","lon":"-88.58333","name":"Jiquilisco","precision":"3","type":"PPL"}],"title":"Respuesta a los da\u00f1os causados por Tormenta Tropical 12E"},{"id":"00057674","subnational":[{"awardID":"00057674","lat":"13.83333","lon":"-88.91667","name":"El Salvador","precision":"9","type":"PCL"}],"title":"Ronda de Continuaci\u00f3n de Financiamiento Fondo Global"},{"id":"00070673","subnational":[{"awardID":"00070673","lat":"13.83333","lon":"-88.91667","name":"El Salvador","precision":"9","type":"PCL"}],"title":"Seamos Productivos"},{"id":"00060623","subnational":[{"awardID":"00060623","lat":"13.83333","lon":"-88.91667","name":"El Salvador","precision":"9","type":"PCL"}],"title":"Transparencia y Accountability"},{"id":"00059340","subnational":[{"awardID":"00059340","lat":"13.83333","lon":"-88.91667","name":"El Salvador","precision":"9","type":"PCL"}],"title":"Un nuevo Contrato Social"},{"id":"00069424","subnational":[{"awardID":"00069424","lat":"13.68935","lon":"-89.18718","name":"San Salvador","precision":"3","type":"PPL"},{"awardID":"00069424","lat":"13.67694","lon":"-89.27972","name":"La Libertad","precision":"3","type":"PPLA"},{"awardID":"00069424","lat":"13.71889","lon":"-89.72417","name":"Sonsonate","precision":"3","type":"PPLA"},{"awardID":"00069424","lat":"13.99417","lon":"-89.55972","name":"Santa Ana","precision":"3","type":"PPLA"},{"awardID":"00069424","lat":"13.86667","lon":"-89.91667","name":"Ahuachapan","precision":"4","type":"ADM1"}],"title":"Voto Residencial"}]}