{"iso_num": null, "projects": [{"title": "analisis y escenarios gobernabilidad", "id": "00049968", "subnational": [{"outputID": "00061450", "output_locID": "00061450-1", "name": "El Salvador", "focus_area": "-", "lat": "13.83333", "type": "PCL", "awardID": "00049968", "lon": "-88.91667", "precision": "9", "focus_area_descr": "-"}]}, {"title": "apoyo a la direcci\u00f3n de migraci\u00f3n fase ii", "id": "00050368", "subnational": [{"outputID": "00062189", "output_locID": "00062189-1", "name": "El Salvador", "focus_area": "1", "lat": "13.83333", "type": "PCL", "awardID": "00050368", "lon": "-88.91667", "precision": "9", "focus_area_descr": "Poverty reduction & MDG achievement"}]}, {"title": "apoyo a plan internacional como receptor gfatm", "id": "00074361", "subnational": []}, {"title": "building social capital to reduce violence.", "id": "00051329", "subnational": [{"outputID": "00063857", "output_locID": "00063857-1", "name": "San Salvador", "focus_area": "2", "lat": "13.68935", "type": "PPLC", "awardID": "00051329", "lon": "-89.18718", "precision": "3", "focus_area_descr": "Democratic governance"}]}, {"title": "cerrando brechas de participaci\u00f3n electoral con el voto", "id": "00062423", "subnational": [{"outputID": "00079905", "output_locID": "00079905-1", "name": "El Salvador", "focus_area": "2", "lat": "13.83333", "type": "PCL", "awardID": "00062423", "lon": "-88.91667", "precision": "9", "focus_area_descr": "Democratic governance"}]}, {"title": "consolidacion estrategia atencion a la pobreza en es", "id": "00061663", "subnational": [{"outputID": "00078229", "output_locID": "00078229-1", "name": "El Salvador", "focus_area": "1", "lat": "13.83333", "type": "PCL", "awardID": "00061663", "lon": "-88.91667", "precision": "9", "focus_area_descr": "Poverty reduction & MDG achievement"}, {"outputID": "00082508", "output_locID": "00082508-1", "name": "Acajutla", "focus_area": "1", "lat": "13.59278", "type": "PPL", "awardID": "00061663", "lon": "-89.8275", "precision": "3", "focus_area_descr": "Poverty reduction & MDG achievement"}, {"outputID": "00082508", "output_locID": "00082508-2", "name": "Jiquilisco", "focus_area": "1", "lat": "13.31667", "type": "PPL", "awardID": "00061663", "lon": "-88.58333", "precision": "3", "focus_area_descr": "Poverty reduction & MDG achievement"}, {"outputID": "00082508", "output_locID": "00082508-3", "name": "Santa Ana", "focus_area": "1", "lat": "13.99417", "type": "PPLA", "awardID": "00061663", "lon": "-89.55972", "precision": "3", "focus_area_descr": "Poverty reduction & MDG achievement"}, {"outputID": "00082508", "output_locID": "00082508-4", "name": "Ciudad Arce", "focus_area": "1", "lat": "13.84028", "type": "PPL", "awardID": "00061663", "lon": "-89.44722", "precision": "3", "focus_area_descr": "Poverty reduction & MDG achievement"}, {"outputID": "00082508", "output_locID": "00082508-5", "name": "Colon", "focus_area": "1", "lat": "13.72667", "type": "PPL", "awardID": "00061663", "lon": "-89.36889", "precision": "3", "focus_area_descr": "Poverty reduction & MDG achievement"}, {"outputID": "00082508", "output_locID": "00082508-6", "name": "San Juan Opico", "focus_area": "1", "lat": "13.86667", "type": "ADM2", "awardID": "00061663", "lon": "-89.4", "precision": "3", "focus_area_descr": "Poverty reduction & MDG achievement"}, {"outputID": "00082508", "output_locID": "00082508-7", "name": "Acajutla", "focus_area": "1", "lat": "13.59278", "type": "PPL", "awardID": "00061663", "lon": "-89.8275", "precision": "3", "focus_area_descr": "Poverty reduction & MDG achievement"}, {"outputID": "00082508", "output_locID": "00082508-8", "name": "Sonsonate", "focus_area": "1", "lat": "13.71889", "type": "PPLA", "awardID": "00061663", "lon": "-89.72417", "precision": "3", "focus_area_descr": "Poverty reduction & MDG achievement"}, {"outputID": "00082508", "output_locID": "00082508-9", "name": "Nahuizalco", "focus_area": "1", "lat": "13.7775", "type": "PPL", "awardID": "00061663", "lon": "-89.73667", "precision": "3", "focus_area_descr": "Poverty reduction & MDG achievement"}, {"outputID": "00082508", "output_locID": "00082508-10", "name": "Izalco", "focus_area": "1", "lat": "13.81358", "type": "PPL", "awardID": "00061663", "lon": "-89.63247", "precision": "3", "focus_area_descr": "Poverty reduction & MDG achievement"}, {"outputID": "00082508", "output_locID": "00082508-11", "name": "Apopa", "focus_area": "1", "lat": "13.80722", "type": "PPL", "awardID": "00061663", "lon": "-89.17917", "precision": "3", "focus_area_descr": "Poverty reduction & MDG achievement"}, {"outputID": "00082508", "output_locID": "00082508-12", "name": "San Marcos", "focus_area": "1", "lat": "13.65889", "type": "PPL", "awardID": "00061663", "lon": "-89.18306", "precision": "3", "focus_area_descr": "Poverty reduction & MDG achievement"}, {"outputID": "00082508", "output_locID": "00082508-13", "name": "Ilopango", "focus_area": "1", "lat": "13.70167", "type": "PPL", "awardID": "00061663", "lon": "-89.10944", "precision": "3", "focus_area_descr": "Poverty reduction & MDG achievement"}, {"outputID": "00082508", "output_locID": "00082508-14", "name": "Soyapango", "focus_area": "1", "lat": "13.73472", "type": "PPL", "awardID": "00061663", "lon": "-89.15139", "precision": "3", "focus_area_descr": "Poverty reduction & MDG achievement"}, {"outputID": "00082508", "output_locID": "00082508-15", "name": "San Vicente", "focus_area": "1", "lat": "13.68935", "type": "PPL", "awardID": "00061663", "lon": "-89.18718", "precision": "3", "focus_area_descr": "Poverty reduction & MDG achievement"}, {"outputID": "00082508", "output_locID": "00082508-16", "name": "San Miguel", "focus_area": "1", "lat": "13.48333", "type": "PPLA", "awardID": "00061663", "lon": "-88.18333", "precision": "3", "focus_area_descr": "Poverty reduction & MDG achievement"}, {"outputID": "00082508", "output_locID": "00082508-17", "name": "Panchimalco", "focus_area": "1", "lat": "13.61278", "type": "PPL", "awardID": "00061663", "lon": "-89.18", "precision": "3", "focus_area_descr": "Poverty reduction & MDG achievement"}, {"outputID": "00082508", "output_locID": "00082508-18", "name": "Zacatecoluca", "focus_area": "1", "lat": "13.5", "type": "PPLA", "awardID": "00061663", "lon": "-88.86667", "precision": "3", "focus_area_descr": "Poverty reduction & MDG achievement"}, {"outputID": "00082510", "output_locID": "00082510-1", "name": "El Salvador", "focus_area": "3", "lat": "13.83333", "type": "PCL", "awardID": "00061663", "lon": "-88.91667", "precision": "9", "focus_area_descr": "Crisis prevention & recovery"}, {"outputID": "00082511", "output_locID": "00082511-1", "name": "El Salvador", "focus_area": "1", "lat": "13.83333", "type": "PCL", "awardID": "00061663", "lon": "-88.91667", "precision": "9", "focus_area_descr": "Poverty reduction & MDG achievement"}]}, {"title": "di\u00e1logo pol\u00edtico y construcci\u00f3n propuestas", "id": "00069421", "subnational": [{"outputID": "00084010", "output_locID": "00084010-1", "name": "El Salvador", "focus_area": "2", "lat": "13.83333", "type": "PCL", "awardID": "00069421", "lon": "-88.91667", "precision": "9", "focus_area_descr": "Democratic governance"}, {"outputID": "00085469", "output_locID": "00085469-1", "name": "El Salvador", "focus_area": "2", "lat": "13.83333", "type": "PCL", "awardID": "00069421", "lon": "-88.91667", "precision": "9", "focus_area_descr": "Democratic governance"}, {"outputID": "00085472", "output_locID": "00085472-1", "name": "El Salvador", "focus_area": "1", "lat": "13.83333", "type": "PCL", "awardID": "00069421", "lon": "-88.91667", "precision": "9", "focus_area_descr": "Poverty reduction & MDG achievement"}]}, {"title": "dinamizaci\u00f3n de economias locales", "id": "00059394", "subnational": [{"outputID": "00074250", "output_locID": "00074250-1", "name": "Ministerio de Obras Publicas, El Salvador", "focus_area": "1", "lat": "13.68935", "type": "PPLC", "awardID": "00059394", "lon": "-89.18718", "precision": "1", "focus_area_descr": "Poverty reduction & MDG achievement"}, {"outputID": "00074250", "output_locID": "00074250-2", "name": "La Libertad", "focus_area": "1", "lat": "13.67694", "type": "PPLA", "awardID": "00059394", "lon": "-89.27972", "precision": "3", "focus_area_descr": "Poverty reduction & MDG achievement"}, {"outputID": "00074250", "output_locID": "00074250-3", "name": "Ilopango", "focus_area": "1", "lat": "13.70167", "type": "PPL", "awardID": "00059394", "lon": "-89.10944", "precision": "3", "focus_area_descr": "Poverty reduction & MDG achievement"}, {"outputID": "00074250", "output_locID": "00074250-4", "name": "San Salvador", "focus_area": "1", "lat": "13.68935", "type": "PPLC", "awardID": "00059394", "lon": "-89.18718", "precision": "3", "focus_area_descr": "Poverty reduction & MDG achievement"}, {"outputID": "00074250", "output_locID": "00074250-5", "name": "Soyapango", "focus_area": "1", "lat": "13.73472", "type": "PPL", "awardID": "00059394", "lon": "-89.15139", "precision": "3", "focus_area_descr": "Poverty reduction & MDG achievement"}, {"outputID": "00074250", "output_locID": "00074250-6", "name": "Tamanique", "focus_area": "1", "lat": "13.59833", "type": "PPL", "awardID": "00059394", "lon": "-89.42028", "precision": "3", "focus_area_descr": "Poverty reduction & MDG achievement"}, {"outputID": "00074250", "output_locID": "00074250-7", "name": "Jayaque", "focus_area": "1", "lat": "13.67333", "type": "PPL", "awardID": "00059394", "lon": "-89.43972", "precision": "3", "focus_area_descr": "Poverty reduction & MDG achievement"}, {"outputID": "00074250", "output_locID": "00074250-8", "name": "Jayaque", "focus_area": "1", "lat": "13.67333", "type": "PPL", "awardID": "00059394", "lon": "-89.43972", "precision": "3", "focus_area_descr": "Poverty reduction & MDG achievement"}, {"outputID": "00074250", "output_locID": "00074250-9", "name": "La Paz", "focus_area": "1", "lat": "13.46667", "type": "ADM1", "awardID": "00059394", "lon": "-88.98333", "precision": "4", "focus_area_descr": "Poverty reduction & MDG achievement"}, {"outputID": "00074250", "output_locID": "00074250-10", "name": "Zacatecoluca", "focus_area": "1", "lat": "13.5", "type": "PPLA", "awardID": "00059394", "lon": "-88.86667", "precision": "3", "focus_area_descr": "Poverty reduction & MDG achievement"}, {"outputID": "00074250", "output_locID": "00074250-11", "name": "Sonsonate", "focus_area": "1", "lat": "13.71889", "type": "PPLA", "awardID": "00059394", "lon": "-89.72417", "precision": "3", "focus_area_descr": "Poverty reduction & MDG achievement"}, {"outputID": "00074250", "output_locID": "00074250-12", "name": "Ataco", "focus_area": "1", "lat": "13.87028", "type": "PPL", "awardID": "00059394", "lon": "-89.84861", "precision": "3", "focus_area_descr": "Poverty reduction & MDG achievement"}, {"outputID": "00074250", "output_locID": "00074250-13", "name": "Cabanas", "focus_area": "1", "lat": "13.86667", "type": "ADM1", "awardID": "00059394", "lon": "-88.75", "precision": "4", "focus_area_descr": "Poverty reduction & MDG achievement"}, {"outputID": "00074250", "output_locID": "00074250-14", "name": "Tejutepeque", "focus_area": "1", "lat": "13.85", "type": "PPL", "awardID": "00059394", "lon": "-88.9", "precision": "3", "focus_area_descr": "Poverty reduction & MDG achievement"}, {"outputID": "00074250", "output_locID": "00074250-15", "name": "Jutiapa", "focus_area": "1", "lat": "13.88333", "type": "PPL", "awardID": "00059394", "lon": "-88.9", "precision": "3", "focus_area_descr": "Poverty reduction & MDG achievement"}]}, {"title": "energy efficiency in public buildings", "id": "00060180", "subnational": [{"outputID": "00075672", "output_locID": "00075672-1", "name": "San Salvador", "focus_area": "3", "lat": "13.68935", "type": "PPLC", "awardID": "00060180", "lon": "-89.18718", "precision": "3", "focus_area_descr": "Crisis prevention & recovery"}, {"outputID": "00075672", "output_locID": "00075672-2", "name": "Santa Ana", "focus_area": "3", "lat": "13.99417", "type": "PPLA", "awardID": "00060180", "lon": "-89.55972", "precision": "3", "focus_area_descr": "Crisis prevention & recovery"}, {"outputID": "00075672", "output_locID": "00075672-3", "name": "Chalchuapa", "focus_area": "3", "lat": "13.98667", "type": "PPL", "awardID": "00060180", "lon": "-89.68111", "precision": "3", "focus_area_descr": "Crisis prevention & recovery"}, {"outputID": "00075672", "output_locID": "00075672-4", "name": "Sonsonate", "focus_area": "3", "lat": "13.71889", "type": "PPLA", "awardID": "00060180", "lon": "-89.72417", "precision": "3", "focus_area_descr": "Crisis prevention & recovery"}, {"outputID": "00075672", "output_locID": "00075672-5", "name": "Ilobasco", "focus_area": "3", "lat": "13.88333", "type": "ADM2", "awardID": "00060180", "lon": "-88.83333", "precision": "3", "focus_area_descr": "Crisis prevention & recovery"}, {"outputID": "00075672", "output_locID": "00075672-6", "name": "Chalchuapa", "focus_area": "3", "lat": "13.98667", "type": "PPL", "awardID": "00060180", "lon": "-89.68111", "precision": "3", "focus_area_descr": "Crisis prevention & recovery"}, {"outputID": "00075672", "output_locID": "00075672-7", "name": "Chalchuapa", "focus_area": "3", "lat": "13.98667", "type": "PPL", "awardID": "00060180", "lon": "-89.68111", "precision": "3", "focus_area_descr": "Crisis prevention & recovery"}, {"outputID": "00075672", "output_locID": "00075672-8", "name": "Ciudad Barrios", "focus_area": "3", "lat": "13.76667", "type": "PPL", "awardID": "00060180", "lon": "-88.26667", "precision": "3", "focus_area_descr": "Crisis prevention & recovery"}]}, {"title": "fortalecimiento  capacidades de gesti\u00f3n gobernabilidad", "id": "00072933", "subnational": []}, {"title": "fortalecimiento al seguro social en respuesta vih/sida", "id": "00059133", "subnational": [{"outputID": "00073852", "output_locID": "00073852-1", "name": "Instituto salvadoreno del Seguro Social", "focus_area": "1", "lat": "13.68935", "type": "PPL", "awardID": "00059133", "lon": "-89.18718", "precision": "3", "focus_area_descr": "Poverty reduction & MDG achievement"}]}, {"title": "fortalecimiento de las capacidades nacionales y locales", "id": "00050011", "subnational": [{"outputID": "00061527", "output_locID": "00061527-1", "name": "Sacayoyo", "focus_area": "2", "lat": "13.68935", "type": "PPLC", "awardID": "00050011", "lon": "-89.18718", "precision": "1", "focus_area_descr": "Democratic governance"}, {"outputID": "00061527", "output_locID": "00061527-2", "name": "Colon", "focus_area": "2", "lat": "13.72667", "type": "PPL", "awardID": "00050011", "lon": "-89.36889", "precision": "3", "focus_area_descr": "Democratic governance"}]}, {"title": "fortalecimiento del instituto de bienestar magisterial", "id": "00061024", "subnational": [{"outputID": "00077096", "output_locID": "00077096-1", "name": "Instituto Salvadoreno de Bien Estar MAgisterial", "focus_area": "1", "lat": "13.68935", "type": "PPL", "awardID": "00061024", "lon": "-89.18718", "precision": "3", "focus_area_descr": "Poverty reduction & MDG achievement"}]}, {"title": "fortalecimiento del mecanismo de coordinacion de pais", "id": "00062099", "subnational": [{"outputID": "00079376", "output_locID": "00079376-1", "name": "San Salvador", "focus_area": "1", "lat": "13.68935", "type": "PPLC", "awardID": "00062099", "lon": "-89.18718", "precision": "3", "focus_area_descr": "Poverty reduction & MDG achievement"}]}, {"title": "fortalecimiento del programa nacional de tuberculosis", "id": "00068118", "subnational": [{"outputID": "00083506", "output_locID": "00083506-1", "name": "El Salvador", "focus_area": "1", "lat": "13.83333", "type": "PCL", "awardID": "00068118", "lon": "-88.91667", "precision": "9", "focus_area_descr": "Poverty reduction & MDG achievement"}]}, {"title": "gobernabilidad y sostenibilidad de agua y saneamiento", "id": "00061325", "subnational": [{"outputID": "00077657", "output_locID": "00077657-1", "name": "Carolina", "focus_area": "3", "lat": "13.85", "type": "PPL", "awardID": "00061325", "lon": "-88.3", "precision": "3", "focus_area_descr": "Crisis prevention & recovery"}, {"outputID": "00077657", "output_locID": "00077657-2", "name": "Ciudad Barrios", "focus_area": "3", "lat": "13.76667", "type": "PPL", "awardID": "00061325", "lon": "-88.26667", "precision": "3", "focus_area_descr": "Crisis prevention & recovery"}, {"outputID": "00077657", "output_locID": "00077657-3", "name": "San Antonio", "focus_area": "3", "lat": "13.71639", "type": "PPL", "awardID": "00061325", "lon": "-89.73833", "precision": "3", "focus_area_descr": "Crisis prevention & recovery"}, {"outputID": "00077657", "output_locID": "00077657-4", "name": "San Luis de la Reina", "focus_area": "3", "lat": "13.81667", "type": "PPL", "awardID": "00061325", "lon": "-88.35", "precision": "3", "focus_area_descr": "Crisis prevention & recovery"}, {"outputID": "00077657", "output_locID": "00077657-5", "name": "Sesori", "focus_area": "3", "lat": "13.78333", "type": "ADM2", "awardID": "00061325", "lon": "-88.41667", "precision": "3", "focus_area_descr": "Crisis prevention & recovery"}, {"outputID": "00077657", "output_locID": "00077657-6", "name": "Chapeltique", "focus_area": "3", "lat": "13.63333", "type": "PPL", "awardID": "00061325", "lon": "-88.26667", "precision": "3", "focus_area_descr": "Crisis prevention & recovery"}, {"outputID": "00077657", "output_locID": "00077657-7", "name": "El Salvador", "focus_area": "3", "lat": "13.83333", "type": "PCL", "awardID": "00061325", "lon": "-88.91667", "precision": "9", "focus_area_descr": "Crisis prevention & recovery"}, {"outputID": "00077657", "output_locID": "00077657-8", "name": "Jocoaitique", "focus_area": "3", "lat": "13.96667", "type": "ADM2", "awardID": "00061325", "lon": "-88.15", "precision": "3", "focus_area_descr": "Crisis prevention & recovery"}, {"outputID": "00077657", "output_locID": "00077657-9", "name": "Villa El Rosario", "focus_area": "3", "lat": "13.86667", "type": "PPL", "awardID": "00061325", "lon": "-88.21667", "precision": "3", "focus_area_descr": "Crisis prevention & recovery"}, {"outputID": "00077657", "output_locID": "00077657-10", "name": "Arambala", "focus_area": "3", "lat": "13.91667", "type": "PPL", "awardID": "00061325", "lon": "-88.13333", "precision": "3", "focus_area_descr": "Crisis prevention & recovery"}, {"outputID": "00077657", "output_locID": "00077657-11", "name": "Perquin", "focus_area": "3", "lat": "13.95", "type": "PPL", "awardID": "00061325", "lon": "-88.16667", "precision": "3", "focus_area_descr": "Crisis prevention & recovery"}, {"outputID": "00077657", "output_locID": "00077657-12", "name": "San Fernando", "focus_area": "3", "lat": "14.3", "type": "PPL", "awardID": "00061325", "lon": "-89.03333", "precision": "3", "focus_area_descr": "Crisis prevention & recovery"}, {"outputID": "00077657", "output_locID": "00077657-13", "name": "Torola", "focus_area": "3", "lat": "13.91667", "type": "PPL", "awardID": "00061325", "lon": "-88.23333", "precision": "3", "focus_area_descr": "Crisis prevention & recovery"}, {"outputID": "00077657", "output_locID": "00077657-14", "name": "Cacaopera", "focus_area": "3", "lat": "13.76667", "type": "PPL", "awardID": "00061325", "lon": "-88.08333", "precision": "3", "focus_area_descr": "Crisis prevention & recovery"}, {"outputID": "00077657", "output_locID": "00077657-15", "name": "Corinto", "focus_area": "3", "lat": "13.81083", "type": "PPL", "awardID": "00061325", "lon": "-87.97139", "precision": "3", "focus_area_descr": "Crisis prevention & recovery"}, {"outputID": "00077657", "output_locID": "00077657-16", "name": "Joateca", "focus_area": "3", "lat": "13.9", "type": "PPL", "awardID": "00061325", "lon": "-88.05", "precision": "3", "focus_area_descr": "Crisis prevention & recovery"}]}, {"title": "informes sobre desarrollo humano el salvador", "id": "00050369", "subnational": [{"outputID": "00062190", "output_locID": "00062190-1", "name": "El Salvador", "focus_area": "1", "lat": "13.83333", "type": "PCL", "awardID": "00050369", "lon": "-88.91667", "precision": "9", "focus_area_descr": "Poverty reduction & MDG achievement"}]}, {"title": "integraci\u00f3n de la biodiversidad en pesca y turismo", "id": "00061339", "subnational": [{"outputID": "00077678", "output_locID": "00077678-1", "name": "Jiquilisco", "focus_area": "3", "lat": "13.31667", "type": "PPL", "awardID": "00061339", "lon": "-88.58333", "precision": "3", "focus_area_descr": "Crisis prevention & recovery"}, {"outputID": "00077678", "output_locID": "00077678-2", "name": "Puerto El Triunfo", "focus_area": "3", "lat": "13.28333", "type": "PPL", "awardID": "00061339", "lon": "-88.55", "precision": "3", "focus_area_descr": "Crisis prevention & recovery"}, {"outputID": "00077678", "output_locID": "00077678-3", "name": "San Dionisio", "focus_area": "3", "lat": "13.28333", "type": "PPL", "awardID": "00061339", "lon": "-88.46667", "precision": "3", "focus_area_descr": "Crisis prevention & recovery"}, {"outputID": "00077678", "output_locID": "00077678-4", "name": "Usulutan", "focus_area": "3", "lat": "13.35", "type": "PPLA", "awardID": "00061339", "lon": "-88.45", "precision": "3", "focus_area_descr": "Crisis prevention & recovery"}, {"outputID": "00077678", "output_locID": "00077678-5", "name": "Puerto La Libertad", "focus_area": "3", "lat": "13.48833", "type": "PPL", "awardID": "00061339", "lon": "-89.32222", "precision": "3", "focus_area_descr": "Crisis prevention & recovery"}, {"outputID": "00077678", "output_locID": "00077678-6", "name": "Tamanique", "focus_area": "3", "lat": "13.59833", "type": "PPL", "awardID": "00061339", "lon": "-89.42028", "precision": "3", "focus_area_descr": "Crisis prevention & recovery"}, {"outputID": "00077678", "output_locID": "00077678-7", "name": "Conchagua", "focus_area": "3", "lat": "13.30778", "type": "PPL", "awardID": "00061339", "lon": "-87.86472", "precision": "3", "focus_area_descr": "Crisis prevention & recovery"}, {"outputID": "00077678", "output_locID": "00077678-8", "name": "Intipuca", "focus_area": "3", "lat": "13.19694", "type": "PPL", "awardID": "00061339", "lon": "-88.05444", "precision": "3", "focus_area_descr": "Crisis prevention & recovery"}, {"outputID": "00077678", "output_locID": "00077678-9", "name": "Meanguera del Golfo", "focus_area": "3", "lat": "13.17972", "type": "PPL", "awardID": "00061339", "lon": "-87.6975", "precision": "3", "focus_area_descr": "Crisis prevention & recovery"}, {"outputID": "00077678", "output_locID": "00077678-10", "name": "Pasaquina", "focus_area": "3", "lat": "13.58444", "type": "PPL", "awardID": "00061339", "lon": "-87.84111", "precision": "3", "focus_area_descr": "Crisis prevention & recovery"}, {"outputID": "00077678", "output_locID": "00077678-11", "name": "San Alejo", "focus_area": "3", "lat": "13.43139", "type": "PPL", "awardID": "00061339", "lon": "-87.96306", "precision": "3", "focus_area_descr": "Crisis prevention & recovery"}, {"outputID": "00077678", "output_locID": "00077678-12", "name": "Acajutla", "focus_area": "3", "lat": "13.59278", "type": "PPL", "awardID": "00061339", "lon": "-89.8275", "precision": "3", "focus_area_descr": "Crisis prevention & recovery"}, {"outputID": "00077678", "output_locID": "00077678-13", "name": "San Francisco Menendez", "focus_area": "3", "lat": "13.84306", "type": "PPL", "awardID": "00061339", "lon": "-90.01583", "precision": "3", "focus_area_descr": "Crisis prevention & recovery"}, {"outputID": "00077678", "output_locID": "00077678-14", "name": "Jujutla", "focus_area": "3", "lat": "13.78694", "type": "PPL", "awardID": "00061339", "lon": "-89.85722", "precision": "3", "focus_area_descr": "Crisis prevention & recovery"}, {"outputID": "00077678", "output_locID": "00077678-15", "name": "San Luis La Herradura", "focus_area": "3", "lat": "13.35448", "type": "PPL", "awardID": "00061339", "lon": "-88.94703", "precision": "3", "focus_area_descr": "Crisis prevention & recovery"}, {"outputID": "00077678", "output_locID": "00077678-16", "name": "Tecoluca", "focus_area": "3", "lat": "13.53333", "type": "PPL", "awardID": "00061339", "lon": "-88.78333", "precision": "3", "focus_area_descr": "Crisis prevention & recovery"}, {"outputID": "00077678", "output_locID": "00077678-17", "name": "Zacatecoluca", "focus_area": "3", "lat": "13.5", "type": "PPLA", "awardID": "00061339", "lon": "-88.86667", "precision": "3", "focus_area_descr": "Crisis prevention & recovery"}, {"outputID": "00077678", "output_locID": "00077678-18", "name": "Chirilagua", "focus_area": "3", "lat": "13.22028", "type": "PPL", "awardID": "00061339", "lon": "-88.13861", "precision": "3", "focus_area_descr": "Crisis prevention & recovery"}]}, {"title": "lucha contra vih en poblaciones vulnerables consolidado", "id": "00062852", "subnational": [{"outputID": "00080224", "output_locID": "00080224-1", "name": "El Salvador", "focus_area": "1", "lat": "13.83333", "type": "PCL", "awardID": "00062852", "lon": "-88.91667", "precision": "9", "focus_area_descr": "Poverty reduction & MDG achievement"}]}, {"title": "modernizacion y gestion de los activos estrategicos", "id": "00069442", "subnational": [{"outputID": "00084021", "output_locID": "00084021-1", "name": "La Paz", "focus_area": "1", "lat": "13.46667", "type": "ADM1", "awardID": "00069442", "lon": "-88.98333", "precision": "4", "focus_area_descr": "Poverty reduction & MDG achievement"}, {"outputID": "00084021", "output_locID": "00084021-2", "name": "La Union", "focus_area": "1", "lat": "13.55", "type": "ADM1", "awardID": "00069442", "lon": "-87.9", "precision": "4", "focus_area_descr": "Poverty reduction & MDG achievement"}, {"outputID": "00084021", "output_locID": "00084021-3", "name": "San Salvador", "focus_area": "1", "lat": "13.68935", "type": "PPL", "awardID": "00069442", "lon": "-89.18718", "precision": "3", "focus_area_descr": "Poverty reduction & MDG achievement"}, {"outputID": "00084021", "output_locID": "00084021-4", "name": "Sonsonate", "focus_area": "1", "lat": "13.71889", "type": "PPLA", "awardID": "00069442", "lon": "-89.72417", "precision": "3", "focus_area_descr": "Poverty reduction & MDG achievement"}]}, {"title": "optimizaci\u00f3n gasto e inversi\u00f3n social en vih min salud", "id": "00070764", "subnational": [{"outputID": "00084597", "output_locID": "00084597-1", "name": "El Salvador", "focus_area": "1", "lat": "13.83333", "type": "PCL", "awardID": "00070764", "lon": "-88.91667", "precision": "9", "focus_area_descr": "Poverty reduction & MDG achievement"}]}, {"title": "plan eliminaci\u00f3n de hidroclorofluorocarbonos el salvador", "id": "00069515", "subnational": [{"outputID": "00084054", "output_locID": "00084054-1", "name": "El Salvador", "focus_area": "3", "lat": "13.83333", "type": "PCL", "awardID": "00069515", "lon": "-88.91667", "precision": "9", "focus_area_descr": "Crisis prevention & recovery"}, {"outputID": "00084055", "output_locID": "00084055-1", "name": "El Salvador", "focus_area": "3", "lat": "13.83333", "type": "PCL", "awardID": "00069515", "lon": "-88.91667", "precision": "9", "focus_area_descr": "Crisis prevention & recovery"}]}, {"title": "planificacion biodiversidad apoyo plan estrategico", "id": "00068999", "subnational": [{"outputID": "00083836", "output_locID": "00083836-1", "name": "El Salvador", "focus_area": "3", "lat": "13.83333", "type": "PCL", "awardID": "00068999", "lon": "-88.91667", "precision": "9", "focus_area_descr": "Crisis prevention & recovery"}]}, {"title": "preparaci\u00f3n del proyecto humedales", "id": "00080556", "subnational": []}, {"title": "programa de desarrollo de proveedores", "id": "00048860", "subnational": [{"outputID": "00059206", "output_locID": "00059206-1", "name": "El Salvador", "focus_area": "1", "lat": "13.83333", "type": "PCL", "awardID": "00048860", "lon": "-88.91667", "precision": "9", "focus_area_descr": "Poverty reduction & MDG achievement"}]}, {"title": "programa gobernabilidad local", "id": "00067984", "subnational": [{"outputID": "00083438", "output_locID": "00083438-1", "name": "El Salvador", "focus_area": "2", "lat": "13.83333", "type": "PCL", "awardID": "00067984", "lon": "-88.91667", "precision": "9", "focus_area_descr": "Democratic governance"}, {"outputID": "00084274", "output_locID": "00084274-1", "name": "El Salvador", "focus_area": "2", "lat": "13.83333", "type": "PCL", "awardID": "00067984", "lon": "-88.91667", "precision": "9", "focus_area_descr": "Democratic governance"}, {"outputID": "00084275", "output_locID": "00084275-1", "name": "El Salvador", "focus_area": "2", "lat": "13.83333", "type": "PCL", "awardID": "00067984", "lon": "-88.91667", "precision": "9", "focus_area_descr": "Democratic governance"}]}, {"title": "proyecto desarrollo y modernizacion rural region central", "id": "00059195", "subnational": [{"outputID": "00073968", "output_locID": "00073968-1", "name": "San Vicente", "focus_area": "1", "lat": "13.68935", "type": "PPLC", "awardID": "00059195", "lon": "-89.18718", "precision": "3", "focus_area_descr": "Poverty reduction & MDG achievement"}, {"outputID": "00073968", "output_locID": "00073968-2", "name": "San Vicente", "focus_area": "1", "lat": "13.68935", "type": "PPLC", "awardID": "00059195", "lon": "-89.18718", "precision": "3", "focus_area_descr": "Poverty reduction & MDG achievement"}]}, {"title": "proyecto desarrollo y modernizacion rural region oriente", "id": "00057145", "subnational": [{"outputID": "00070494", "output_locID": "00070494-1", "name": "San Miguel", "focus_area": "1", "lat": "13.48333", "type": "PPLA", "awardID": "00057145", "lon": "-88.18333", "precision": "3", "focus_area_descr": "Poverty reduction & MDG achievement"}]}, {"title": "redes territoriales y desarrollo humano", "id": "00060460", "subnational": [{"outputID": "00076139", "output_locID": "00076139-1", "name": "El Salvador", "focus_area": "1", "lat": "13.83333", "type": "PCL", "awardID": "00060460", "lon": "-88.91667", "precision": "9", "focus_area_descr": "Poverty reduction & MDG achievement"}]}, {"title": "ronda de continuaci\u00f3n de financiamiento fondo global", "id": "00057674", "subnational": [{"outputID": "00071357", "output_locID": "00071357-1", "name": "El Salvador", "focus_area": "-", "lat": "13.83333", "type": "PCL", "awardID": "00057674", "lon": "-88.91667", "precision": "9", "focus_area_descr": "-"}]}, {"title": "seamos productivos", "id": "00070673", "subnational": [{"outputID": "00084527", "output_locID": "00084527-1", "name": "El Salvador", "focus_area": "1", "lat": "13.83333", "type": "PCL", "awardID": "00070673", "lon": "-88.91667", "precision": "9", "focus_area_descr": "Poverty reduction & MDG achievement"}]}, {"title": "transparencia y accountability", "id": "00060623", "subnational": [{"outputID": "00077646", "output_locID": "00077646-1", "name": "El Salvador", "focus_area": "2", "lat": "13.83333", "type": "PCL", "awardID": "00060623", "lon": "-88.91667", "precision": "9", "focus_area_descr": "Democratic governance"}]}, {"title": "un nuevo contrato social", "id": "00059340", "subnational": [{"outputID": "00074175", "output_locID": "00074175-1", "name": "El Salvador", "focus_area": "2", "lat": "13.83333", "type": "PCL", "awardID": "00059340", "lon": "-88.91667", "precision": "9", "focus_area_descr": "Democratic governance"}]}, {"title": "voto residencial", "id": "00069424", "subnational": [{"outputID": "00084012", "output_locID": "00084012-1", "name": "San Salvador", "focus_area": "2", "lat": "13.68935", "type": "PPL", "awardID": "00069424", "lon": "-89.18718", "precision": "3", "focus_area_descr": "Democratic governance"}, {"outputID": "00084012", "output_locID": "00084012-2", "name": "La Libertad", "focus_area": "2", "lat": "13.67694", "type": "PPLA", "awardID": "00069424", "lon": "-89.27972", "precision": "3", "focus_area_descr": "Democratic governance"}, {"outputID": "00084012", "output_locID": "00084012-3", "name": "Sonsonate", "focus_area": "2", "lat": "13.71889", "type": "PPLA", "awardID": "00069424", "lon": "-89.72417", "precision": "3", "focus_area_descr": "Democratic governance"}, {"outputID": "00084012", "output_locID": "00084012-4", "name": "Santa Ana", "focus_area": "2", "lat": "13.99417", "type": "PPLA", "awardID": "00069424", "lon": "-89.55972", "precision": "3", "focus_area_descr": "Democratic governance"}, {"outputID": "00084012", "output_locID": "00084012-5", "name": "Ahuachapan", "focus_area": "2", "lat": "13.86667", "type": "ADM1", "awardID": "00069424", "lon": "-89.91667", "precision": "4", "focus_area_descr": "Democratic governance"}]}, {"title": "asentamientos urbanos productivos", "id": "00057273", "subnational": [{"outputID": "00070692", "output_locID": "00070692-1", "name": "La Libertad", "focus_area": "1", "lat": "13.67694", "type": "PPLA", "awardID": "00057273", "lon": "-89.27972", "precision": "3", "focus_area_descr": "Poverty reduction & MDG achievement"}, {"outputID": "00070692", "output_locID": "00070692-2", "name": "Santa Tecla", "focus_area": "1", "lat": "13.67694", "type": "PPLA", "awardID": "00057273", "lon": "-89.27972", "precision": "3", "focus_area_descr": "Poverty reduction & MDG achievement"}, {"outputID": "00070692", "output_locID": "00070692-3", "name": "San Salvador", "focus_area": "1", "lat": "13.68935", "type": "PPL", "awardID": "00057273", "lon": "-89.18718", "precision": "3", "focus_area_descr": "Poverty reduction & MDG achievement"}, {"outputID": "00070692", "output_locID": "00070692-4", "name": "Apopa", "focus_area": "1", "lat": "13.80722", "type": "PPL", "awardID": "00057273", "lon": "-89.17917", "precision": "3", "focus_area_descr": "Poverty reduction & MDG achievement"}]}, {"title": "atenci\u00f3n a la pobreza y cumplimiento objetivos milenio", "id": "00048066", "subnational": [{"outputID": "00058053", "output_locID": "00058053-1", "name": "El Salvador", "focus_area": "1", "lat": "13.83333", "type": "PCL", "awardID": "00048066", "lon": "-88.91667", "precision": "9", "focus_area_descr": "Poverty reduction & MDG achievement"}]}, {"title": "fase ii del componente vih/sida del fondo mundial", "id": "00045522", "subnational": [{"outputID": "00053790", "output_locID": "00053790-1", "name": "El Salvador", "focus_area": "2", "lat": "13.83333", "type": "PCL", "awardID": "00045522", "lon": "-88.91667", "precision": "9", "focus_area_descr": "Democratic governance"}]}, {"title": "hacia la participaci\u00f3n pol\u00edtica de las mujeres", "id": "00050253", "subnational": [{"outputID": "00061981", "output_locID": "00061981-1", "name": "El Salvador", "focus_area": "-", "lat": "13.83333", "type": "PCL", "awardID": "00050253", "lon": "-88.91667", "precision": "9", "focus_area_descr": "-"}]}, {"title": "integraci\u00f3n en educaci\u00f3n basica", "id": "00057473", "subnational": [{"outputID": "00071021", "output_locID": "00071021-1", "name": "Chalatenango", "focus_area": "2", "lat": "14.03333", "type": "PPLA", "awardID": "00057473", "lon": "-88.93333", "precision": "3", "focus_area_descr": "Democratic governance"}, {"outputID": "00071021", "output_locID": "00071021-2", "name": "La Libertad", "focus_area": "2", "lat": "13.67694", "type": "PPLA", "awardID": "00057473", "lon": "-89.27972", "precision": "3", "focus_area_descr": "Democratic governance"}, {"outputID": "00071021", "output_locID": "00071021-3", "name": "Zaragoza, El Salvador", "focus_area": "2", "lat": "13.58944", "type": "PPL", "awardID": "00057473", "lon": "-89.28889", "precision": "3", "focus_area_descr": "Democratic governance"}, {"outputID": "00071021", "output_locID": "00071021-4", "name": "San Marcos", "focus_area": "2", "lat": "13.65889", "type": "PPL", "awardID": "00057473", "lon": "-89.18306", "precision": "4", "focus_area_descr": "Democratic governance"}, {"outputID": "00071021", "output_locID": "00071021-5", "name": "San Salvador", "focus_area": "2", "lat": "13.68935", "type": "PPLC", "awardID": "00057473", "lon": "-89.18718", "precision": "3", "focus_area_descr": "Democratic governance"}, {"outputID": "00071021", "output_locID": "00071021-6", "name": "Zacatecoluca", "focus_area": "2", "lat": "13.5", "type": "ADM1", "awardID": "00057473", "lon": "-88.86667", "precision": "4", "focus_area_descr": "Democratic governance"}]}, {"title": "joint migration & development initiative ii-el salvador", "id": "00075634", "subnational": [{"outputID": "00087428", "output_locID": "00087428-1", "name": "El Salvador", "focus_area": "1", "lat": "13.83333", "type": "PCL", "awardID": "00075634", "lon": "-88.91667", "precision": "9", "focus_area_descr": "Poverty reduction & MDG achievement"}]}, {"title": "pacto por la igualdad de g\u00e9nero", "id": "00050364", "subnational": [{"outputID": "00062185", "output_locID": "00062185-1", "name": "El Salvador", "focus_area": "2", "lat": "13.83333", "type": "PCL", "awardID": "00050364", "lon": "-88.91667", "precision": "9", "focus_area_descr": "Democratic governance"}]}, {"title": "prevencion y control tb en poblaciones vulnerables", "id": "00060122", "subnational": [{"outputID": "00075553", "output_locID": "00075553-1", "name": "El Salvador", "focus_area": "1", "lat": "13.83333", "type": "PCL", "awardID": "00060122", "lon": "-88.91667", "precision": "9", "focus_area_descr": "Poverty reduction & MDG achievement"}]}, {"title": "programa seguridad alimentaria y nutricional", "id": "00059775", "subnational": [{"outputID": "00074924", "output_locID": "00074924-1", "name": "El Salvador", "focus_area": "1", "lat": "13.83333", "type": "PCL", "awardID": "00059775", "lon": "-88.91667", "precision": "9", "focus_area_descr": "Poverty reduction & MDG achievement"}]}, {"title": "respuesta a los da\u00f1os causados por tormenta tropical 12e", "id": "00062948", "subnational": [{"outputID": "00080265", "output_locID": "00080265-1", "name": "Usulutan", "focus_area": "3", "lat": "13.35", "type": "PPLA", "awardID": "00062948", "lon": "-88.45", "precision": "3", "focus_area_descr": "Crisis prevention & recovery"}, {"outputID": "00080265", "output_locID": "00080265-2", "name": "San Dionisio", "focus_area": "3", "lat": "13.28333", "type": "PPL", "awardID": "00062948", "lon": "-88.46667", "precision": "3", "focus_area_descr": "Crisis prevention & recovery"}, {"outputID": "00080265", "output_locID": "00080265-3", "name": "Puerto El Triunfo", "focus_area": "3", "lat": "13.28333", "type": "PPL", "awardID": "00062948", "lon": "-88.55", "precision": "3", "focus_area_descr": "Crisis prevention & recovery"}, {"outputID": "00080265", "output_locID": "00080265-4", "name": "Jiquilisco", "focus_area": "3", "lat": "13.31667", "type": "PPL", "awardID": "00062948", "lon": "-88.58333", "precision": "3", "focus_area_descr": "Crisis prevention & recovery"}]}, {"title": "fomento a la seguridad ciudadana sonsonate.", "id": "00047610", "subnational": []}, {"title": "fondo global vih ronda 7", "id": "00050738", "subnational": [{"outputID": "00062805", "output_locID": "00062805-1", "name": "El Salvador", "focus_area": "-", "lat": "13.83333", "type": "PCL", "awardID": "00050738", "lon": "-88.91667", "precision": "9", "focus_area_descr": "-"}]}, {"title": "fortalecimiento para la gestion de riesgo", "id": "00047464", "subnational": [{"outputID": "00057021", "output_locID": "00057021-1", "name": "El Salvador", "focus_area": "-", "lat": "13.83333", "type": "PCL", "awardID": "00047464", "lon": "-88.91667", "precision": "9", "focus_area_descr": "-"}]}, {"title": "human development & migration in el salvador", "id": "00048926", "subnational": [{"outputID": "00059318", "output_locID": "00059318-1", "name": "El Salvador", "focus_area": "-", "lat": "13.83333", "type": "PCL", "awardID": "00048926", "lon": "-88.91667", "precision": "9", "focus_area_descr": "-"}, {"outputID": "00059320", "output_locID": "00059320-1", "name": "El Salvador", "focus_area": "-", "lat": "13.83333", "type": "PCL", "awardID": "00048926", "lon": "-88.91667", "precision": "9", "focus_area_descr": "-"}, {"outputID": "00059321", "output_locID": "00059321-1", "name": "El Salvador", "focus_area": "-", "lat": "13.83333", "type": "PCL", "awardID": "00048926", "lon": "-88.91667", "precision": "9", "focus_area_descr": "-"}]}, {"title": "management plan", "id": "00042509", "subnational": []}, {"title": "plan implementacion compuestos organicos persistente", "id": "00043844", "subnational": [{"outputID": "00051339", "output_locID": "00051339-1", "name": "El Salvador", "focus_area": "-", "lat": "13.83333", "type": "PCL", "awardID": "00043844", "lon": "-88.91667", "precision": "9", "focus_area_descr": "-"}]}, {"title": "programa reconstrucci\u00f3n y modernizacion rural occidente", "id": "00012403", "subnational": []}, {"title": "segunda comunicaci\u00f3n cambio climatico", "id": "00044453", "subnational": [{"outputID": "00052272", "output_locID": "00052272-1", "name": "El Salvador", "focus_area": "-", "lat": "13.83333", "type": "PCL", "awardID": "00044453", "lon": "-88.91667", "precision": "9", "focus_area_descr": "-"}]}, {"title": "acceso agua potable san francisco gotera", "id": "00012408", "subnational": []}, {"title": "apoyo a la formulaci\u00f3n de pol\u00edticas p\u00fablicas", "id": "00046458", "subnational": []}, {"title": "asistencia al instituto salvadore\u00f1o del seguro social", "id": "00036748", "subnational": []}, {"title": "biodiversidad pesca y turismo", "id": "00057039", "subnational": []}, {"title": "ciudad segura para convivir", "id": "00057928", "subnational": []}, {"title": "consejo economico social i", "id": "00056902", "subnational": []}, {"title": "fortalecimiento de capacidades nacionales", "id": "00050082", "subnational": []}, {"title": "mdg based planning", "id": "00057254", "subnational": []}, {"title": "plan manejo fase terminal clorofluorocarbono", "id": "00049560", "subnational": []}], "op_unit": "SLV"}