{"iso_num": null, "projects": [{"title": "apoyo a la direcci\u00f3n de migraci\u00f3n fase ii", "id": "00050368", "subnational": [{"outputID": "00062189", "output_locID": "00062189-1", "name": "Republic of El Salvador", "focus_area": "3", "lat": "13.833330", "type": "PCLI", "awardID": "00050368", "lon": "-88.916670", "precision": "1", "focus_area_descr": "Responsive Institutions"}]}, {"title": "proyecto desarrollo y modernizacion rural region oriente", "id": "00057145", "subnational": [{"outputID": "00070494", "output_locID": "00070494-1", "name": "San Miguel", "focus_area": "1", "lat": "13.483330", "type": "PPLA", "awardID": "00057145", "lon": "-88.183330", "precision": "1", "focus_area_descr": "Inclusive  Sustainable Growth"}]}, {"title": "proyecto desarrollo y modernizacion rural region central", "id": "00059195", "subnational": [{"outputID": "00073968", "output_locID": "00073968-1", "name": "San Salvador", "focus_area": "1", "lat": "13.689350", "type": "PPLC", "awardID": "00059195", "lon": "-89.187180", "precision": "1", "focus_area_descr": "Inclusive  Sustainable Growth"}, {"outputID": "00091895", "output_locID": "00091895-1", "name": "San Salvador", "focus_area": "1", "lat": "13.689350", "type": "PPLC", "awardID": "00059195", "lon": "-89.187180", "precision": "1", "focus_area_descr": "Inclusive  Sustainable Growth"}]}, {"title": "dinamizaci\u00f3n de economias locales", "id": "00059394", "subnational": [{"outputID": "00074250", "output_locID": "00074250-1", "name": "Zacatecoluca", "focus_area": "1", "lat": "13.500000", "type": "PPLA", "awardID": "00059394", "lon": "-88.866670", "precision": "1", "focus_area_descr": "Inclusive  Sustainable Growth"}, {"outputID": "00074250", "output_locID": "00074250-2", "name": "Tejutepeque", "focus_area": "1", "lat": "13.850000", "type": "PPL", "awardID": "00059394", "lon": "-88.900000", "precision": "1", "focus_area_descr": "Inclusive  Sustainable Growth"}, {"outputID": "00074250", "output_locID": "00074250-3", "name": "Tamanique", "focus_area": "1", "lat": "13.598330", "type": "PPL", "awardID": "00059394", "lon": "-89.420280", "precision": "1", "focus_area_descr": "Inclusive  Sustainable Growth"}, {"outputID": "00074250", "output_locID": "00074250-4", "name": "Soyapango", "focus_area": "1", "lat": "13.710240", "type": "PPL", "awardID": "00059394", "lon": "-89.139890", "precision": "1", "focus_area_descr": "Inclusive  Sustainable Growth"}, {"outputID": "00074250", "output_locID": "00074250-5", "name": "Sonsonate", "focus_area": "1", "lat": "13.718890", "type": "PPLA", "awardID": "00059394", "lon": "-89.724170", "precision": "1", "focus_area_descr": "Inclusive  Sustainable Growth"}, {"outputID": "00074250", "output_locID": "00074250-6", "name": "San Salvador", "focus_area": "1", "lat": "13.689350", "type": "PPLC", "awardID": "00059394", "lon": "-89.187180", "precision": "1", "focus_area_descr": "Inclusive  Sustainable Growth"}, {"outputID": "00074250", "output_locID": "00074250-7", "name": "San Salvador", "focus_area": "1", "lat": "13.689350", "type": "PPLC", "awardID": "00059394", "lon": "-89.187180", "precision": "1", "focus_area_descr": "Inclusive  Sustainable Growth"}, {"outputID": "00074250", "output_locID": "00074250-8", "name": "Departamento de La Paz", "focus_area": "1", "lat": "13.466670", "type": "ADM1", "awardID": "00059394", "lon": "-88.983330", "precision": "1", "focus_area_descr": "Inclusive  Sustainable Growth"}, {"outputID": "00074250", "output_locID": "00074250-9", "name": "Departamento de La Libertad", "focus_area": "1", "lat": "13.750000", "type": "ADM1", "awardID": "00059394", "lon": "-89.383330", "precision": "1", "focus_area_descr": "Inclusive  Sustainable Growth"}, {"outputID": "00074250", "output_locID": "00074250-10", "name": "Jutiapa", "focus_area": "1", "lat": "13.883330", "type": "PPL", "awardID": "00059394", "lon": "-88.900000", "precision": "1", "focus_area_descr": "Inclusive  Sustainable Growth"}, {"outputID": "00074250", "output_locID": "00074250-11", "name": "Jayaque", "focus_area": "1", "lat": "13.673330", "type": "PPL", "awardID": "00059394", "lon": "-89.439720", "precision": "1", "focus_area_descr": "Inclusive  Sustainable Growth"}, {"outputID": "00074250", "output_locID": "00074250-12", "name": "Ilopango", "focus_area": "1", "lat": "13.701670", "type": "PPL", "awardID": "00059394", "lon": "-89.109440", "precision": "1", "focus_area_descr": "Inclusive  Sustainable Growth"}, {"outputID": "00074250", "output_locID": "00074250-13", "name": "Concepci\u00f3n de Ataco", "focus_area": "1", "lat": "13.870280", "type": "PPL", "awardID": "00059394", "lon": "-89.848610", "precision": "1", "focus_area_descr": "Inclusive  Sustainable Growth"}, {"outputID": "00074250", "output_locID": "00074250-14", "name": "Departamento de Caba\u00f1as", "focus_area": "1", "lat": "13.866670", "type": "ADM1", "awardID": "00059394", "lon": "-88.750000", "precision": "1", "focus_area_descr": "Inclusive  Sustainable Growth"}]}, {"title": "redes territoriales y desarrollo humano", "id": "00060460", "subnational": []}, {"title": "fortalecimiento del instituto de bienestar magisterial", "id": "00061024", "subnational": [{"outputID": "00077096", "output_locID": "00077096-1", "name": "San Salvador", "focus_area": "3", "lat": "13.689350", "type": "PPLC", "awardID": "00061024", "lon": "-89.187180", "precision": "1", "focus_area_descr": "Responsive Institutions"}]}, {"title": "consolidacion estrategia atencion a la pobreza en es", "id": "00061663", "subnational": [{"outputID": "00078229", "output_locID": "00078229-1", "name": "Republic of El Salvador", "focus_area": "1", "lat": "13.833330", "type": "PCLI", "awardID": "00061663", "lon": "-88.916670", "precision": "1", "focus_area_descr": "Inclusive  Sustainable Growth"}, {"outputID": "00082508", "output_locID": "00082508-1", "name": "Zacatecoluca", "focus_area": "1", "lat": "13.500000", "type": "PPLA", "awardID": "00061663", "lon": "-88.866670", "precision": "1", "focus_area_descr": "Inclusive  Sustainable Growth"}, {"outputID": "00082508", "output_locID": "00082508-2", "name": "Soyapango", "focus_area": "1", "lat": "13.710240", "type": "PPL", "awardID": "00061663", "lon": "-89.139890", "precision": "1", "focus_area_descr": "Inclusive  Sustainable Growth"}, {"outputID": "00082508", "output_locID": "00082508-3", "name": "Sonsonate", "focus_area": "1", "lat": "13.718890", "type": "PPLA", "awardID": "00061663", "lon": "-89.724170", "precision": "1", "focus_area_descr": "Inclusive  Sustainable Growth"}, {"outputID": "00082508", "output_locID": "00082508-4", "name": "San Vicente", "focus_area": "1", "lat": "14.150000", "type": "PPL", "awardID": "00061663", "lon": "-89.666670", "precision": "1", "focus_area_descr": "Inclusive  Sustainable Growth"}, {"outputID": "00082508", "output_locID": "00082508-5", "name": "Santa Ana", "focus_area": "1", "lat": "13.994170", "type": "PPLA", "awardID": "00061663", "lon": "-89.559720", "precision": "1", "focus_area_descr": "Inclusive  Sustainable Growth"}, {"outputID": "00082508", "output_locID": "00082508-6", "name": "San Miguel", "focus_area": "1", "lat": "13.483330", "type": "PPLA", "awardID": "00061663", "lon": "-88.183330", "precision": "1", "focus_area_descr": "Inclusive  Sustainable Growth"}, {"outputID": "00082508", "output_locID": "00082508-7", "name": "San Marcos", "focus_area": "1", "lat": "13.783060", "type": "PPL", "awardID": "00061663", "lon": "-90.116390", "precision": "1", "focus_area_descr": "Inclusive  Sustainable Growth"}, {"outputID": "00082508", "output_locID": "00082508-8", "name": "Distrito de San Juan Opico", "focus_area": "1", "lat": "13.866670", "type": "ADM2", "awardID": "00061663", "lon": "-89.400000", "precision": "1", "focus_area_descr": "Inclusive  Sustainable Growth"}, {"outputID": "00082508", "output_locID": "00082508-9", "name": "Panchimalco", "focus_area": "1", "lat": "13.612780", "type": "PPL", "awardID": "00061663", "lon": "-89.180000", "precision": "1", "focus_area_descr": "Inclusive  Sustainable Growth"}, {"outputID": "00082508", "output_locID": "00082508-10", "name": "Nahuizalco", "focus_area": "1", "lat": "13.777500", "type": "PPL", "awardID": "00061663", "lon": "-89.736670", "precision": "1", "focus_area_descr": "Inclusive  Sustainable Growth"}, {"outputID": "00082508", "output_locID": "00082508-11", "name": "Nahuizalco", "focus_area": "1", "lat": "13.777500", "type": "PPL", "awardID": "00061663", "lon": "-89.736670", "precision": "1", "focus_area_descr": "Inclusive  Sustainable Growth"}, {"outputID": "00082508", "output_locID": "00082508-12", "name": "Jiquilisco", "focus_area": "1", "lat": "13.316670", "type": "PPL", "awardID": "00061663", "lon": "-88.583330", "precision": "1", "focus_area_descr": "Inclusive  Sustainable Growth"}, {"outputID": "00082508", "output_locID": "00082508-13", "name": "Ilopango", "focus_area": "1", "lat": "13.701670", "type": "PPL", "awardID": "00061663", "lon": "-89.109440", "precision": "1", "focus_area_descr": "Inclusive  Sustainable Growth"}, {"outputID": "00082508", "output_locID": "00082508-14", "name": "Ciudad Arce", "focus_area": "1", "lat": "13.840280", "type": "PPL", "awardID": "00061663", "lon": "-89.447220", "precision": "1", "focus_area_descr": "Inclusive  Sustainable Growth"}, {"outputID": "00082508", "output_locID": "00082508-15", "name": "Apopa", "focus_area": "1", "lat": "13.807220", "type": "PPL", "awardID": "00061663", "lon": "-89.179170", "precision": "1", "focus_area_descr": "Inclusive  Sustainable Growth"}, {"outputID": "00082508", "output_locID": "00082508-16", "name": "Acajutla", "focus_area": "1", "lat": "13.592780", "type": "PPL", "awardID": "00061663", "lon": "-89.827500", "precision": "1", "focus_area_descr": "Inclusive  Sustainable Growth"}, {"outputID": "00082508", "output_locID": "00082508-17", "name": "Colonia Joya de Cer\u00e9n", "focus_area": "1", "lat": "13.819440", "type": "PPL", "awardID": "00061663", "lon": "-89.363610", "precision": "1", "focus_area_descr": "Inclusive  Sustainable Growth"}, {"outputID": "00082511", "output_locID": "00082511-1", "name": "Republic of El Salvador", "focus_area": "1", "lat": "13.833330", "type": "PCLI", "awardID": "00061663", "lon": "-88.916670", "precision": "1", "focus_area_descr": "Inclusive  Sustainable Growth"}, {"outputID": "00082510", "output_locID": "00082510-1", "name": "Republic of El Salvador", "focus_area": "5", "lat": "13.833330", "type": "PCLI", "awardID": "00061663", "lon": "-88.916670", "precision": "1", "focus_area_descr": "Climate Change & Disaster Resilience"}]}, {"title": "development effectiveness", "id": "00064783", "subnational": []}, {"title": "fortalecimiento del programa nacional de tuberculosis", "id": "00068118", "subnational": [{"outputID": "00083506", "output_locID": "00083506-1", "name": "Republic of El Salvador", "focus_area": "3", "lat": "13.833330", "type": "PCLI", "awardID": "00068118", "lon": "-88.916670", "precision": "1", "focus_area_descr": "Responsive Institutions"}]}, {"title": "modernizacion y gestion de los activos estrategicos", "id": "00069442", "subnational": [{"outputID": "00084021", "output_locID": "00084021-1", "name": "Sonsonate", "focus_area": "1", "lat": "13.718890", "type": "PPLA", "awardID": "00069442", "lon": "-89.724170", "precision": "1", "focus_area_descr": "Inclusive  Sustainable Growth"}, {"outputID": "00084021", "output_locID": "00084021-2", "name": "San Salvador", "focus_area": "1", "lat": "13.689350", "type": "PPLC", "awardID": "00069442", "lon": "-89.187180", "precision": "1", "focus_area_descr": "Inclusive  Sustainable Growth"}, {"outputID": "00084021", "output_locID": "00084021-3", "name": "Departamento de La Uni\u00f3n", "focus_area": "1", "lat": "13.550000", "type": "ADM1", "awardID": "00069442", "lon": "-87.900000", "precision": "1", "focus_area_descr": "Inclusive  Sustainable Growth"}, {"outputID": "00084021", "output_locID": "00084021-4", "name": "Departamento de La Paz", "focus_area": "1", "lat": "13.466670", "type": "ADM1", "awardID": "00069442", "lon": "-88.983330", "precision": "1", "focus_area_descr": "Inclusive  Sustainable Growth"}]}, {"title": "plan eliminaci\u00f3n de hidroclorofluorocarbonos el salvador", "id": "00069515", "subnational": [{"outputID": "00084054", "output_locID": "00084054-1", "name": "Republic of El Salvador", "focus_area": "1", "lat": "13.833330", "type": "PCLI", "awardID": "00069515", "lon": "-88.916670", "precision": "1", "focus_area_descr": "Inclusive  Sustainable Growth"}, {"outputID": "00084055", "output_locID": "00084055-1", "name": "Republic of El Salvador", "focus_area": "1", "lat": "13.833330", "type": "PCLI", "awardID": "00069515", "lon": "-88.916670", "precision": "1", "focus_area_descr": "Inclusive & Sustainable Growth"}]}, {"title": "seamos productivos", "id": "00070673", "subnational": [{"outputID": "00084527", "output_locID": "00084527-1", "name": "Republic of El Salvador", "focus_area": "3", "lat": "13.833330", "type": "PCLI", "awardID": "00070673", "lon": "-88.916670", "precision": "1", "focus_area_descr": "Responsive Institutions"}]}, {"title": "tercera comunicacion cambio climatico", "id": "00072235", "subnational": []}, {"title": "promoci\u00f3n y restablecimiento del derecho a la salud, pro", "id": "00076049", "subnational": []}, {"title": "modelo de reinserci\u00f3n social", "id": "00081915", "subnational": []}, {"title": "ciudades sostenibles", "id": "00082572", "subnational": []}, {"title": "preparaci\u00f3n fondo verde clima", "id": "00082573", "subnational": []}, {"title": "pol\u00edticas p\u00fablicas para el desarrollo humano sostenible", "id": "00084497", "subnational": []}, {"title": "acuerdos de segunda generaci\u00f3n fase ii", "id": "00084577", "subnational": []}, {"title": "mcp-es capacidades institucionalizadas", "id": "00084846", "subnational": []}, {"title": "fortalecimiento inst. de la mujer", "id": "00085135", "subnational": [{"outputID": "00092884", "output_locID": "00092884-1", "name": "San Salvador", "focus_area": "4", "lat": "13.689350", "type": "PPLC", "awardID": "00085135", "lon": "-89.187180", "precision": "1", "focus_area_descr": "Gender Equality"}, {"outputID": "00092884", "output_locID": "00092884-2", "name": "San Salvador", "focus_area": "4", "lat": "13.689350", "type": "PPLC", "awardID": "00085135", "lon": "-89.187180", "precision": "1", "focus_area_descr": "Gender Equality"}]}, {"title": "conservaci\u00f3n, uso sostenible de la biodiversidad", "id": "00088358", "subnational": []}, {"title": "programa de modernizaci\u00f3n de cepa fase ii", "id": "00092375", "subnational": []}, {"title": "fortalemiento institucional foprolyd", "id": "00093487", "subnational": []}, {"title": "apoyo a plan el salvador seguro", "id": "00095810", "subnational": []}, {"title": "programa conjunto de paz para generaci\u00f3n post-conflicto-", "id": "00097063", "subnational": []}, {"title": "hacia el cumplimiento de los ods", "id": "00098424", "subnational": []}, {"title": "programa desarrollo proveedores", "id": "00099058", "subnational": []}, {"title": "apoyo al ciclo electoral  (2018 - 2019)", "id": "00099154", "subnational": []}, {"title": "management plan", "id": "00042509", "subnational": [{"outputID": "00049109", "output_locID": "00049109-1", "name": "Belize", "focus_area": "9", "lat": "17.250000", "type": "PCLI", "awardID": "00042509", "lon": "-88.750000", "precision": "1", "focus_area_descr": "Organizational Results Area 2"}]}, {"title": "fortalecimiento al seguro social en respuesta vih/sida", "id": "00059133", "subnational": [{"outputID": "00073852", "output_locID": "00073852-1", "name": "San Salvador", "focus_area": "3", "lat": "13.689350", "type": "PPLC", "awardID": "00059133", "lon": "-89.187180", "precision": "1", "focus_area_descr": "Responsive Institutions"}, {"outputID": "00073852", "output_locID": "00073852-2", "name": "San Salvador", "focus_area": "3", "lat": "13.689350", "type": "PPLC", "awardID": "00059133", "lon": "-89.187180", "precision": "1", "focus_area_descr": "Responsive Institutions"}]}, {"title": "un nuevo contrato social", "id": "00059340", "subnational": [{"outputID": "00074175", "output_locID": "00074175-1", "name": "Republic of El Salvador", "focus_area": "2", "lat": "13.833330", "type": "PCLI", "awardID": "00059340", "lon": "-88.916670", "precision": "1", "focus_area_descr": "Democratic Governance"}]}, {"title": "integraci\u00f3n de la biodiversidad en pesca y turismo", "id": "00061339", "subnational": [{"outputID": "00077678", "output_locID": "00077678-1", "name": "Zacatecoluca", "focus_area": "2", "lat": "13.500000", "type": "PPLA", "awardID": "00061339", "lon": "-88.866670", "precision": "1", "focus_area_descr": "Democratic Governance"}, {"outputID": "00077678", "output_locID": "00077678-2", "name": "Usulut\u00e1n", "focus_area": "2", "lat": "13.350000", "type": "PPLA", "awardID": "00061339", "lon": "-88.450000", "precision": "1", "focus_area_descr": "Democratic Governance"}, {"outputID": "00077678", "output_locID": "00077678-3", "name": "Tecoluca", "focus_area": "2", "lat": "13.533330", "type": "PPL", "awardID": "00061339", "lon": "-88.783330", "precision": "1", "focus_area_descr": "Democratic Governance"}, {"outputID": "00077678", "output_locID": "00077678-4", "name": "San Francisco Men\u00e9ndez", "focus_area": "2", "lat": "13.843060", "type": "PPL", "awardID": "00061339", "lon": "-90.015830", "precision": "1", "focus_area_descr": "Democratic Governance"}, {"outputID": "00077678", "output_locID": "00077678-5", "name": "San Dionisio", "focus_area": "2", "lat": "13.283330", "type": "PPL", "awardID": "00061339", "lon": "-88.466670", "precision": "1", "focus_area_descr": "Democratic Governance"}, {"outputID": "00077678", "output_locID": "00077678-6", "name": "San Alejo", "focus_area": "2", "lat": "13.431390", "type": "PPL", "awardID": "00061339", "lon": "-87.963060", "precision": "1", "focus_area_descr": "Democratic Governance"}, {"outputID": "00077678", "output_locID": "00077678-7", "name": "Puerto El Triunfo", "focus_area": "2", "lat": "13.283330", "type": "PPL", "awardID": "00061339", "lon": "-88.550000", "precision": "1", "focus_area_descr": "Democratic Governance"}, {"outputID": "00077678", "output_locID": "00077678-8", "name": "Pasaquina", "focus_area": "2", "lat": "13.584440", "type": "PPL", "awardID": "00061339", "lon": "-87.841110", "precision": "1", "focus_area_descr": "Democratic Governance"}, {"outputID": "00077678", "output_locID": "00077678-9", "name": "Meanguera del Golfo", "focus_area": "2", "lat": "13.179720", "type": "PPL", "awardID": "00061339", "lon": "-87.697500", "precision": "1", "focus_area_descr": "Democratic Governance"}, {"outputID": "00077678", "output_locID": "00077678-10", "name": "La Libertad", "focus_area": "2", "lat": "13.488330", "type": "PPL", "awardID": "00061339", "lon": "-89.322220", "precision": "1", "focus_area_descr": "Democratic Governance"}, {"outputID": "00077678", "output_locID": "00077678-11", "name": "La Libertad", "focus_area": "2", "lat": "13.488330", "type": "PPL", "awardID": "00061339", "lon": "-89.322220", "precision": "1", "focus_area_descr": "Democratic Governance"}, {"outputID": "00077678", "output_locID": "00077678-12", "name": "Jujutla", "focus_area": "2", "lat": "13.786940", "type": "PPL", "awardID": "00061339", "lon": "-89.857220", "precision": "1", "focus_area_descr": "Democratic Governance"}, {"outputID": "00077678", "output_locID": "00077678-13", "name": "Jiquilisco", "focus_area": "2", "lat": "13.316670", "type": "PPL", "awardID": "00061339", "lon": "-88.583330", "precision": "1", "focus_area_descr": "Democratic Governance"}, {"outputID": "00077678", "output_locID": "00077678-14", "name": "Intipuc\u00e1", "focus_area": "2", "lat": "13.196940", "type": "PPL", "awardID": "00061339", "lon": "-88.054440", "precision": "1", "focus_area_descr": "Democratic Governance"}, {"outputID": "00077678", "output_locID": "00077678-15", "name": "Conchagua", "focus_area": "2", "lat": "13.307780", "type": "PPL", "awardID": "00061339", "lon": "-87.864720", "precision": "1", "focus_area_descr": "Democratic Governance"}, {"outputID": "00077678", "output_locID": "00077678-16", "name": "Chirilagua", "focus_area": "2", "lat": "13.220280", "type": "PPL", "awardID": "00061339", "lon": "-88.138610", "precision": "1", "focus_area_descr": "Democratic Governance"}, {"outputID": "00077678", "output_locID": "00077678-17", "name": "Acajutla", "focus_area": "2", "lat": "13.592780", "type": "PPL", "awardID": "00061339", "lon": "-89.827500", "precision": "1", "focus_area_descr": "Democratic Governance"}, {"outputID": "00077678", "output_locID": "00077678-18", "name": "R\u00edo Tamanique", "focus_area": "2", "lat": "13.556110", "type": "PPL", "awardID": "00061339", "lon": "-89.421390", "precision": "1", "focus_area_descr": "Democratic Governance"}, {"outputID": "00077678", "output_locID": "00077678-19", "name": "San Luis la  Herradura", "focus_area": "2", "lat": "13.354480", "type": "PPL", "awardID": "00061339", "lon": "-88.947030", "precision": "1", "focus_area_descr": "Democratic Governance"}]}, {"title": "programa gobernabilidad local", "id": "00067984", "subnational": [{"outputID": "00083438", "output_locID": "00083438-1", "name": "Republic of El Salvador", "focus_area": "3", "lat": "13.833330", "type": "PCLI", "awardID": "00067984", "lon": "-88.916670", "precision": "1", "focus_area_descr": "Responsive Institutions"}, {"outputID": "00084274", "output_locID": "00084274-1", "name": "Republic of El Salvador", "focus_area": "3", "lat": "13.833330", "type": "PCLI", "awardID": "00067984", "lon": "-88.916670", "precision": "1", "focus_area_descr": "Responsive Institutions"}, {"outputID": "00084276", "output_locID": "00084276-1", "name": "San Salvador", "focus_area": "3", "lat": "13.689350", "type": "PPLC", "awardID": "00067984", "lon": "-89.187180", "precision": "1", "focus_area_descr": "Responsive Institutions"}, {"outputID": "00084276", "output_locID": "00084276-2", "name": "San Salvador", "focus_area": "3", "lat": "13.689350", "type": "PPLC", "awardID": "00067984", "lon": "-89.187180", "precision": "1", "focus_area_descr": "Responsive Institutions"}, {"outputID": "00084275", "output_locID": "00084275-1", "name": "Republic of El Salvador", "focus_area": "3", "lat": "13.833330", "type": "PCLI", "awardID": "00067984", "lon": "-88.916670", "precision": "1", "focus_area_descr": "Responsive Institutions"}]}, {"title": "di\u00e1logo pol\u00edtico y construcci\u00f3n propuestas", "id": "00069421", "subnational": [{"outputID": "00085469", "output_locID": "00085469-1", "name": "Republic of El Salvador", "focus_area": "2", "lat": "13.833330", "type": "PCLI", "awardID": "00069421", "lon": "-88.916670", "precision": "1", "focus_area_descr": "Democratic Governance"}, {"outputID": "00084010", "output_locID": "00084010-1", "name": "Republic of El Salvador", "focus_area": "4", "lat": "13.833330", "type": "PCLI", "awardID": "00069421", "lon": "-88.916670", "precision": "1", "focus_area_descr": "Gender Equality"}, {"outputID": "00085472", "output_locID": "00085472-1", "name": "Republic of El Salvador", "focus_area": "7", "lat": "13.833330", "type": "PCLI", "awardID": "00069421", "lon": "-88.916670", "precision": "1", "focus_area_descr": "Development Impact & Effectiveness"}]}, {"title": "voto residencial", "id": "00069424", "subnational": [{"outputID": "00084012", "output_locID": "00084012-1", "name": "Sonsonate", "focus_area": "2", "lat": "13.718890", "type": "PPLA", "awardID": "00069424", "lon": "-89.724170", "precision": "1", "focus_area_descr": "Democratic Governance"}, {"outputID": "00084012", "output_locID": "00084012-2", "name": "Santa Ana", "focus_area": "2", "lat": "13.994170", "type": "PPLA", "awardID": "00069424", "lon": "-89.559720", "precision": "1", "focus_area_descr": "Democratic Governance"}, {"outputID": "00084012", "output_locID": "00084012-3", "name": "San Salvador", "focus_area": "2", "lat": "13.689350", "type": "PPLC", "awardID": "00069424", "lon": "-89.187180", "precision": "1", "focus_area_descr": "Democratic Governance"}, {"outputID": "00084012", "output_locID": "00084012-4", "name": "San Salvador", "focus_area": "2", "lat": "13.689350", "type": "PPLC", "awardID": "00069424", "lon": "-89.187180", "precision": "1", "focus_area_descr": "Democratic Governance"}, {"outputID": "00084012", "output_locID": "00084012-5", "name": "Departamento de La Libertad", "focus_area": "2", "lat": "13.750000", "type": "ADM1", "awardID": "00069424", "lon": "-89.383330", "precision": "1", "focus_area_descr": "Democratic Governance"}, {"outputID": "00084012", "output_locID": "00084012-6", "name": "Departamento de Ahuachap\u00e1n", "focus_area": "2", "lat": "13.866670", "type": "ADM1", "awardID": "00069424", "lon": "-89.916670", "precision": "1", "focus_area_descr": "Democratic Governance"}]}, {"title": "optimizaci\u00f3n gasto e inversi\u00f3n social en vih min salud", "id": "00070764", "subnational": [{"outputID": "00084597", "output_locID": "00084597-1", "name": "Republic of El Salvador", "focus_area": "3", "lat": "13.833330", "type": "PCLI", "awardID": "00070764", "lon": "-88.916670", "precision": "1", "focus_area_descr": "Responsive Institutions"}]}, {"title": "preparaci\u00f3n del proyecto humedales", "id": "00080556", "subnational": []}, {"title": "respuesta a la emergencia de la sequia en el salvador", "id": "00092681", "subnational": []}, {"title": "informes sobre desarrollo humano el salvador", "id": "00050369", "subnational": [{"outputID": "00062190", "output_locID": "00062190-1", "name": "Republic of El Salvador", "focus_area": "7", "lat": "13.833330", "type": "PCLI", "awardID": "00050369", "lon": "-88.916670", "precision": "1", "focus_area_descr": "Development Impact & Effectiveness"}]}, {"title": "gobernabilidad y sostenibilidad de agua y saneamiento", "id": "00061325", "subnational": [{"outputID": "00077657", "output_locID": "00077657-1", "name": "Torola", "focus_area": "2", "lat": "13.916670", "type": "PPL", "awardID": "00061325", "lon": "-88.233330", "precision": "1", "focus_area_descr": "Democratic Governance"}, {"outputID": "00077657", "output_locID": "00077657-2", "name": "Sitio de San Antonio", "focus_area": "2", "lat": "13.650000", "type": "PPL", "awardID": "00061325", "lon": "-88.483330", "precision": "1", "focus_area_descr": "Democratic Governance"}, {"outputID": "00077657", "output_locID": "00077657-3", "name": "Distrito de Sesori", "focus_area": "2", "lat": "13.783330", "type": "ADM2", "awardID": "00061325", "lon": "-88.416670", "precision": "1", "focus_area_descr": "Democratic Governance"}, {"outputID": "00077657", "output_locID": "00077657-4", "name": "San Luis de la Reina", "focus_area": "2", "lat": "13.816670", "type": "PPL", "awardID": "00061325", "lon": "-88.350000", "precision": "1", "focus_area_descr": "Democratic Governance"}, {"outputID": "00077657", "output_locID": "00077657-5", "name": "San Fernando", "focus_area": "2", "lat": "13.966670", "type": "PPL", "awardID": "00061325", "lon": "-88.200000", "precision": "1", "focus_area_descr": "Democratic Governance"}, {"outputID": "00077657", "output_locID": "00077657-6", "name": "Perqu\u00edn", "focus_area": "2", "lat": "13.950000", "type": "PPL", "awardID": "00061325", "lon": "-88.166670", "precision": "1", "focus_area_descr": "Democratic Governance"}, {"outputID": "00077657", "output_locID": "00077657-7", "name": "Distrito de Jocoaitique", "focus_area": "2", "lat": "13.966670", "type": "ADM2", "awardID": "00061325", "lon": "-88.150000", "precision": "1", "focus_area_descr": "Democratic Governance"}, {"outputID": "00077657", "output_locID": "00077657-8", "name": "Joateca", "focus_area": "2", "lat": "13.900000", "type": "PPL", "awardID": "00061325", "lon": "-88.050000", "precision": "1", "focus_area_descr": "Democratic Governance"}, {"outputID": "00077657", "output_locID": "00077657-9", "name": "Republic of El Salvador", "focus_area": "2", "lat": "13.833330", "type": "PCLI", "awardID": "00061325", "lon": "-88.916670", "precision": "1", "focus_area_descr": "Democratic Governance"}, {"outputID": "00077657", "output_locID": "00077657-10", "name": "Municipio de El Rosario", "focus_area": "2", "lat": "13.866670", "type": "ADM3", "awardID": "00061325", "lon": "-88.216670", "precision": "1", "focus_area_descr": "Democratic Governance"}, {"outputID": "00077657", "output_locID": "00077657-11", "name": "Corinto", "focus_area": "2", "lat": "13.810830", "type": "PPL", "awardID": "00061325", "lon": "-87.971390", "precision": "1", "focus_area_descr": "Democratic Governance"}, {"outputID": "00077657", "output_locID": "00077657-12", "name": "Ciudad Barrios", "focus_area": "2", "lat": "13.766670", "type": "PPL", "awardID": "00061325", "lon": "-88.266670", "precision": "1", "focus_area_descr": "Democratic Governance"}, {"outputID": "00077657", "output_locID": "00077657-13", "name": "Chapeltique", "focus_area": "2", "lat": "13.633330", "type": "PPL", "awardID": "00061325", "lon": "-88.266670", "precision": "1", "focus_area_descr": "Democratic Governance"}, {"outputID": "00077657", "output_locID": "00077657-14", "name": "Carolina", "focus_area": "2", "lat": "13.850000", "type": "PPL", "awardID": "00061325", "lon": "-88.300000", "precision": "1", "focus_area_descr": "Democratic Governance"}, {"outputID": "00077657", "output_locID": "00077657-15", "name": "Cacaopera", "focus_area": "2", "lat": "13.766670", "type": "PPL", "awardID": "00061325", "lon": "-88.083330", "precision": "1", "focus_area_descr": "Democratic Governance"}, {"outputID": "00077657", "output_locID": "00077657-16", "name": "Arambala", "focus_area": "2", "lat": "13.916670", "type": "PPL", "awardID": "00061325", "lon": "-88.133330", "precision": "1", "focus_area_descr": "Democratic Governance"}]}, {"title": "lucha contra vih en poblaciones vulnerables consolidado", "id": "00062852", "subnational": [{"outputID": "00080224", "output_locID": "00080224-1", "name": "Republic of El Salvador", "focus_area": "3", "lat": "13.833330", "type": "PCLI", "awardID": "00062852", "lon": "-88.916670", "precision": "1", "focus_area_descr": "Responsive Institutions"}]}, {"title": "planificacion biodiversidad apoyo plan estrategico", "id": "00068999", "subnational": [{"outputID": "00083836", "output_locID": "00083836-1", "name": "Republic of El Salvador", "focus_area": "2", "lat": "13.833330", "type": "PCLI", "awardID": "00068999", "lon": "-88.916670", "precision": "1", "focus_area_descr": "Democratic Governance"}]}, {"title": "fortalecimiento  capacidades de gesti\u00f3n gobernabilidad", "id": "00072933", "subnational": [{"outputID": "00085916", "output_locID": "00085916-1", "name": "San Salvador", "focus_area": "0", "lat": "13.689350", "type": "PPLC", "awardID": "00072933", "lon": "-89.187180", "precision": "1", "focus_area_descr": "SP_NONE_APPLIES"}, {"outputID": "00085916", "output_locID": "00085916-2", "name": "San Salvador", "focus_area": "0", "lat": "13.689350", "type": "PPLC", "awardID": "00072933", "lon": "-89.187180", "precision": "1", "focus_area_descr": "SP_NONE_APPLIES"}]}, {"title": "apoyo a plan internacional como receptor gfatm", "id": "00074361", "subnational": [{"outputID": "00086808", "output_locID": "00086808-1", "name": "San Salvador", "focus_area": "3", "lat": "13.689350", "type": "PPLC", "awardID": "00074361", "lon": "-89.187180", "precision": "1", "focus_area_descr": "Responsive Institutions"}, {"outputID": "00086808", "output_locID": "00086808-2", "name": "San Salvador", "focus_area": "3", "lat": "13.689350", "type": "PPLC", "awardID": "00074361", "lon": "-89.187180", "precision": "1", "focus_area_descr": "Responsive Institutions"}]}, {"title": "modernizaci\u00f3n del sistema de pasaportes", "id": "00085763", "subnational": [{"outputID": "00093291", "output_locID": "00093291-1", "name": "San Salvador", "focus_area": "1", "lat": "13.689350", "type": "PPLC", "awardID": "00085763", "lon": "-89.187180", "precision": "1", "focus_area_descr": "Inclusive & Sustainable Growth"}, {"outputID": "00093291", "output_locID": "00093291-2", "name": "San Salvador", "focus_area": "1", "lat": "13.689350", "type": "PPLC", "awardID": "00085763", "lon": "-89.187180", "precision": "1", "focus_area_descr": "Inclusive & Sustainable Growth"}]}, {"title": "programa de desarrollo de proveedores", "id": "00048860", "subnational": [{"outputID": "00059206", "output_locID": "00059206-1", "name": "Republic of El Salvador", "focus_area": "1", "lat": "13.833330", "type": "PCLI", "awardID": "00048860", "lon": "-88.916670", "precision": "1", "focus_area_descr": "Inclusive & Sustainable Growth"}]}, {"title": "analisis y escenarios gobernabilidad", "id": "00049968", "subnational": [{"outputID": "00061450", "output_locID": "00061450-1", "name": "Republic of El Salvador", "focus_area": "2", "lat": "13.833330", "type": "PCLI", "awardID": "00049968", "lon": "-88.916670", "precision": "1", "focus_area_descr": "Democratic Governance"}]}, {"title": "fortalecimiento de las capacidades nacionales y locales", "id": "00050011", "subnational": [{"outputID": "00061527", "output_locID": "00061527-1", "name": "San Salvador", "focus_area": "3", "lat": "13.689350", "type": "PPLC", "awardID": "00050011", "lon": "-89.187180", "precision": "1", "focus_area_descr": "Responsive Institutions"}, {"outputID": "00061527", "output_locID": "00061527-2", "name": "San Salvador", "focus_area": "3", "lat": "13.689350", "type": "PPLC", "awardID": "00050011", "lon": "-89.187180", "precision": "1", "focus_area_descr": "Responsive Institutions"}, {"outputID": "00061527", "output_locID": "00061527-3", "name": "Colonia El \u00c1ngel", "focus_area": "3", "lat": "13.946670", "type": "PPL", "awardID": "00050011", "lon": "-89.336940", "precision": "1", "focus_area_descr": "Responsive Institutions"}]}, {"title": "ronda de continuaci\u00f3n de financiamiento fondo global", "id": "00057674", "subnational": [{"outputID": "00071357", "output_locID": "00071357-1", "name": "Republic of El Salvador", "focus_area": "3", "lat": "13.833330", "type": "PCLI", "awardID": "00057674", "lon": "-88.916670", "precision": "1", "focus_area_descr": "Responsive Institutions"}]}, {"title": "energy efficiency in public buildings", "id": "00060180", "subnational": [{"outputID": "00075672", "output_locID": "00075672-1", "name": "Sonsonate", "focus_area": "1", "lat": "13.718890", "type": "PPLA", "awardID": "00060180", "lon": "-89.724170", "precision": "1", "focus_area_descr": "Inclusive & Sustainable Growth"}, {"outputID": "00075672", "output_locID": "00075672-2", "name": "Santa Ana", "focus_area": "1", "lat": "13.994170", "type": "PPLA", "awardID": "00060180", "lon": "-89.559720", "precision": "1", "focus_area_descr": "Inclusive & Sustainable Growth"}, {"outputID": "00075672", "output_locID": "00075672-3", "name": "San Salvador", "focus_area": "1", "lat": "13.689350", "type": "PPLC", "awardID": "00060180", "lon": "-89.187180", "precision": "1", "focus_area_descr": "Inclusive & Sustainable Growth"}, {"outputID": "00075672", "output_locID": "00075672-4", "name": "San Salvador", "focus_area": "1", "lat": "13.689350", "type": "PPLC", "awardID": "00060180", "lon": "-89.187180", "precision": "1", "focus_area_descr": "Inclusive & Sustainable Growth"}, {"outputID": "00075672", "output_locID": "00075672-5", "name": "Distrito de Ilobasco", "focus_area": "1", "lat": "13.883330", "type": "ADM2", "awardID": "00060180", "lon": "-88.833330", "precision": "1", "focus_area_descr": "Inclusive & Sustainable Growth"}, {"outputID": "00075672", "output_locID": "00075672-6", "name": "Ciudad Barrios", "focus_area": "1", "lat": "13.766670", "type": "PPL", "awardID": "00060180", "lon": "-88.266670", "precision": "1", "focus_area_descr": "Inclusive & Sustainable Growth"}, {"outputID": "00075672", "output_locID": "00075672-7", "name": "Chalchuapa", "focus_area": "1", "lat": "13.986670", "type": "PPL", "awardID": "00060180", "lon": "-89.681110", "precision": "1", "focus_area_descr": "Inclusive & Sustainable Growth"}]}, {"title": "transparencia y accountability", "id": "00060623", "subnational": [{"outputID": "00077646", "output_locID": "00077646-1", "name": "Republic of El Salvador", "focus_area": "2", "lat": "13.833330", "type": "PCLI", "awardID": "00060623", "lon": "-88.916670", "precision": "1", "focus_area_descr": "Democratic Governance"}]}, {"title": "fortalecimiento del mecanismo de coordinacion de pais", "id": "00062099", "subnational": [{"outputID": "00079376", "output_locID": "00079376-1", "name": "San Salvador", "focus_area": "3", "lat": "13.689350", "type": "PPLC", "awardID": "00062099", "lon": "-89.187180", "precision": "1", "focus_area_descr": "Responsive Institutions"}, {"outputID": "00079376", "output_locID": "00079376-2", "name": "San Salvador", "focus_area": "3", "lat": "13.689350", "type": "PPLC", "awardID": "00062099", "lon": "-89.187180", "precision": "1", "focus_area_descr": "Responsive Institutions"}]}, {"title": "cerrando brechas de participaci\u00f3n electoral con el voto", "id": "00062423", "subnational": [{"outputID": "00079905", "output_locID": "00079905-1", "name": "Republic of El Salvador", "focus_area": "2", "lat": "13.833330", "type": "PCLI", "awardID": "00062423", "lon": "-88.916670", "precision": "1", "focus_area_descr": "Democratic Governance"}]}, {"title": "atenci\u00f3n a la pobreza y cumplimiento objetivos milenio", "id": "00048066", "subnational": [{"outputID": "00058053", "output_locID": "00058053-1", "name": "Republic of El Salvador", "focus_area": "-", "lat": "13.833330", "type": "PCLI", "awardID": "00048066", "lon": "-88.916670", "precision": "1", "focus_area_descr": "-"}]}, {"title": "hacia la participaci\u00f3n pol\u00edtica de las mujeres", "id": "00050253", "subnational": [{"outputID": "00061981", "output_locID": "00061981-1", "name": "Republic of El Salvador", "focus_area": "-", "lat": "13.833330", "type": "PCLI", "awardID": "00050253", "lon": "-88.916670", "precision": "1", "focus_area_descr": "-"}]}, {"title": "pacto por la igualdad de g\u00e9nero", "id": "00050364", "subnational": [{"outputID": "00062185", "output_locID": "00062185-1", "name": "Republic of El Salvador", "focus_area": "-", "lat": "13.833330", "type": "PCLI", "awardID": "00050364", "lon": "-88.916670", "precision": "1", "focus_area_descr": "-"}]}, {"title": "building social capital to reduce violence.", "id": "00051329", "subnational": [{"outputID": "00063857", "output_locID": "00063857-1", "name": "San Salvador", "focus_area": "3", "lat": "13.689350", "type": "PPLC", "awardID": "00051329", "lon": "-89.187180", "precision": "1", "focus_area_descr": "Responsive Institutions"}, {"outputID": "00063857", "output_locID": "00063857-2", "name": "San Salvador", "focus_area": "3", "lat": "13.689350", "type": "PPLC", "awardID": "00051329", "lon": "-89.187180", "precision": "1", "focus_area_descr": "Responsive Institutions"}]}, {"title": "asentamientos urbanos productivos", "id": "00057273", "subnational": [{"outputID": "00070692", "output_locID": "00070692-1", "name": "San Salvador", "focus_area": "1", "lat": "13.689350", "type": "PPLC", "awardID": "00057273", "lon": "-89.187180", "precision": "1", "focus_area_descr": "Inclusive & Sustainable Growth"}, {"outputID": "00070692", "output_locID": "00070692-2", "name": "San Salvador", "focus_area": "1", "lat": "13.689350", "type": "PPLC", "awardID": "00057273", "lon": "-89.187180", "precision": "1", "focus_area_descr": "Inclusive & Sustainable Growth"}, {"outputID": "00070692", "output_locID": "00070692-3", "name": "Santa Tecla", "focus_area": "1", "lat": "13.676940", "type": "PPLA", "awardID": "00057273", "lon": "-89.279720", "precision": "1", "focus_area_descr": "Inclusive & Sustainable Growth"}, {"outputID": "00070692", "output_locID": "00070692-4", "name": "La Libertad", "focus_area": "1", "lat": "13.488330", "type": "PPL", "awardID": "00057273", "lon": "-89.322220", "precision": "1", "focus_area_descr": "Inclusive & Sustainable Growth"}, {"outputID": "00070692", "output_locID": "00070692-5", "name": "La Libertad", "focus_area": "1", "lat": "13.488330", "type": "PPL", "awardID": "00057273", "lon": "-89.322220", "precision": "1", "focus_area_descr": "Inclusive & Sustainable Growth"}, {"outputID": "00070692", "output_locID": "00070692-6", "name": "Apopa", "focus_area": "1", "lat": "13.807220", "type": "PPL", "awardID": "00057273", "lon": "-89.179170", "precision": "1", "focus_area_descr": "Inclusive & Sustainable Growth"}]}, {"title": "integraci\u00f3n en educaci\u00f3n basica", "id": "00057473", "subnational": [{"outputID": "00071021", "output_locID": "00071021-1", "name": "Zaragoza", "focus_area": "0", "lat": "13.589440", "type": "PPL", "awardID": "00057473", "lon": "-89.288890", "precision": "1", "focus_area_descr": "SP_NONE_APPLIES"}, {"outputID": "00071021", "output_locID": "00071021-2", "name": "Distrito de Zacatecoluca", "focus_area": "0", "lat": "13.400000", "type": "ADM2", "awardID": "00057473", "lon": "-88.883330", "precision": "1", "focus_area_descr": "SP_NONE_APPLIES"}, {"outputID": "00071021", "output_locID": "00071021-3", "name": "San Salvador", "focus_area": "0", "lat": "13.689350", "type": "PPLC", "awardID": "00057473", "lon": "-89.187180", "precision": "1", "focus_area_descr": "SP_NONE_APPLIES"}, {"outputID": "00071021", "output_locID": "00071021-4", "name": "San Salvador", "focus_area": "0", "lat": "13.689350", "type": "PPLC", "awardID": "00057473", "lon": "-89.187180", "precision": "1", "focus_area_descr": "SP_NONE_APPLIES"}, {"outputID": "00071021", "output_locID": "00071021-5", "name": "San Marcos de La Cruz", "focus_area": "0", "lat": "13.416670", "type": "PPL", "awardID": "00057473", "lon": "-88.816670", "precision": "1", "focus_area_descr": "SP_NONE_APPLIES"}, {"outputID": "00071021", "output_locID": "00071021-6", "name": "La Libertad", "focus_area": "0", "lat": "13.488330", "type": "PPL", "awardID": "00057473", "lon": "-89.322220", "precision": "1", "focus_area_descr": "SP_NONE_APPLIES"}, {"outputID": "00071021", "output_locID": "00071021-7", "name": "La Libertad", "focus_area": "0", "lat": "13.488330", "type": "PPL", "awardID": "00057473", "lon": "-89.322220", "precision": "1", "focus_area_descr": "SP_NONE_APPLIES"}, {"outputID": "00071021", "output_locID": "00071021-8", "name": "Chalatenango", "focus_area": "0", "lat": "14.033330", "type": "PPLA", "awardID": "00057473", "lon": "-88.933330", "precision": "1", "focus_area_descr": "SP_NONE_APPLIES"}]}, {"title": "programa seguridad alimentaria y nutricional", "id": "00059775", "subnational": [{"outputID": "00074924", "output_locID": "00074924-1", "name": "Republic of El Salvador", "focus_area": "0", "lat": "13.833330", "type": "PCLI", "awardID": "00059775", "lon": "-88.916670", "precision": "1", "focus_area_descr": "SP_NONE_APPLIES"}]}, {"title": "prevencion y control tb en poblaciones vulnerables", "id": "00060122", "subnational": [{"outputID": "00075553", "output_locID": "00075553-1", "name": "Republic of El Salvador", "focus_area": "1", "lat": "13.833330", "type": "PCLI", "awardID": "00060122", "lon": "-88.916670", "precision": "1", "focus_area_descr": "Inclusive & Sustainable Growth"}]}, {"title": "respuesta a los da\u00f1os causados por tormenta tropical 12e", "id": "00062948", "subnational": [{"outputID": "00080265", "output_locID": "00080265-1", "name": "Usulut\u00e1n", "focus_area": "0", "lat": "13.350000", "type": "PPLA", "awardID": "00062948", "lon": "-88.450000", "precision": "1", "focus_area_descr": "SP_NONE_APPLIES"}, {"outputID": "00080265", "output_locID": "00080265-2", "name": "San Dionisio", "focus_area": "0", "lat": "13.283330", "type": "PPL", "awardID": "00062948", "lon": "-88.466670", "precision": "1", "focus_area_descr": "SP_NONE_APPLIES"}, {"outputID": "00080265", "output_locID": "00080265-3", "name": "Puerto El Triunfo", "focus_area": "0", "lat": "13.283330", "type": "PPL", "awardID": "00062948", "lon": "-88.550000", "precision": "1", "focus_area_descr": "SP_NONE_APPLIES"}, {"outputID": "00080265", "output_locID": "00080265-4", "name": "Jiquilisco", "focus_area": "0", "lat": "13.316670", "type": "PPL", "awardID": "00062948", "lon": "-88.583330", "precision": "1", "focus_area_descr": "SP_NONE_APPLIES"}]}, {"title": "joint migration & development initiative ii-el salvador", "id": "00075634", "subnational": [{"outputID": "00087428", "output_locID": "00087428-1", "name": "Republic of El Salvador", "focus_area": "-", "lat": "13.833330", "type": "PCLI", "awardID": "00075634", "lon": "-88.916670", "precision": "1", "focus_area_descr": "-"}]}, {"title": "programa reconstrucci\u00f3n y modernizacion rural occidente", "id": "00012403", "subnational": [{"outputID": "00012403", "output_locID": "00012403-1", "name": "Departamento de Sonsonate", "focus_area": "-", "lat": "13.700000", "type": "ADM1", "awardID": "00012403", "lon": "-89.700000", "precision": "1", "focus_area_descr": "-"}, {"outputID": "00012403", "output_locID": "00012403-2", "name": "Santa Ana", "focus_area": "-", "lat": "14.033330", "type": "PPL", "awardID": "00012403", "lon": "-88.800000", "precision": "1", "focus_area_descr": "-"}, {"outputID": "00012403", "output_locID": "00012403-3", "name": "La Libertad", "focus_area": "-", "lat": "13.488330", "type": "PPL", "awardID": "00012403", "lon": "-89.322220", "precision": "1", "focus_area_descr": "-"}, {"outputID": "00012403", "output_locID": "00012403-4", "name": "La Libertad", "focus_area": "-", "lat": "13.488330", "type": "PPL", "awardID": "00012403", "lon": "-89.322220", "precision": "1", "focus_area_descr": "-"}, {"outputID": "00012403", "output_locID": "00012403-5", "name": "Departamento de Chalatenango", "focus_area": "-", "lat": "14.133330", "type": "ADM1", "awardID": "00012403", "lon": "-89.016670", "precision": "1", "focus_area_descr": "-"}, {"outputID": "00012403", "output_locID": "00012403-6", "name": "Departamento de Ahuachap\u00e1n", "focus_area": "-", "lat": "13.866670", "type": "ADM1", "awardID": "00012403", "lon": "-89.916670", "precision": "1", "focus_area_descr": "-"}]}, {"title": "plan implementacion compuestos organicos persistente", "id": "00043844", "subnational": [{"outputID": "00051339", "output_locID": "00051339-1", "name": "Republic of El Salvador", "focus_area": "-", "lat": "13.833330", "type": "PCLI", "awardID": "00043844", "lon": "-88.916670", "precision": "1", "focus_area_descr": "-"}]}, {"title": "segunda comunicaci\u00f3n cambio climatico", "id": "00044453", "subnational": [{"outputID": "00052272", "output_locID": "00052272-1", "name": "Republic of El Salvador", "focus_area": "-", "lat": "13.833330", "type": "PCLI", "awardID": "00044453", "lon": "-88.916670", "precision": "1", "focus_area_descr": "-"}]}, {"title": "fase ii del componente vih/sida del fondo mundial", "id": "00045522", "subnational": [{"outputID": "00053790", "output_locID": "00053790-1", "name": "Republic of El Salvador", "focus_area": "3", "lat": "13.833330", "type": "PCLI", "awardID": "00045522", "lon": "-88.916670", "precision": "1", "focus_area_descr": "Responsive Institutions"}]}, {"title": "fortalecimiento para la gestion de riesgo", "id": "00047464", "subnational": [{"outputID": "00057021", "output_locID": "00057021-1", "name": "Republic of El Salvador", "focus_area": "0", "lat": "13.833330", "type": "PCLI", "awardID": "00047464", "lon": "-88.916670", "precision": "1", "focus_area_descr": "SP_NONE_APPLIES"}]}, {"title": "fomento a la seguridad ciudadana sonsonate.", "id": "00047610", "subnational": [{"outputID": "00057378", "output_locID": "00057378-1", "name": "Sonzacate", "focus_area": "3", "lat": "13.734170", "type": "PPL", "awardID": "00047610", "lon": "-89.714720", "precision": "1", "focus_area_descr": "Responsive Institutions"}, {"outputID": "00057378", "output_locID": "00057378-2", "name": "Departamento de Sonsonate", "focus_area": "3", "lat": "13.700000", "type": "ADM1", "awardID": "00047610", "lon": "-89.700000", "precision": "1", "focus_area_descr": "Responsive Institutions"}, {"outputID": "00057378", "output_locID": "00057378-3", "name": "Acajutla", "focus_area": "3", "lat": "13.592780", "type": "PPL", "awardID": "00047610", "lon": "-89.827500", "precision": "1", "focus_area_descr": "Responsive Institutions"}]}, {"title": "human development & migration in el salvador", "id": "00048926", "subnational": [{"outputID": "00059318", "output_locID": "00059318-1", "name": "Republic of El Salvador", "focus_area": "-", "lat": "13.833330", "type": "PCLI", "awardID": "00048926", "lon": "-88.916670", "precision": "1", "focus_area_descr": "-"}, {"outputID": "00059320", "output_locID": "00059320-1", "name": "Republic of El Salvador", "focus_area": "0", "lat": "13.833330", "type": "PCLI", "awardID": "00048926", "lon": "-88.916670", "precision": "1", "focus_area_descr": "SP_NONE_APPLIES"}, {"outputID": "00059321", "output_locID": "00059321-1", "name": "Republic of El Salvador", "focus_area": "-", "lat": "13.833330", "type": "PCLI", "awardID": "00048926", "lon": "-88.916670", "precision": "1", "focus_area_descr": "-"}]}, {"title": "fondo global vih ronda 7", "id": "00050738", "subnational": [{"outputID": "00062805", "output_locID": "00062805-1", "name": "Republic of El Salvador", "focus_area": "3", "lat": "13.833330", "type": "PCLI", "awardID": "00050738", "lon": "-88.916670", "precision": "1", "focus_area_descr": "Responsive Institutions"}]}, {"title": "acceso agua potable san francisco gotera", "id": "00012408", "subnational": []}, {"title": "apoyo a la formulaci\u00f3n de pol\u00edticas p\u00fablicas", "id": "00046458", "subnational": []}, {"title": "asistencia al instituto salvadore\u00f1o del seguro social", "id": "00036748", "subnational": []}, {"title": "biodiversidad pesca y turismo", "id": "00057039", "subnational": []}, {"title": "ciudad segura para convivir", "id": "00057928", "subnational": []}, {"title": "consejo economico social i", "id": "00056902", "subnational": []}, {"title": "fortalecimiento de capacidades nacionales", "id": "00050082", "subnational": []}, {"title": "mdg based planning", "id": "00057254", "subnational": []}, {"title": "plan manejo fase terminal clorofluorocarbono", "id": "00049560", "subnational": []}], "op_unit": "SLV"}