{"iso_num":"222","op_unit":"SLV","projects":[{"id":"00050368","subnational":[{"awardID":"00050368","focus_area":"1","focus_area_descr":"Poverty reduction & MDG achievement","lat":"13.83333","lon":"-88.91667","name":"El Salvador","outputID":"00062189","output_locID":"00062189-1","precision":"9","type":"PCL"}],"title":"Apoyo a la Direcci\u00f3n de Migraci\u00f3n Fase II"},{"id":"00057273","subnational":[{"awardID":"00057273","focus_area":"1","focus_area_descr":"Poverty reduction & MDG achievement","lat":"13.67694","lon":"-89.27972","name":"La Libertad","outputID":"00070692","output_locID":"00070692-1","precision":"3","type":"PPLA"},{"awardID":"00057273","focus_area":"1","focus_area_descr":"Poverty reduction & MDG achievement","lat":"13.67694","lon":"-89.27972","name":"Santa Tecla","outputID":"00070692","output_locID":"00070692-2","precision":"3","type":"PPLA"},{"awardID":"00057273","focus_area":"1","focus_area_descr":"Poverty reduction & MDG achievement","lat":"13.68935","lon":"-89.18718","name":"San Salvador","outputID":"00070692","output_locID":"00070692-3","precision":"3","type":"PPL"},{"awardID":"00057273","focus_area":"1","focus_area_descr":"Poverty reduction & MDG achievement","lat":"13.80722","lon":"-89.17917","name":"Apopa","outputID":"00070692","output_locID":"00070692-4","precision":"3","type":"PPL"}],"title":"Asentamientos Urbanos Productivos"},{"id":"00048066","subnational":[{"awardID":"00048066","focus_area":"1","focus_area_descr":"Poverty reduction & MDG achievement","lat":"13.83333","lon":"-88.91667","name":"El Salvador","outputID":"00058053","output_locID":"00058053-1","precision":"9","type":"PCL"}],"title":"Atenci\u00f3n a la pobreza y cumplimiento Objetivos Milenio"},{"id":"00051329","subnational":[{"awardID":"00051329","focus_area":"2","focus_area_descr":"Democratic governance","lat":"13.68935","lon":"-89.18718","name":"San Salvador","outputID":"00063857","output_locID":"00063857-1","precision":"3","type":"PPLC"}],"title":"Building social capital to reduce Violence."},{"id":"00062423","subnational":[{"awardID":"00062423","focus_area":"2","focus_area_descr":"Democratic governance","lat":"13.83333","lon":"-88.91667","name":"El Salvador","outputID":"00079905","output_locID":"00079905-1","precision":"9","type":"PCL"}],"title":"Cerrando brechas de participaci\u00f3n electoral con el voto"},{"id":"00061663","subnational":[{"awardID":"00061663","focus_area":"1","focus_area_descr":"Poverty reduction & MDG achievement","lat":"13.83333","lon":"-88.91667","name":"El Salvador","outputID":"00078229","output_locID":"00078229-1","precision":"9","type":"PCL"},{"awardID":"00061663","focus_area":"1","focus_area_descr":"Poverty reduction & MDG achievement","lat":"13.59278","lon":"-89.8275","name":"Acajutla","outputID":"00082508","output_locID":"00082508-1","precision":"3","type":"PPL"},{"awardID":"00061663","focus_area":"1","focus_area_descr":"Poverty reduction & MDG achievement","lat":"13.31667","lon":"-88.58333","name":"Jiquilisco","outputID":"00082508","output_locID":"00082508-2","precision":"3","type":"PPL"},{"awardID":"00061663","focus_area":"1","focus_area_descr":"Poverty reduction & MDG achievement","lat":"13.99417","lon":"-89.55972","name":"Santa Ana","outputID":"00082508","output_locID":"00082508-3","precision":"3","type":"PPLA"},{"awardID":"00061663","focus_area":"1","focus_area_descr":"Poverty reduction & MDG achievement","lat":"13.84028","lon":"-89.44722","name":"Ciudad Arce","outputID":"00082508","output_locID":"00082508-4","precision":"3","type":"PPL"},{"awardID":"00061663","focus_area":"1","focus_area_descr":"Poverty reduction & MDG achievement","lat":"13.72667","lon":"-89.36889","name":"Colon","outputID":"00082508","output_locID":"00082508-5","precision":"3","type":"PPL"},{"awardID":"00061663","focus_area":"1","focus_area_descr":"Poverty reduction & MDG achievement","lat":"13.86667","lon":"-89.4","name":"San Juan Opico","outputID":"00082508","output_locID":"00082508-6","precision":"3","type":"ADM2"},{"awardID":"00061663","focus_area":"1","focus_area_descr":"Poverty reduction & MDG achievement","lat":"13.59278","lon":"-89.8275","name":"Acajutla","outputID":"00082508","output_locID":"00082508-7","precision":"3","type":"PPL"},{"awardID":"00061663","focus_area":"1","focus_area_descr":"Poverty reduction & MDG achievement","lat":"13.71889","lon":"-89.72417","name":"Sonsonate","outputID":"00082508","output_locID":"00082508-8","precision":"3","type":"PPLA"},{"awardID":"00061663","focus_area":"1","focus_area_descr":"Poverty reduction & MDG achievement","lat":"13.7775","lon":"-89.73667","name":"Nahuizalco","outputID":"00082508","output_locID":"00082508-9","precision":"3","type":"PPL"},{"awardID":"00061663","focus_area":"1","focus_area_descr":"Poverty reduction & MDG achievement","lat":"13.81358","lon":"-89.63247","name":"Izalco","outputID":"00082508","output_locID":"00082508-10","precision":"3","type":"PPL"},{"awardID":"00061663","focus_area":"1","focus_area_descr":"Poverty reduction & MDG achievement","lat":"13.80722","lon":"-89.17917","name":"Apopa","outputID":"00082508","output_locID":"00082508-11","precision":"3","type":"PPL"},{"awardID":"00061663","focus_area":"1","focus_area_descr":"Poverty reduction & MDG achievement","lat":"13.65889","lon":"-89.18306","name":"San Marcos","outputID":"00082508","output_locID":"00082508-12","precision":"3","type":"PPL"},{"awardID":"00061663","focus_area":"1","focus_area_descr":"Poverty reduction & MDG achievement","lat":"13.70167","lon":"-89.10944","name":"Ilopango","outputID":"00082508","output_locID":"00082508-13","precision":"3","type":"PPL"},{"awardID":"00061663","focus_area":"1","focus_area_descr":"Poverty reduction & MDG achievement","lat":"13.73472","lon":"-89.15139","name":"Soyapango","outputID":"00082508","output_locID":"00082508-14","precision":"3","type":"PPL"},{"awardID":"00061663","focus_area":"1","focus_area_descr":"Poverty reduction & MDG achievement","lat":"13.68935","lon":"-89.18718","name":"San Vicente","outputID":"00082508","output_locID":"00082508-15","precision":"3","type":"PPL"},{"awardID":"00061663","focus_area":"1","focus_area_descr":"Poverty reduction & MDG achievement","lat":"13.48333","lon":"-88.18333","name":"San Miguel","outputID":"00082508","output_locID":"00082508-16","precision":"3","type":"PPLA"},{"awardID":"00061663","focus_area":"1","focus_area_descr":"Poverty reduction & MDG achievement","lat":"13.61278","lon":"-89.18","name":"Panchimalco","outputID":"00082508","output_locID":"00082508-17","precision":"3","type":"PPL"},{"awardID":"00061663","focus_area":"1","focus_area_descr":"Poverty reduction & MDG achievement","lat":"13.5","lon":"-88.86667","name":"Zacatecoluca","outputID":"00082508","output_locID":"00082508-18","precision":"3","type":"PPLA"},{"awardID":"00061663","focus_area":"3","focus_area_descr":"Crisis prevention & recovery","lat":"13.83333","lon":"-88.91667","name":"El Salvador","outputID":"00082510","output_locID":"00082510-1","precision":"9","type":"PCL"},{"awardID":"00061663","focus_area":"1","focus_area_descr":"Poverty reduction & MDG achievement","lat":"13.83333","lon":"-88.91667","name":"El Salvador","outputID":"00082511","output_locID":"00082511-1","precision":"9","type":"PCL"}],"title":"Consolidacion estrategia atencion a la pobreza en ES"},{"id":"00069421","subnational":[{"awardID":"00069421","focus_area":"2","focus_area_descr":"Democratic governance","lat":"13.83333","lon":"-88.91667","name":"El Salvador","outputID":"00084010","output_locID":"00084010-1","precision":"9","type":"PCL"},{"awardID":"00069421","focus_area":"2","focus_area_descr":"Democratic governance","lat":"13.83333","lon":"-88.91667","name":"El Salvador","outputID":"00085469","output_locID":"00085469-1","precision":"9","type":"PCL"},{"awardID":"00069421","focus_area":"1","focus_area_descr":"Poverty reduction & MDG achievement","lat":"13.83333","lon":"-88.91667","name":"El Salvador","outputID":"00085472","output_locID":"00085472-1","precision":"9","type":"PCL"}],"title":"Di\u00e1logo Pol\u00edtico y construcci\u00f3n Propuestas"},{"id":"00059394","subnational":[{"awardID":"00059394","focus_area":"1","focus_area_descr":"Poverty reduction & MDG achievement","lat":"13.68935","lon":"-89.18718","name":"Ministerio de Obras Publicas, El Salvador","outputID":"00074250","output_locID":"00074250-1","precision":"1","type":"PPLC"},{"awardID":"00059394","focus_area":"1","focus_area_descr":"Poverty reduction & MDG achievement","lat":"13.67694","lon":"-89.27972","name":"La Libertad","outputID":"00074250","output_locID":"00074250-2","precision":"3","type":"PPLA"},{"awardID":"00059394","focus_area":"1","focus_area_descr":"Poverty reduction & MDG achievement","lat":"13.70167","lon":"-89.10944","name":"Ilopango","outputID":"00074250","output_locID":"00074250-3","precision":"3","type":"PPL"},{"awardID":"00059394","focus_area":"1","focus_area_descr":"Poverty reduction & MDG achievement","lat":"13.68935","lon":"-89.18718","name":"San Salvador","outputID":"00074250","output_locID":"00074250-4","precision":"3","type":"PPLC"},{"awardID":"00059394","focus_area":"1","focus_area_descr":"Poverty reduction & MDG achievement","lat":"13.73472","lon":"-89.15139","name":"Soyapango","outputID":"00074250","output_locID":"00074250-5","precision":"3","type":"PPL"},{"awardID":"00059394","focus_area":"1","focus_area_descr":"Poverty reduction & MDG achievement","lat":"13.59833","lon":"-89.42028","name":"Tamanique","outputID":"00074250","output_locID":"00074250-6","precision":"3","type":"PPL"},{"awardID":"00059394","focus_area":"1","focus_area_descr":"Poverty reduction & MDG achievement","lat":"13.67333","lon":"-89.43972","name":"Jayaque","outputID":"00074250","output_locID":"00074250-7","precision":"3","type":"PPL"},{"awardID":"00059394","focus_area":"1","focus_area_descr":"Poverty reduction & MDG achievement","lat":"13.67333","lon":"-89.43972","name":"Jayaque","outputID":"00074250","output_locID":"00074250-8","precision":"3","type":"PPL"},{"awardID":"00059394","focus_area":"1","focus_area_descr":"Poverty reduction & MDG achievement","lat":"13.46667","lon":"-88.98333","name":"La Paz","outputID":"00074250","output_locID":"00074250-9","precision":"4","type":"ADM1"},{"awardID":"00059394","focus_area":"1","focus_area_descr":"Poverty reduction & MDG achievement","lat":"13.5","lon":"-88.86667","name":"Zacatecoluca","outputID":"00074250","output_locID":"00074250-10","precision":"3","type":"PPLA"},{"awardID":"00059394","focus_area":"1","focus_area_descr":"Poverty reduction & MDG achievement","lat":"13.71889","lon":"-89.72417","name":"Sonsonate","outputID":"00074250","output_locID":"00074250-11","precision":"3","type":"PPLA"},{"awardID":"00059394","focus_area":"1","focus_area_descr":"Poverty reduction & MDG achievement","lat":"13.87028","lon":"-89.84861","name":"Ataco","outputID":"00074250","output_locID":"00074250-12","precision":"3","type":"PPL"},{"awardID":"00059394","focus_area":"1","focus_area_descr":"Poverty reduction & MDG achievement","lat":"13.86667","lon":"-88.75","name":"Cabanas","outputID":"00074250","output_locID":"00074250-13","precision":"4","type":"ADM1"},{"awardID":"00059394","focus_area":"1","focus_area_descr":"Poverty reduction & MDG achievement","lat":"13.85","lon":"-88.9","name":"Tejutepeque","outputID":"00074250","output_locID":"00074250-14","precision":"3","type":"PPL"},{"awardID":"00059394","focus_area":"1","focus_area_descr":"Poverty reduction & MDG achievement","lat":"13.88333","lon":"-88.9","name":"Jutiapa","outputID":"00074250","output_locID":"00074250-15","precision":"3","type":"PPL"}],"title":"Dinamizaci\u00f3n de Economias Locales"},{"id":"00060180","subnational":[{"awardID":"00060180","focus_area":"3","focus_area_descr":"Crisis prevention & recovery","lat":"13.68935","lon":"-89.18718","name":"San Salvador","outputID":"00075672","output_locID":"00075672-1","precision":"3","type":"PPLC"},{"awardID":"00060180","focus_area":"3","focus_area_descr":"Crisis prevention & recovery","lat":"13.99417","lon":"-89.55972","name":"Santa Ana","outputID":"00075672","output_locID":"00075672-2","precision":"3","type":"PPLA"},{"awardID":"00060180","focus_area":"3","focus_area_descr":"Crisis prevention & recovery","lat":"13.98667","lon":"-89.68111","name":"Chalchuapa","outputID":"00075672","output_locID":"00075672-3","precision":"3","type":"PPL"},{"awardID":"00060180","focus_area":"3","focus_area_descr":"Crisis prevention & recovery","lat":"13.71889","lon":"-89.72417","name":"Sonsonate","outputID":"00075672","output_locID":"00075672-4","precision":"3","type":"PPLA"},{"awardID":"00060180","focus_area":"3","focus_area_descr":"Crisis prevention & recovery","lat":"13.88333","lon":"-88.83333","name":"Ilobasco","outputID":"00075672","output_locID":"00075672-5","precision":"3","type":"ADM2"},{"awardID":"00060180","focus_area":"3","focus_area_descr":"Crisis prevention & recovery","lat":"13.98667","lon":"-89.68111","name":"Chalchuapa","outputID":"00075672","output_locID":"00075672-6","precision":"3","type":"PPL"},{"awardID":"00060180","focus_area":"3","focus_area_descr":"Crisis prevention & recovery","lat":"13.98667","lon":"-89.68111","name":"Chalchuapa","outputID":"00075672","output_locID":"00075672-7","precision":"3","type":"PPL"},{"awardID":"00060180","focus_area":"3","focus_area_descr":"Crisis prevention & recovery","lat":"13.76667","lon":"-88.26667","name":"Ciudad Barrios","outputID":"00075672","output_locID":"00075672-8","precision":"3","type":"PPL"}],"title":"Energy Efficiency in Public Buildings"},{"id":"00045522","subnational":[{"awardID":"00045522","focus_area":"2","focus_area_descr":"Democratic governance","lat":"13.83333","lon":"-88.91667","name":"El Salvador","outputID":"00053790","output_locID":"00053790-1","precision":"9","type":"PCL"}],"title":"Fase II del Componente VIH/SIDA del Fondo Mundial"},{"id":"00059133","subnational":[{"awardID":"00059133","focus_area":"1","focus_area_descr":"Poverty reduction & MDG achievement","lat":"13.68935","lon":"-89.18718","name":"Instituto salvadoreno del Seguro Social","outputID":"00073852","output_locID":"00073852-1","precision":"3","type":"PPL"}],"title":"Fortalecimiento al Seguro Social en respuesta VIH/SIDA"},{"id":"00061024","subnational":[{"awardID":"00061024","focus_area":"1","focus_area_descr":"Poverty reduction & MDG achievement","lat":"13.68935","lon":"-89.18718","name":"Instituto Salvadoreno de Bien Estar MAgisterial","outputID":"00077096","output_locID":"00077096-1","precision":"3","type":"PPL"}],"title":"Fortalecimiento del Instituto de Bienestar Magisterial"},{"id":"00062099","subnational":[{"awardID":"00062099","focus_area":"1","focus_area_descr":"Poverty reduction & MDG achievement","lat":"13.68935","lon":"-89.18718","name":"San Salvador","outputID":"00079376","output_locID":"00079376-1","precision":"3","type":"PPLC"}],"title":"Fortalecimiento del mecanismo de coordinacion de pais"},{"id":"00068118","subnational":[{"awardID":"00068118","focus_area":"1","focus_area_descr":"Poverty reduction & MDG achievement","lat":"13.83333","lon":"-88.91667","name":"El Salvador","outputID":"00083506","output_locID":"00083506-1","precision":"9","type":"PCL"}],"title":"Fortalecimiento del Programa Nacional de Tuberculosis"},{"id":"00061325","subnational":[{"awardID":"00061325","focus_area":"3","focus_area_descr":"Crisis prevention & recovery","lat":"13.85","lon":"-88.3","name":"Carolina","outputID":"00077657","output_locID":"00077657-1","precision":"3","type":"PPL"},{"awardID":"00061325","focus_area":"3","focus_area_descr":"Crisis prevention & recovery","lat":"13.76667","lon":"-88.26667","name":"Ciudad Barrios","outputID":"00077657","output_locID":"00077657-2","precision":"3","type":"PPL"},{"awardID":"00061325","focus_area":"3","focus_area_descr":"Crisis prevention & recovery","lat":"13.71639","lon":"-89.73833","name":"San Antonio","outputID":"00077657","output_locID":"00077657-3","precision":"3","type":"PPL"},{"awardID":"00061325","focus_area":"3","focus_area_descr":"Crisis prevention & recovery","lat":"13.81667","lon":"-88.35","name":"San Luis de la Reina","outputID":"00077657","output_locID":"00077657-4","precision":"3","type":"PPL"},{"awardID":"00061325","focus_area":"3","focus_area_descr":"Crisis prevention & recovery","lat":"13.78333","lon":"-88.41667","name":"Sesori","outputID":"00077657","output_locID":"00077657-5","precision":"3","type":"ADM2"},{"awardID":"00061325","focus_area":"3","focus_area_descr":"Crisis prevention & recovery","lat":"13.63333","lon":"-88.26667","name":"Chapeltique","outputID":"00077657","output_locID":"00077657-6","precision":"3","type":"PPL"},{"awardID":"00061325","focus_area":"3","focus_area_descr":"Crisis prevention & recovery","lat":"13.83333","lon":"-88.91667","name":"El Salvador","outputID":"00077657","output_locID":"00077657-7","precision":"9","type":"PCL"},{"awardID":"00061325","focus_area":"3","focus_area_descr":"Crisis prevention & recovery","lat":"13.96667","lon":"-88.15","name":"Jocoaitique","outputID":"00077657","output_locID":"00077657-8","precision":"3","type":"ADM2"},{"awardID":"00061325","focus_area":"3","focus_area_descr":"Crisis prevention & recovery","lat":"13.86667","lon":"-88.21667","name":"Villa El Rosario","outputID":"00077657","output_locID":"00077657-9","precision":"3","type":"PPL"},{"awardID":"00061325","focus_area":"3","focus_area_descr":"Crisis prevention & recovery","lat":"13.91667","lon":"-88.13333","name":"Arambala","outputID":"00077657","output_locID":"00077657-10","precision":"3","type":"PPL"},{"awardID":"00061325","focus_area":"3","focus_area_descr":"Crisis prevention & recovery","lat":"13.95","lon":"-88.16667","name":"Perquin","outputID":"00077657","output_locID":"00077657-11","precision":"3","type":"PPL"},{"awardID":"00061325","focus_area":"3","focus_area_descr":"Crisis prevention & recovery","lat":"14.3","lon":"-89.03333","name":"San Fernando","outputID":"00077657","output_locID":"00077657-12","precision":"3","type":"PPL"},{"awardID":"00061325","focus_area":"3","focus_area_descr":"Crisis prevention & recovery","lat":"13.91667","lon":"-88.23333","name":"Torola","outputID":"00077657","output_locID":"00077657-13","precision":"3","type":"PPL"},{"awardID":"00061325","focus_area":"3","focus_area_descr":"Crisis prevention & recovery","lat":"13.76667","lon":"-88.08333","name":"Cacaopera","outputID":"00077657","output_locID":"00077657-14","precision":"3","type":"PPL"},{"awardID":"00061325","focus_area":"3","focus_area_descr":"Crisis prevention & recovery","lat":"13.81083","lon":"-87.97139","name":"Corinto","outputID":"00077657","output_locID":"00077657-15","precision":"3","type":"PPL"},{"awardID":"00061325","focus_area":"3","focus_area_descr":"Crisis prevention & recovery","lat":"13.9","lon":"-88.05","name":"Joateca","outputID":"00077657","output_locID":"00077657-16","precision":"3","type":"PPL"}],"title":"Gobernabilidad y Sostenibilidad de Agua y Saneamiento"},{"id":"00050253","subnational":[{"awardID":"00050253","focus_area":"-","focus_area_descr":"-","lat":"13.83333","lon":"-88.91667","name":"El Salvador","outputID":"00061981","output_locID":"00061981-1","precision":"9","type":"PCL"}],"title":"Hacia la Participaci\u00f3n Pol\u00edtica de las Mujeres"},{"id":"00050369","subnational":[{"awardID":"00050369","focus_area":"1","focus_area_descr":"Poverty reduction & MDG achievement","lat":"13.83333","lon":"-88.91667","name":"El Salvador","outputID":"00062190","output_locID":"00062190-1","precision":"9","type":"PCL"}],"title":"Informes sobre Desarrollo Humano El Salvador"},{"id":"00061339","subnational":[{"awardID":"00061339","focus_area":"3","focus_area_descr":"Crisis prevention & recovery","lat":"13.31667","lon":"-88.58333","name":"Jiquilisco","outputID":"00077678","output_locID":"00077678-1","precision":"3","type":"PPL"},{"awardID":"00061339","focus_area":"3","focus_area_descr":"Crisis prevention & recovery","lat":"13.28333","lon":"-88.55","name":"Puerto El Triunfo","outputID":"00077678","output_locID":"00077678-2","precision":"3","type":"PPL"},{"awardID":"00061339","focus_area":"3","focus_area_descr":"Crisis prevention & recovery","lat":"13.28333","lon":"-88.46667","name":"San Dionisio","outputID":"00077678","output_locID":"00077678-3","precision":"3","type":"PPL"},{"awardID":"00061339","focus_area":"3","focus_area_descr":"Crisis prevention & recovery","lat":"13.35","lon":"-88.45","name":"Usulutan","outputID":"00077678","output_locID":"00077678-4","precision":"3","type":"PPLA"},{"awardID":"00061339","focus_area":"3","focus_area_descr":"Crisis prevention & recovery","lat":"13.48833","lon":"-89.32222","name":"Puerto La Libertad","outputID":"00077678","output_locID":"00077678-5","precision":"3","type":"PPL"},{"awardID":"00061339","focus_area":"3","focus_area_descr":"Crisis prevention & recovery","lat":"13.59833","lon":"-89.42028","name":"Tamanique","outputID":"00077678","output_locID":"00077678-6","precision":"3","type":"PPL"},{"awardID":"00061339","focus_area":"3","focus_area_descr":"Crisis prevention & recovery","lat":"13.30778","lon":"-87.86472","name":"Conchagua","outputID":"00077678","output_locID":"00077678-7","precision":"3","type":"PPL"},{"awardID":"00061339","focus_area":"3","focus_area_descr":"Crisis prevention & recovery","lat":"13.19694","lon":"-88.05444","name":"Intipuca","outputID":"00077678","output_locID":"00077678-8","precision":"3","type":"PPL"},{"awardID":"00061339","focus_area":"3","focus_area_descr":"Crisis prevention & recovery","lat":"13.17972","lon":"-87.6975","name":"Meanguera del Golfo","outputID":"00077678","output_locID":"00077678-9","precision":"3","type":"PPL"},{"awardID":"00061339","focus_area":"3","focus_area_descr":"Crisis prevention & recovery","lat":"13.58444","lon":"-87.84111","name":"Pasaquina","outputID":"00077678","output_locID":"00077678-10","precision":"3","type":"PPL"},{"awardID":"00061339","focus_area":"3","focus_area_descr":"Crisis prevention & recovery","lat":"13.43139","lon":"-87.96306","name":"San Alejo","outputID":"00077678","output_locID":"00077678-11","precision":"3","type":"PPL"},{"awardID":"00061339","focus_area":"3","focus_area_descr":"Crisis prevention & recovery","lat":"13.59278","lon":"-89.8275","name":"Acajutla","outputID":"00077678","output_locID":"00077678-12","precision":"3","type":"PPL"},{"awardID":"00061339","focus_area":"3","focus_area_descr":"Crisis prevention & recovery","lat":"13.84306","lon":"-90.01583","name":"San Francisco Menendez","outputID":"00077678","output_locID":"00077678-13","precision":"3","type":"PPL"},{"awardID":"00061339","focus_area":"3","focus_area_descr":"Crisis prevention & recovery","lat":"13.78694","lon":"-89.85722","name":"Jujutla","outputID":"00077678","output_locID":"00077678-14","precision":"3","type":"PPL"},{"awardID":"00061339","focus_area":"3","focus_area_descr":"Crisis prevention & recovery","lat":"13.35448","lon":"-88.94703","name":"San Luis La Herradura","outputID":"00077678","output_locID":"00077678-15","precision":"3","type":"PPL"},{"awardID":"00061339","focus_area":"3","focus_area_descr":"Crisis prevention & recovery","lat":"13.53333","lon":"-88.78333","name":"Tecoluca","outputID":"00077678","output_locID":"00077678-16","precision":"3","type":"PPL"},{"awardID":"00061339","focus_area":"3","focus_area_descr":"Crisis prevention & recovery","lat":"13.5","lon":"-88.86667","name":"Zacatecoluca","outputID":"00077678","output_locID":"00077678-17","precision":"3","type":"PPLA"},{"awardID":"00061339","focus_area":"3","focus_area_descr":"Crisis prevention & recovery","lat":"13.22028","lon":"-88.13861","name":"Chirilagua","outputID":"00077678","output_locID":"00077678-18","precision":"3","type":"PPL"}],"title":"Integraci\u00f3n de la Biodiversidad en Pesca y Turismo"},{"id":"00057473","subnational":[{"awardID":"00057473","focus_area":"2","focus_area_descr":"Democratic governance","lat":"14.03333","lon":"-88.93333","name":"Chalatenango","outputID":"00071021","output_locID":"00071021-1","precision":"3","type":"PPLA"},{"awardID":"00057473","focus_area":"2","focus_area_descr":"Democratic governance","lat":"13.67694","lon":"-89.27972","name":"La Libertad","outputID":"00071021","output_locID":"00071021-2","precision":"3","type":"PPLA"},{"awardID":"00057473","focus_area":"2","focus_area_descr":"Democratic governance","lat":"13.58944","lon":"-89.28889","name":"Zaragoza, El Salvador","outputID":"00071021","output_locID":"00071021-3","precision":"3","type":"PPL"},{"awardID":"00057473","focus_area":"2","focus_area_descr":"Democratic governance","lat":"13.65889","lon":"-89.18306","name":"San Marcos","outputID":"00071021","output_locID":"00071021-4","precision":"4","type":"PPL"},{"awardID":"00057473","focus_area":"2","focus_area_descr":"Democratic governance","lat":"13.68935","lon":"-89.18718","name":"San Salvador","outputID":"00071021","output_locID":"00071021-5","precision":"3","type":"PPLC"},{"awardID":"00057473","focus_area":"2","focus_area_descr":"Democratic governance","lat":"13.5","lon":"-88.86667","name":"Zacatecoluca","outputID":"00071021","output_locID":"00071021-6","precision":"4","type":"ADM1"}],"title":"Integraci\u00f3n en Educaci\u00f3n Basica"},{"id":"00075634","subnational":[{"awardID":"00075634","focus_area":"1","focus_area_descr":"Poverty reduction & MDG achievement","lat":"13.83333","lon":"-88.91667","name":"El Salvador","outputID":"00087428","output_locID":"00087428-1","precision":"9","type":"PCL"}],"title":"Joint Migration & Development Initiative II-El Salvador"},{"id":"00062852","subnational":[{"awardID":"00062852","focus_area":"1","focus_area_descr":"Poverty reduction & MDG achievement","lat":"13.83333","lon":"-88.91667","name":"El Salvador","outputID":"00080224","output_locID":"00080224-1","precision":"9","type":"PCL"}],"title":"Lucha contra VIH en poblaciones vulnerables consolidado"},{"id":"00069442","subnational":[{"awardID":"00069442","focus_area":"2","focus_area_descr":"Democratic governance","lat":"13.46667","lon":"-88.98333","name":"La Paz","outputID":"00084021","output_locID":"00084021-1","precision":"4","type":"ADM1"},{"awardID":"00069442","focus_area":"2","focus_area_descr":"Democratic governance","lat":"13.55","lon":"-87.9","name":"La Union","outputID":"00084021","output_locID":"00084021-2","precision":"4","type":"ADM1"},{"awardID":"00069442","focus_area":"2","focus_area_descr":"Democratic governance","lat":"13.68935","lon":"-89.18718","name":"San Salvador","outputID":"00084021","output_locID":"00084021-3","precision":"3","type":"PPL"},{"awardID":"00069442","focus_area":"2","focus_area_descr":"Democratic governance","lat":"13.71889","lon":"-89.72417","name":"Sonsonate","outputID":"00084021","output_locID":"00084021-4","precision":"3","type":"PPLA"}],"title":"Modernizacion y Gestion de los activos estrategicos"},{"id":"00070764","subnational":[{"awardID":"00070764","focus_area":"1","focus_area_descr":"Poverty reduction & MDG achievement","lat":"13.83333","lon":"-88.91667","name":"El Salvador","outputID":"00084597","output_locID":"00084597-1","precision":"9","type":"PCL"}],"title":"Optimizaci\u00f3n gasto e inversi\u00f3n social en VIH Min Salud"},{"id":"00050364","subnational":[{"awardID":"00050364","focus_area":"2","focus_area_descr":"Democratic governance","lat":"13.83333","lon":"-88.91667","name":"El Salvador","outputID":"00062185","output_locID":"00062185-1","precision":"9","type":"PCL"}],"title":"Pacto por la Igualdad de G\u00e9nero"},{"id":"00069515","subnational":[{"awardID":"00069515","focus_area":"3","focus_area_descr":"Crisis prevention & recovery","lat":"13.83333","lon":"-88.91667","name":"El Salvador","outputID":"00084054","output_locID":"00084054-1","precision":"9","type":"PCL"},{"awardID":"00069515","focus_area":"3","focus_area_descr":"Crisis prevention & recovery","lat":"13.83333","lon":"-88.91667","name":"El Salvador","outputID":"00084055","output_locID":"00084055-1","precision":"9","type":"PCL"}],"title":"Plan de Eliminaci\u00f3n de los HCFC en El Salvador"},{"id":"00068999","subnational":[{"awardID":"00068999","focus_area":"3","focus_area_descr":"Crisis prevention & recovery","lat":"13.83333","lon":"-88.91667","name":"El Salvador","outputID":"00083836","output_locID":"00083836-1","precision":"9","type":"PCL"}],"title":"Planificacion Biodiversidad Apoyo Plan Estrategico"},{"id":"00060122","subnational":[{"awardID":"00060122","focus_area":"1","focus_area_descr":"Poverty reduction & MDG achievement","lat":"13.83333","lon":"-88.91667","name":"El Salvador","outputID":"00075553","output_locID":"00075553-1","precision":"9","type":"PCL"}],"title":"PREVENCION Y CONTROL TB EN POBLACIONES VULNERABLES"},{"id":"00048860","subnational":[{"awardID":"00048860","focus_area":"1","focus_area_descr":"Poverty reduction & MDG achievement","lat":"13.83333","lon":"-88.91667","name":"El Salvador","outputID":"00059206","output_locID":"00059206-1","precision":"9","type":"PCL"}],"title":"PROGRAMA DE DESARROLLO DE PROVEEDORES"},{"id":"00067984","subnational":[{"awardID":"00067984","focus_area":"2","focus_area_descr":"Democratic governance","lat":"13.83333","lon":"-88.91667","name":"El Salvador","outputID":"00083438","output_locID":"00083438-1","precision":"9","type":"PCL"},{"awardID":"00067984","focus_area":"2","focus_area_descr":"Democratic governance","lat":"13.83333","lon":"-88.91667","name":"El Salvador","outputID":"00084274","output_locID":"00084274-1","precision":"9","type":"PCL"},{"awardID":"00067984","focus_area":"2","focus_area_descr":"Democratic governance","lat":"13.83333","lon":"-88.91667","name":"El Salvador","outputID":"00084275","output_locID":"00084275-1","precision":"9","type":"PCL"}],"title":"Programa Gobernabilidad Local"},{"id":"00059775","subnational":[{"awardID":"00059775","focus_area":"1","focus_area_descr":"Poverty reduction & MDG achievement","lat":"13.83333","lon":"-88.91667","name":"El Salvador","outputID":"00074924","output_locID":"00074924-1","precision":"9","type":"PCL"}],"title":"Programa seguridad alimentaria y nutricional"},{"id":"00059195","subnational":[{"awardID":"00059195","focus_area":"1","focus_area_descr":"Poverty reduction & MDG achievement","lat":"13.68935","lon":"-89.18718","name":"San Vicente","outputID":"00073968","output_locID":"00073968-1","precision":"3","type":"PPLC"},{"awardID":"00059195","focus_area":"1","focus_area_descr":"Poverty reduction & MDG achievement","lat":"13.68935","lon":"-89.18718","name":"San Vicente","outputID":"00073968","output_locID":"00073968-2","precision":"3","type":"PPLC"}],"title":"Proyecto Desarrollo y Modernizacion Rural Region Central"},{"id":"00057145","subnational":[{"awardID":"00057145","focus_area":"1","focus_area_descr":"Poverty reduction & MDG achievement","lat":"13.48333","lon":"-88.18333","name":"San Miguel","outputID":"00070494","output_locID":"00070494-1","precision":"3","type":"PPLA"}],"title":"PROYECTO DESARROLLO Y MODERNIZACION RURAL REGION ORIENTE"},{"id":"00060460","subnational":[{"awardID":"00060460","focus_area":"1","focus_area_descr":"Poverty reduction & MDG achievement","lat":"13.83333","lon":"-88.91667","name":"El Salvador","outputID":"00076139","output_locID":"00076139-1","precision":"9","type":"PCL"}],"title":"Redes Territoriales y desarrollo humano"},{"id":"00062948","subnational":[{"awardID":"00062948","focus_area":"3","focus_area_descr":"Crisis prevention & recovery","lat":"13.35","lon":"-88.45","name":"Usulutan","outputID":"00080265","output_locID":"00080265-1","precision":"3","type":"PPLA"},{"awardID":"00062948","focus_area":"3","focus_area_descr":"Crisis prevention & recovery","lat":"13.28333","lon":"-88.46667","name":"San Dionisio","outputID":"00080265","output_locID":"00080265-2","precision":"3","type":"PPL"},{"awardID":"00062948","focus_area":"3","focus_area_descr":"Crisis prevention & recovery","lat":"13.28333","lon":"-88.55","name":"Puerto El Triunfo","outputID":"00080265","output_locID":"00080265-3","precision":"3","type":"PPL"},{"awardID":"00062948","focus_area":"3","focus_area_descr":"Crisis prevention & recovery","lat":"13.31667","lon":"-88.58333","name":"Jiquilisco","outputID":"00080265","output_locID":"00080265-4","precision":"3","type":"PPL"}],"title":"Respuesta a los da\u00f1os causados por Tormenta Tropical 12E"},{"id":"00057674","subnational":[{"awardID":"00057674","focus_area":"-","focus_area_descr":"-","lat":"13.83333","lon":"-88.91667","name":"El Salvador","outputID":"00071357","output_locID":"00071357-1","precision":"9","type":"PCL"}],"title":"Ronda de Continuaci\u00f3n de Financiamiento Fondo Global"},{"id":"00070673","subnational":[{"awardID":"00070673","focus_area":"1","focus_area_descr":"Poverty reduction & MDG achievement","lat":"13.83333","lon":"-88.91667","name":"El Salvador","outputID":"00084527","output_locID":"00084527-1","precision":"9","type":"PCL"}],"title":"Seamos Productivos"},{"id":"00060623","subnational":[{"awardID":"00060623","focus_area":"2","focus_area_descr":"Democratic governance","lat":"13.83333","lon":"-88.91667","name":"El Salvador","outputID":"00077646","output_locID":"00077646-1","precision":"9","type":"PCL"}],"title":"Transparencia y Accountability"},{"id":"00059340","subnational":[{"awardID":"00059340","focus_area":"2","focus_area_descr":"Democratic governance","lat":"13.83333","lon":"-88.91667","name":"El Salvador","outputID":"00074175","output_locID":"00074175-1","precision":"9","type":"PCL"}],"title":"Un nuevo Contrato Social"},{"id":"00069424","subnational":[{"awardID":"00069424","focus_area":"2","focus_area_descr":"Democratic governance","lat":"13.68935","lon":"-89.18718","name":"San Salvador","outputID":"00084012","output_locID":"00084012-1","precision":"3","type":"PPL"},{"awardID":"00069424","focus_area":"2","focus_area_descr":"Democratic governance","lat":"13.67694","lon":"-89.27972","name":"La Libertad","outputID":"00084012","output_locID":"00084012-2","precision":"3","type":"PPLA"},{"awardID":"00069424","focus_area":"2","focus_area_descr":"Democratic governance","lat":"13.71889","lon":"-89.72417","name":"Sonsonate","outputID":"00084012","output_locID":"00084012-3","precision":"3","type":"PPLA"},{"awardID":"00069424","focus_area":"2","focus_area_descr":"Democratic governance","lat":"13.99417","lon":"-89.55972","name":"Santa Ana","outputID":"00084012","output_locID":"00084012-4","precision":"3","type":"PPLA"},{"awardID":"00069424","focus_area":"2","focus_area_descr":"Democratic governance","lat":"13.86667","lon":"-89.91667","name":"Ahuachapan","outputID":"00084012","output_locID":"00084012-5","precision":"4","type":"ADM1"}],"title":"Voto Residencial"},{"id":"00012408","subnational":[],"title":"Acceso Agua Potable San Francisco Gotera"},{"id":"00049968","subnational":[{"awardID":"00049968","focus_area":"-","focus_area_descr":"-","lat":"13.83333","lon":"-88.91667","name":"El Salvador","outputID":"00061450","output_locID":"00061450-1","precision":"9","type":"PCL"}],"title":"Analisis y Escenarios Gobernabilidad"},{"id":"00046458","subnational":[],"title":"Apoyo a la Formulaci\u00f3n de Pol\u00edticas P\u00fablicas"},{"id":"00036748","subnational":[],"title":"Asistencia al Instituto Salvadore\u00f1o del Seguro Social"},{"id":"00057039","subnational":[],"title":"Biodiversidad Pesca y Turismo"},{"id":"00057928","subnational":[],"title":"Ciudad Segura para Convivir"},{"id":"00056902","subnational":[],"title":"Consejo Economico Social I"},{"id":"00047610","subnational":[],"title":"Fomento a la Seguridad Ciudadana Sonsonate."},{"id":"00050738","subnational":[{"awardID":"00050738","focus_area":"-","focus_area_descr":"-","lat":"13.83333","lon":"-88.91667","name":"El Salvador","outputID":"00062805","output_locID":"00062805-1","precision":"9","type":"PCL"}],"title":"FONDO GLOBAL VIH RONDA 7"},{"id":"00050082","subnational":[],"title":"Fortalecimiento de Capacidades Nacionales"},{"id":"00050011","subnational":[],"title":"Fortalecimiento de las capacidades nacionales y locales"},{"id":"00047464","subnational":[{"awardID":"00047464","focus_area":"-","focus_area_descr":"-","lat":"13.83333","lon":"-88.91667","name":"El Salvador","outputID":"00057021","output_locID":"00057021-1","precision":"9","type":"PCL"}],"title":"FORTALECIMIENTO PARA LA GESTION DE RIESGO"},{"id":"00048926","subnational":[{"awardID":"00048926","focus_area":"-","focus_area_descr":"-","lat":"13.83333","lon":"-88.91667","name":"El Salvador","outputID":"00059318","output_locID":"00059318-1","precision":"9","type":"PCL"},{"awardID":"00048926","focus_area":"-","focus_area_descr":"-","lat":"13.83333","lon":"-88.91667","name":"El Salvador","outputID":"00059320","output_locID":"00059320-1","precision":"9","type":"PCL"},{"awardID":"00048926","focus_area":"-","focus_area_descr":"-","lat":"13.83333","lon":"-88.91667","name":"El Salvador","outputID":"00059321","output_locID":"00059321-1","precision":"9","type":"PCL"}],"title":"Human Development & Migration in El Salvador"},{"id":"00042509","subnational":[],"title":"Management Plan"},{"id":"00057254","subnational":[],"title":"MDG Based Planning"},{"id":"00043844","subnational":[{"awardID":"00043844","focus_area":"-","focus_area_descr":"-","lat":"13.83333","lon":"-88.91667","name":"El Salvador","outputID":"00051339","output_locID":"00051339-1","precision":"9","type":"PCL"}],"title":"PLAN IMPLEMENTACION COMPUESTOS ORGANICOS PERSISTENTE"},{"id":"00049560","subnational":[],"title":"Plan Manejo Fase Terminal CloroFluoroCarbono"},{"id":"00012403","subnational":[],"title":"Programa Reconstrucci\u00f3n y Modernizacion Rural Occidente"},{"id":"00044453","subnational":[{"awardID":"00044453","focus_area":"-","focus_area_descr":"-","lat":"13.83333","lon":"-88.91667","name":"El Salvador","outputID":"00052272","output_locID":"00052272-1","precision":"9","type":"PCL"}],"title":"Segunda Comunicaci\u00f3n Cambio Climatico"},{"id":"00049968","subnational":[{"awardID":"00049968","focus_area":"-","focus_area_descr":"-","lat":"13.83333","lon":"-88.91667","name":"El Salvador","outputID":"00061450","output_locID":"00061450-1","precision":"9","type":"PCL"}],"title":"Analisis y Escenarios Gobernabilidad"},{"id":"00047610","subnational":[],"title":"Fomento a la Seguridad Ciudadana Sonsonate."},{"id":"00050738","subnational":[{"awardID":"00050738","focus_area":"-","focus_area_descr":"-","lat":"13.83333","lon":"-88.91667","name":"El Salvador","outputID":"00062805","output_locID":"00062805-1","precision":"9","type":"PCL"}],"title":"FONDO GLOBAL VIH RONDA 7"},{"id":"00050011","subnational":[],"title":"Fortalecimiento de las capacidades nacionales y locales"},{"id":"00047464","subnational":[{"awardID":"00047464","focus_area":"-","focus_area_descr":"-","lat":"13.83333","lon":"-88.91667","name":"El Salvador","outputID":"00057021","output_locID":"00057021-1","precision":"9","type":"PCL"}],"title":"FORTALECIMIENTO PARA LA GESTION DE RIESGO"},{"id":"00048926","subnational":[{"awardID":"00048926","focus_area":"-","focus_area_descr":"-","lat":"13.83333","lon":"-88.91667","name":"El Salvador","outputID":"00059318","output_locID":"00059318-1","precision":"9","type":"PCL"},{"awardID":"00048926","focus_area":"-","focus_area_descr":"-","lat":"13.83333","lon":"-88.91667","name":"El Salvador","outputID":"00059320","output_locID":"00059320-1","precision":"9","type":"PCL"},{"awardID":"00048926","focus_area":"-","focus_area_descr":"-","lat":"13.83333","lon":"-88.91667","name":"El Salvador","outputID":"00059321","output_locID":"00059321-1","precision":"9","type":"PCL"}],"title":"Human Development & Migration in El Salvador"},{"id":"00042509","subnational":[],"title":"Management Plan"},{"id":"00043844","subnational":[{"awardID":"00043844","focus_area":"-","focus_area_descr":"-","lat":"13.83333","lon":"-88.91667","name":"El Salvador","outputID":"00051339","output_locID":"00051339-1","precision":"9","type":"PCL"}],"title":"PLAN IMPLEMENTACION COMPUESTOS ORGANICOS PERSISTENTE"},{"id":"00012403","subnational":[],"title":"Programa Reconstrucci\u00f3n y Modernizacion Rural Occidente"},{"id":"00044453","subnational":[{"awardID":"00044453","focus_area":"-","focus_area_descr":"-","lat":"13.83333","lon":"-88.91667","name":"El Salvador","outputID":"00052272","output_locID":"00052272-1","precision":"9","type":"PCL"}],"title":"Segunda Comunicaci\u00f3n Cambio Climatico"}]}