{"iso_num": null, "projects": [{"title": "management plan", "id": "00042509", "subnational": [{"outputID": "00049109", "output_locID": "00049109-1", "name": "San Salvador", "focus_area": "9", "lat": "13.689350", "type": "PPLC", "awardID": "00042509", "lon": "-89.187180", "precision": "1", "focus_area_descr": "Organizational Results Area 2"}]}, {"title": "proyecto apoyo a la direcci\u00f3n general de migraci\u00f3n y extranjer\u00eda - fase ii fortalecimiento de capacidades de la dgme para la modernizaci\u00f3n del sistema de emisi\u00f3n de pasaportes de la rep\u00fablica de el salvador", "id": "00050368", "subnational": [{"outputID": "00062189", "output_locID": "00062189-1", "name": "San Salvador", "focus_area": "3", "lat": "13.689350", "type": "PPLC", "awardID": "00050368", "lon": "-89.187180", "precision": "1", "focus_area_descr": "Basic Services"}]}, {"title": "proyecto desarrollo y modernizacion rural region oriente", "id": "00057145", "subnational": [{"outputID": "00070494", "output_locID": "00070494-1", "name": "Yamabal", "focus_area": "1", "lat": "13.666670", "type": "PPL", "awardID": "00057145", "lon": "-88.166670", "precision": "1", "focus_area_descr": "Inclusive Growth"}, {"outputID": "00070494", "output_locID": "00070494-2", "name": "Torola", "focus_area": "1", "lat": "13.916670", "type": "PPL", "awardID": "00057145", "lon": "-88.233330", "precision": "1", "focus_area_descr": "Inclusive Growth"}, {"outputID": "00070494", "output_locID": "00070494-3", "name": "Sesori", "focus_area": "1", "lat": "13.716670", "type": "PPL", "awardID": "00057145", "lon": "-88.366670", "precision": "1", "focus_area_descr": "Inclusive Growth"}, {"outputID": "00070494", "output_locID": "00070494-4", "name": "San Sim\u00f3n", "focus_area": "1", "lat": "13.833330", "type": "PPL", "awardID": "00057145", "lon": "-88.233330", "precision": "1", "focus_area_descr": "Inclusive Growth"}, {"outputID": "00070494", "output_locID": "00070494-5", "name": "San Jorge", "focus_area": "1", "lat": "13.683330", "type": "PPL", "awardID": "00057145", "lon": "-88.383330", "precision": "1", "focus_area_descr": "Inclusive Growth"}, {"outputID": "00070494", "output_locID": "00070494-6", "name": "San Isidro", "focus_area": "1", "lat": "13.850000", "type": "PPL", "awardID": "00057145", "lon": "-88.233330", "precision": "1", "focus_area_descr": "Inclusive Growth"}, {"outputID": "00070494", "output_locID": "00070494-7", "name": "San Gerardo", "focus_area": "1", "lat": "13.800000", "type": "PPL", "awardID": "00057145", "lon": "-88.400000", "precision": "1", "focus_area_descr": "Inclusive Growth"}, {"outputID": "00070494", "output_locID": "00070494-8", "name": "San Fernando", "focus_area": "1", "lat": "13.966670", "type": "PPL", "awardID": "00057145", "lon": "-88.200000", "precision": "1", "focus_area_descr": "Inclusive Growth"}, {"outputID": "00070494", "output_locID": "00070494-9", "name": "San Antonio", "focus_area": "1", "lat": "13.833330", "type": "PPL", "awardID": "00057145", "lon": "-88.266670", "precision": "1", "focus_area_descr": "Inclusive Growth"}, {"outputID": "00070494", "output_locID": "00070494-10", "name": "Joateca", "focus_area": "1", "lat": "13.900000", "type": "PPL", "awardID": "00057145", "lon": "-88.050000", "precision": "1", "focus_area_descr": "Inclusive Growth"}, {"outputID": "00070494", "output_locID": "00070494-11", "name": "Guatajiagua", "focus_area": "1", "lat": "13.666670", "type": "PPL", "awardID": "00057145", "lon": "-88.200000", "precision": "1", "focus_area_descr": "Inclusive Growth"}, {"outputID": "00070494", "output_locID": "00070494-12", "name": "Gualococti", "focus_area": "1", "lat": "13.816670", "type": "PPL", "awardID": "00057145", "lon": "-88.216670", "precision": "1", "focus_area_descr": "Inclusive Growth"}, {"outputID": "00070494", "output_locID": "00070494-13", "name": "Corinto", "focus_area": "1", "lat": "13.810830", "type": "PPL", "awardID": "00057145", "lon": "-87.971390", "precision": "1", "focus_area_descr": "Inclusive Growth"}, {"outputID": "00070494", "output_locID": "00070494-14", "name": "Ciudad Barrios", "focus_area": "1", "lat": "13.766670", "type": "PPL", "awardID": "00057145", "lon": "-88.266670", "precision": "1", "focus_area_descr": "Inclusive Growth"}, {"outputID": "00070494", "output_locID": "00070494-15", "name": "Chilanga", "focus_area": "1", "lat": "13.716670", "type": "PPL", "awardID": "00057145", "lon": "-88.116670", "precision": "1", "focus_area_descr": "Inclusive Growth"}, {"outputID": "00070494", "output_locID": "00070494-16", "name": "Carolina", "focus_area": "1", "lat": "13.850000", "type": "PPL", "awardID": "00057145", "lon": "-88.300000", "precision": "1", "focus_area_descr": "Inclusive Growth"}, {"outputID": "00070494", "output_locID": "00070494-17", "name": "Cacaopera", "focus_area": "1", "lat": "13.766670", "type": "PPL", "awardID": "00057145", "lon": "-88.083330", "precision": "1", "focus_area_descr": "Inclusive Growth"}, {"outputID": "00070494", "output_locID": "00070494-18", "name": "Arambala", "focus_area": "1", "lat": "13.916670", "type": "PPL", "awardID": "00057145", "lon": "-88.133330", "precision": "1", "focus_area_descr": "Inclusive Growth"}]}, {"title": "proyecto desarrollo y modernizacion rural region central", "id": "00059195", "subnational": [{"outputID": "00091895", "output_locID": "00091895-1", "name": "San Salvador", "focus_area": "1", "lat": "13.689350", "type": "PPLC", "awardID": "00059195", "lon": "-89.187180", "precision": "1", "focus_area_descr": "Inclusive Growth"}, {"outputID": "00073968", "output_locID": "00073968-1", "name": "San Salvador", "focus_area": "1", "lat": "13.689350", "type": "PPLC", "awardID": "00059195", "lon": "-89.187180", "precision": "1", "focus_area_descr": "Inclusive Growth"}]}, {"title": "dinamizaci\u00f3n de economias locales", "id": "00059394", "subnational": [{"outputID": "00074250", "output_locID": "00074250-1", "name": "Zacatecoluca", "focus_area": "1", "lat": "13.500000", "type": "PPLA", "awardID": "00059394", "lon": "-88.866670", "precision": "1", "focus_area_descr": "Inclusive Growth"}, {"outputID": "00074250", "output_locID": "00074250-2", "name": "Tejutepeque", "focus_area": "1", "lat": "13.850000", "type": "PPL", "awardID": "00059394", "lon": "-88.900000", "precision": "1", "focus_area_descr": "Inclusive Growth"}, {"outputID": "00074250", "output_locID": "00074250-3", "name": "Tamanique", "focus_area": "1", "lat": "13.598330", "type": "PPL", "awardID": "00059394", "lon": "-89.420280", "precision": "1", "focus_area_descr": "Inclusive Growth"}, {"outputID": "00074250", "output_locID": "00074250-4", "name": "Soyapango", "focus_area": "1", "lat": "13.710240", "type": "PPL", "awardID": "00059394", "lon": "-89.139890", "precision": "1", "focus_area_descr": "Inclusive Growth"}, {"outputID": "00074250", "output_locID": "00074250-5", "name": "Sonsonate", "focus_area": "1", "lat": "13.718890", "type": "PPLA", "awardID": "00059394", "lon": "-89.724170", "precision": "1", "focus_area_descr": "Inclusive Growth"}, {"outputID": "00074250", "output_locID": "00074250-6", "name": "San Salvador", "focus_area": "1", "lat": "13.689350", "type": "PPLC", "awardID": "00059394", "lon": "-89.187180", "precision": "1", "focus_area_descr": "Inclusive Growth"}, {"outputID": "00074250", "output_locID": "00074250-7", "name": "Departamento de La Paz", "focus_area": "1", "lat": "13.466670", "type": "ADM1", "awardID": "00059394", "lon": "-88.983330", "precision": "1", "focus_area_descr": "Inclusive Growth"}, {"outputID": "00074250", "output_locID": "00074250-8", "name": "Departamento de La Libertad", "focus_area": "1", "lat": "13.750000", "type": "ADM1", "awardID": "00059394", "lon": "-89.383330", "precision": "1", "focus_area_descr": "Inclusive Growth"}, {"outputID": "00074250", "output_locID": "00074250-9", "name": "Jutiapa", "focus_area": "1", "lat": "13.883330", "type": "PPL", "awardID": "00059394", "lon": "-88.900000", "precision": "1", "focus_area_descr": "Inclusive Growth"}, {"outputID": "00074250", "output_locID": "00074250-10", "name": "Jayaque", "focus_area": "1", "lat": "13.673330", "type": "PPL", "awardID": "00059394", "lon": "-89.439720", "precision": "1", "focus_area_descr": "Inclusive Growth"}, {"outputID": "00074250", "output_locID": "00074250-11", "name": "Ilopango", "focus_area": "1", "lat": "13.701670", "type": "PPL", "awardID": "00059394", "lon": "-89.109440", "precision": "1", "focus_area_descr": "Inclusive Growth"}, {"outputID": "00074250", "output_locID": "00074250-12", "name": "Concepci\u00f3n de Ataco", "focus_area": "1", "lat": "13.870280", "type": "PPL", "awardID": "00059394", "lon": "-89.848610", "precision": "1", "focus_area_descr": "Inclusive Growth"}, {"outputID": "00074250", "output_locID": "00074250-13", "name": "Departamento de Caba\u00f1as", "focus_area": "1", "lat": "13.866670", "type": "ADM1", "awardID": "00059394", "lon": "-88.750000", "precision": "1", "focus_area_descr": "Inclusive Growth"}]}, {"title": "consolidacion estrategia atencion a la pobreza en el salvador", "id": "00061663", "subnational": [{"outputID": "00078229", "output_locID": "00078229-1", "name": "San Salvador", "focus_area": "1", "lat": "13.689350", "type": "PPLC", "awardID": "00061663", "lon": "-89.187180", "precision": "1", "focus_area_descr": "Inclusive Growth"}, {"outputID": "00082508", "output_locID": "00082508-1", "name": "Zacatecoluca", "focus_area": "1", "lat": "13.500000", "type": "PPLA", "awardID": "00061663", "lon": "-88.866670", "precision": "1", "focus_area_descr": "Inclusive Growth"}, {"outputID": "00082508", "output_locID": "00082508-2", "name": "Soyapango", "focus_area": "1", "lat": "13.710240", "type": "PPL", "awardID": "00061663", "lon": "-89.139890", "precision": "1", "focus_area_descr": "Inclusive Growth"}, {"outputID": "00082508", "output_locID": "00082508-3", "name": "Sonsonate", "focus_area": "1", "lat": "13.718890", "type": "PPLA", "awardID": "00061663", "lon": "-89.724170", "precision": "1", "focus_area_descr": "Inclusive Growth"}, {"outputID": "00082508", "output_locID": "00082508-4", "name": "San Vicente", "focus_area": "1", "lat": "14.150000", "type": "PPL", "awardID": "00061663", "lon": "-89.666670", "precision": "1", "focus_area_descr": "Inclusive Growth"}, {"outputID": "00082508", "output_locID": "00082508-5", "name": "Santa Ana", "focus_area": "1", "lat": "13.994170", "type": "PPLA", "awardID": "00061663", "lon": "-89.559720", "precision": "1", "focus_area_descr": "Inclusive Growth"}, {"outputID": "00082508", "output_locID": "00082508-6", "name": "San Miguel", "focus_area": "1", "lat": "13.483330", "type": "PPLA", "awardID": "00061663", "lon": "-88.183330", "precision": "1", "focus_area_descr": "Inclusive Growth"}, {"outputID": "00082508", "output_locID": "00082508-7", "name": "San Marcos", "focus_area": "1", "lat": "13.783060", "type": "PPL", "awardID": "00061663", "lon": "-90.116390", "precision": "1", "focus_area_descr": "Inclusive Growth"}, {"outputID": "00082508", "output_locID": "00082508-8", "name": "Distrito de San Juan Opico", "focus_area": "1", "lat": "13.866670", "type": "ADM2", "awardID": "00061663", "lon": "-89.400000", "precision": "1", "focus_area_descr": "Inclusive Growth"}, {"outputID": "00082508", "output_locID": "00082508-9", "name": "Panchimalco", "focus_area": "1", "lat": "13.612780", "type": "PPL", "awardID": "00061663", "lon": "-89.180000", "precision": "1", "focus_area_descr": "Inclusive Growth"}, {"outputID": "00082508", "output_locID": "00082508-10", "name": "Nahuizalco", "focus_area": "1", "lat": "13.777500", "type": "PPL", "awardID": "00061663", "lon": "-89.736670", "precision": "1", "focus_area_descr": "Inclusive Growth"}, {"outputID": "00082508", "output_locID": "00082508-11", "name": "Jiquilisco", "focus_area": "1", "lat": "13.316670", "type": "PPL", "awardID": "00061663", "lon": "-88.583330", "precision": "1", "focus_area_descr": "Inclusive Growth"}, {"outputID": "00082508", "output_locID": "00082508-12", "name": "Ilopango", "focus_area": "1", "lat": "13.701670", "type": "PPL", "awardID": "00061663", "lon": "-89.109440", "precision": "1", "focus_area_descr": "Inclusive Growth"}, {"outputID": "00082508", "output_locID": "00082508-13", "name": "Ciudad Arce", "focus_area": "1", "lat": "13.840280", "type": "PPL", "awardID": "00061663", "lon": "-89.447220", "precision": "1", "focus_area_descr": "Inclusive Growth"}, {"outputID": "00082508", "output_locID": "00082508-14", "name": "Apopa", "focus_area": "1", "lat": "13.807220", "type": "PPL", "awardID": "00061663", "lon": "-89.179170", "precision": "1", "focus_area_descr": "Inclusive Growth"}, {"outputID": "00082508", "output_locID": "00082508-15", "name": "Acajutla", "focus_area": "1", "lat": "13.592780", "type": "PPL", "awardID": "00061663", "lon": "-89.827500", "precision": "1", "focus_area_descr": "Inclusive Growth"}, {"outputID": "00082508", "output_locID": "00082508-16", "name": "Colonia Joya de Cer\u00e9n", "focus_area": "1", "lat": "13.819440", "type": "PPL", "awardID": "00061663", "lon": "-89.363610", "precision": "1", "focus_area_descr": "Inclusive Growth"}, {"outputID": "00082511", "output_locID": "00082511-1", "name": "San Salvador", "focus_area": "1", "lat": "13.689350", "type": "PPLC", "awardID": "00061663", "lon": "-89.187180", "precision": "1", "focus_area_descr": "Inclusive Growth"}]}, {"title": "fortalecimiento del programa nacional de tuberculosis", "id": "00068118", "subnational": [{"outputID": "00083506", "output_locID": "00083506-1", "name": "San Salvador", "focus_area": "3", "lat": "13.689350", "type": "PPLC", "awardID": "00068118", "lon": "-89.187180", "precision": "1", "focus_area_descr": "Basic Services"}]}, {"title": "plan eliminaci\u00f3n de hidroclorofluorocarbonos el salvador", "id": "00069515", "subnational": [{"outputID": "00084054", "output_locID": "00084054-1", "name": "San Salvador", "focus_area": "1", "lat": "13.689350", "type": "PPLC", "awardID": "00069515", "lon": "-89.187180", "precision": "1", "focus_area_descr": "Inclusive Growth"}, {"outputID": "00084055", "output_locID": "00084055-1", "name": "San Salvador", "focus_area": "1", "lat": "13.689350", "type": "PPLC", "awardID": "00069515", "lon": "-89.187180", "precision": "1", "focus_area_descr": "Inclusive Growth"}]}, {"title": "tercera comunicacion cambio climatico", "id": "00072235", "subnational": [{"outputID": "00085379", "output_locID": "00085379-1", "name": "San Salvador", "focus_area": "1", "lat": "13.689350", "type": "PPLC", "awardID": "00072235", "lon": "-89.187180", "precision": "1", "focus_area_descr": "Inclusive Growth"}]}, {"title": "promoci\u00f3n y restablecimiento del derecho a la salud, pro", "id": "00076049", "subnational": [{"outputID": "00087638", "output_locID": "00087638-1", "name": "San Salvador", "focus_area": "3", "lat": "13.689350", "type": "PPLC", "awardID": "00076049", "lon": "-89.187180", "precision": "1", "focus_area_descr": "Basic Services"}]}, {"title": "ciudades sostenibles", "id": "00082572", "subnational": [{"outputID": "00091434", "output_locID": "00091434-1", "name": "San Salvador", "focus_area": "5", "lat": "13.689350", "type": "PPLC", "awardID": "00082572", "lon": "-89.187180", "precision": "1", "focus_area_descr": "Risk Reduction"}]}, {"title": "preparaci\u00f3n fondo verde clima", "id": "00082573", "subnational": [{"outputID": "00091435", "output_locID": "00091435-1", "name": "San Salvador", "focus_area": "1", "lat": "13.689350", "type": "PPLC", "awardID": "00082573", "lon": "-89.187180", "precision": "1", "focus_area_descr": "Inclusive Growth"}, {"outputID": "00096793", "output_locID": "00096793-1", "name": "San Salvador", "focus_area": "1", "lat": "13.689350", "type": "PPLC", "awardID": "00082573", "lon": "-89.187180", "precision": "1", "focus_area_descr": "Inclusive Growth"}]}, {"title": "pol\u00edticas p\u00fablicas para el desarrollo humano sostenible", "id": "00084497", "subnational": [{"outputID": "00092475", "output_locID": "00092475-1", "name": "San Salvador", "focus_area": "7", "lat": "13.689350", "type": "PPLC", "awardID": "00084497", "lon": "-89.187180", "precision": "1", "focus_area_descr": "Thought Leadership"}]}, {"title": "acuerdos de segunda generaci\u00f3n fase ii", "id": "00084577", "subnational": [{"outputID": "00092526", "output_locID": "00092526-1", "name": "San Salvador", "focus_area": "2", "lat": "13.689350", "type": "PPLC", "awardID": "00084577", "lon": "-89.187180", "precision": "1", "focus_area_descr": "Democratic Governance"}, {"outputID": "00095093", "output_locID": "00095093-1", "name": "San Salvador", "focus_area": "2", "lat": "13.689350", "type": "PPLC", "awardID": "00084577", "lon": "-89.187180", "precision": "1", "focus_area_descr": "Democratic Governance"}]}, {"title": "conservaci\u00f3n, uso sostenible de la biodiversidad", "id": "00088358", "subnational": [{"outputID": "00095068", "output_locID": "00095068-1", "name": "San Salvador", "focus_area": "1", "lat": "13.689350", "type": "PPLC", "awardID": "00088358", "lon": "-89.187180", "precision": "1", "focus_area_descr": "Inclusive Growth"}]}, {"title": "fortalecimeinto del instituto salvadore\u00f1o de bienestar magisterial", "id": "00088365", "subnational": [{"outputID": "00095074", "output_locID": "00095074-1", "name": "San Salvador", "focus_area": "3", "lat": "13.689350", "type": "PPLC", "awardID": "00088365", "lon": "-89.187180", "precision": "1", "focus_area_descr": "Basic Services"}]}, {"title": "hacia una movilidad segura: innovaci\u00f3n en la emisi\u00f3n de", "id": "00089416", "subnational": [{"outputID": "00095672", "output_locID": "00095672-1", "name": "San Salvador", "focus_area": "3", "lat": "13.689350", "type": "PPLC", "awardID": "00089416", "lon": "-89.187180", "precision": "1", "focus_area_descr": "Basic Services"}]}, {"title": "programa de modernizaci\u00f3n de cepa (comisi\u00f3n ejecutiva porturaria aut\u00f3noma) fase ii", "id": "00092375", "subnational": [{"outputID": "00097116", "output_locID": "00097116-1", "name": "Departamento de La Paz", "focus_area": "1", "lat": "13.466670", "type": "ADM1", "awardID": "00092375", "lon": "-88.983330", "precision": "1", "focus_area_descr": "Inclusive Growth"}]}, {"title": "fortalecimiento institucional del fondo de protecci\u00f3n de lisiados y discapacitados a consecuencia del conflicto armado (foprolyd)", "id": "00093487", "subnational": [{"outputID": "00097726", "output_locID": "00097726-1", "name": "San Salvador", "focus_area": "3", "lat": "13.689350", "type": "PPLC", "awardID": "00093487", "lon": "-89.187180", "precision": "1", "focus_area_descr": "Basic Services"}]}, {"title": "apoyo a plan el salvador seguro", "id": "00095810", "subnational": [{"outputID": "00099892", "output_locID": "00099892-1", "name": "San Salvador", "focus_area": "3", "lat": "13.689350", "type": "PPLC", "awardID": "00095810", "lon": "-89.187180", "precision": "1", "focus_area_descr": "Basic Services"}, {"outputID": "00099895", "output_locID": "00099895-1", "name": "San Salvador", "focus_area": "3", "lat": "13.689350", "type": "PPLC", "awardID": "00095810", "lon": "-89.187180", "precision": "1", "focus_area_descr": "Basic Services"}, {"outputID": "00099896", "output_locID": "00099896-1", "name": "San Salvador", "focus_area": "3", "lat": "13.689350", "type": "PPLC", "awardID": "00095810", "lon": "-89.187180", "precision": "1", "focus_area_descr": "Basic Services"}]}, {"title": "programa conjunto de paz para generaci\u00f3n post-conflicto-", "id": "00097063", "subnational": [{"outputID": "00100920", "output_locID": "00100920-1", "name": "San Salvador", "focus_area": "2", "lat": "13.689350", "type": "PPLC", "awardID": "00097063", "lon": "-89.187180", "precision": "1", "focus_area_descr": "Democratic Governance"}]}, {"title": "programa desarrollo proveedores", "id": "00099058", "subnational": [{"outputID": "00102294", "output_locID": "00102294-1", "name": "San Salvador", "focus_area": "1", "lat": "13.689350", "type": "PPLC", "awardID": "00099058", "lon": "-89.187180", "precision": "1", "focus_area_descr": "Inclusive Growth"}]}, {"title": "apoyo al ciclo electoral  (2018 - 2019)", "id": "00099154", "subnational": [{"outputID": "00102468", "output_locID": "00102468-1", "name": "San Salvador", "focus_area": "2", "lat": "13.689350", "type": "PPLC", "awardID": "00099154", "lon": "-89.187180", "precision": "1", "focus_area_descr": "Democratic Governance"}]}, {"title": "resilencia y cohesion", "id": "00109287", "subnational": [{"outputID": "00108679", "output_locID": "00108679-1", "name": "San Salvador", "focus_area": "3", "lat": "13.689350", "type": "PPLC", "awardID": "00109287", "lon": "-89.187180", "precision": "1", "focus_area_descr": "Basic Services"}]}, {"title": "fortalecimiento del instituto de bienestar magisterial", "id": "00061024", "subnational": [{"outputID": "00077096", "output_locID": "00077096-1", "name": "San Salvador", "focus_area": "3", "lat": "13.689350", "type": "PPLC", "awardID": "00061024", "lon": "-89.187180", "precision": "1", "focus_area_descr": "Basic Services"}]}, {"title": "development effectiveness", "id": "00064783", "subnational": []}, {"title": "modernizacion y gestion de los activos estrategicos", "id": "00069442", "subnational": [{"outputID": "00084021", "output_locID": "00084021-1", "name": "Sonsonate", "focus_area": "1", "lat": "13.718890", "type": "PPLA", "awardID": "00069442", "lon": "-89.724170", "precision": "1", "focus_area_descr": "Inclusive Growth"}, {"outputID": "00084021", "output_locID": "00084021-2", "name": "San Salvador", "focus_area": "1", "lat": "13.689350", "type": "PPLC", "awardID": "00069442", "lon": "-89.187180", "precision": "1", "focus_area_descr": "Inclusive Growth"}, {"outputID": "00084021", "output_locID": "00084021-3", "name": "Departamento de La Uni\u00f3n", "focus_area": "1", "lat": "13.550000", "type": "ADM1", "awardID": "00069442", "lon": "-87.900000", "precision": "1", "focus_area_descr": "Inclusive Growth"}, {"outputID": "00084021", "output_locID": "00084021-4", "name": "Departamento de La Paz", "focus_area": "1", "lat": "13.466670", "type": "ADM1", "awardID": "00069442", "lon": "-88.983330", "precision": "1", "focus_area_descr": "Inclusive Growth"}]}, {"title": "seamos productivos", "id": "00070673", "subnational": [{"outputID": "00084527", "output_locID": "00084527-1", "name": "San Salvador", "focus_area": "3", "lat": "13.689350", "type": "PPLC", "awardID": "00070673", "lon": "-89.187180", "precision": "1", "focus_area_descr": "Basic Services"}]}, {"title": "modelo de reinserci\u00f3n social", "id": "00081915", "subnational": [{"outputID": "00091037", "output_locID": "00091037-1", "name": "Municipio de Zacatecoluca", "focus_area": "3", "lat": "13.433330", "type": "ADM3", "awardID": "00081915", "lon": "-88.866670", "precision": "1", "focus_area_descr": "Basic Services"}, {"outputID": "00091037", "output_locID": "00091037-2", "name": "San Salvador", "focus_area": "3", "lat": "13.689350", "type": "PPLC", "awardID": "00081915", "lon": "-89.187180", "precision": "1", "focus_area_descr": "Basic Services"}, {"outputID": "00091037", "output_locID": "00091037-3", "name": "Delgado", "focus_area": "3", "lat": "13.724170", "type": "PPL", "awardID": "00081915", "lon": "-89.170280", "precision": "1", "focus_area_descr": "Basic Services"}]}, {"title": "mecanismo de coordinacion de pais - el salvador (mcp-es) capacidades institucionalizadas", "id": "00084846", "subnational": [{"outputID": "00092665", "output_locID": "00092665-1", "name": "San Salvador", "focus_area": "1", "lat": "13.689350", "type": "PPLC", "awardID": "00084846", "lon": "-89.187180", "precision": "1", "focus_area_descr": "Inclusive Growth"}, {"outputID": "00095378", "output_locID": "00095378-1", "name": "San Salvador", "focus_area": "1", "lat": "13.689350", "type": "PPLC", "awardID": "00084846", "lon": "-89.187180", "precision": "1", "focus_area_descr": "Inclusive Growth"}]}, {"title": "fortalecimiento inst. de la mujer", "id": "00085135", "subnational": [{"outputID": "00095588", "output_locID": "00095588-1", "name": "San Salvador", "focus_area": "4", "lat": "13.689350", "type": "PPLC", "awardID": "00085135", "lon": "-89.187180", "precision": "1", "focus_area_descr": "Gender Equality"}]}, {"title": "hacia el cumplimiento de los objetivos de desarrollo sostenible", "id": "00098424", "subnational": [{"outputID": "00101751", "output_locID": "00101751-1", "name": "San Salvador", "focus_area": "2", "lat": "13.689350", "type": "PPLC", "awardID": "00098424", "lon": "-89.187180", "precision": "1", "focus_area_descr": "Democratic Governance"}]}, {"title": "museo de la memoria", "id": "00104647", "subnational": [{"outputID": "00106136", "output_locID": "00106136-1", "name": "San Salvador", "focus_area": "2", "lat": "13.689350", "type": "PPLC", "awardID": "00104647", "lon": "-89.187180", "precision": "1", "focus_area_descr": "Democratic Governance"}]}, {"title": "sello de igualdad laboral en empresas privadas", "id": "00104650", "subnational": [{"outputID": "00106139", "output_locID": "00106139-1", "name": "San Salvador", "focus_area": "1", "lat": "13.689350", "type": "PPLC", "awardID": "00104650", "lon": "-89.187180", "precision": "1", "focus_area_descr": "Inclusive Growth"}]}, {"title": "apoyo a la agenda de consenso del grupo parlamentario de", "id": "00106838", "subnational": [{"outputID": "00107380", "output_locID": "00107380-1", "name": "San Salvador", "focus_area": "2", "lat": "13.689350", "type": "PPLC", "awardID": "00106838", "lon": "-89.187180", "precision": "1", "focus_area_descr": "Democratic Governance"}]}, {"title": "fortalecimiento al seguro social en respuesta vih/sida", "id": "00059133", "subnational": [{"outputID": "00073852", "output_locID": "00073852-1", "name": "San Salvador", "focus_area": "3", "lat": "13.689350", "type": "PPLC", "awardID": "00059133", "lon": "-89.187180", "precision": "1", "focus_area_descr": "Basic Services"}]}, {"title": "un nuevo contrato social", "id": "00059340", "subnational": [{"outputID": "00074175", "output_locID": "00074175-1", "name": "San Salvador", "focus_area": "2", "lat": "13.689350", "type": "PPLC", "awardID": "00059340", "lon": "-89.187180", "precision": "1", "focus_area_descr": "Democratic Governance"}]}, {"title": "redes territoriales y desarrollo humano", "id": "00060460", "subnational": [{"outputID": "00076139", "output_locID": "00076139-1", "name": "San Salvador", "focus_area": "3", "lat": "13.689350", "type": "PPLC", "awardID": "00060460", "lon": "-89.187180", "precision": "1", "focus_area_descr": "Basic Services"}]}, {"title": "integraci\u00f3n de la biodiversidad en pesca y turismo", "id": "00061339", "subnational": [{"outputID": "00077678", "output_locID": "00077678-1", "name": "Zacatecoluca", "focus_area": "2", "lat": "13.500000", "type": "PPLA", "awardID": "00061339", "lon": "-88.866670", "precision": "1", "focus_area_descr": "Democratic Governance"}, {"outputID": "00077678", "output_locID": "00077678-2", "name": "Usulut\u00e1n", "focus_area": "2", "lat": "13.350000", "type": "PPLA", "awardID": "00061339", "lon": "-88.450000", "precision": "1", "focus_area_descr": "Democratic Governance"}, {"outputID": "00077678", "output_locID": "00077678-3", "name": "Tecoluca", "focus_area": "2", "lat": "13.533330", "type": "PPL", "awardID": "00061339", "lon": "-88.783330", "precision": "1", "focus_area_descr": "Democratic Governance"}, {"outputID": "00077678", "output_locID": "00077678-4", "name": "San Francisco Men\u00e9ndez", "focus_area": "2", "lat": "13.843060", "type": "PPL", "awardID": "00061339", "lon": "-90.015830", "precision": "1", "focus_area_descr": "Democratic Governance"}, {"outputID": "00077678", "output_locID": "00077678-5", "name": "San Dionisio", "focus_area": "2", "lat": "13.283330", "type": "PPL", "awardID": "00061339", "lon": "-88.466670", "precision": "1", "focus_area_descr": "Democratic Governance"}, {"outputID": "00077678", "output_locID": "00077678-6", "name": "San Alejo", "focus_area": "2", "lat": "13.431390", "type": "PPL", "awardID": "00061339", "lon": "-87.963060", "precision": "1", "focus_area_descr": "Democratic Governance"}, {"outputID": "00077678", "output_locID": "00077678-7", "name": "Puerto El Triunfo", "focus_area": "2", "lat": "13.283330", "type": "PPL", "awardID": "00061339", "lon": "-88.550000", "precision": "1", "focus_area_descr": "Democratic Governance"}, {"outputID": "00077678", "output_locID": "00077678-8", "name": "Pasaquina", "focus_area": "2", "lat": "13.584440", "type": "PPL", "awardID": "00061339", "lon": "-87.841110", "precision": "1", "focus_area_descr": "Democratic Governance"}, {"outputID": "00077678", "output_locID": "00077678-9", "name": "Meanguera del Golfo", "focus_area": "2", "lat": "13.179720", "type": "PPL", "awardID": "00061339", "lon": "-87.697500", "precision": "1", "focus_area_descr": "Democratic Governance"}, {"outputID": "00077678", "output_locID": "00077678-10", "name": "La Libertad", "focus_area": "2", "lat": "13.488330", "type": "PPL", "awardID": "00061339", "lon": "-89.322220", "precision": "1", "focus_area_descr": "Democratic Governance"}, {"outputID": "00077678", "output_locID": "00077678-11", "name": "Jujutla", "focus_area": "2", "lat": "13.786940", "type": "PPL", "awardID": "00061339", "lon": "-89.857220", "precision": "1", "focus_area_descr": "Democratic Governance"}, {"outputID": "00077678", "output_locID": "00077678-12", "name": "Jiquilisco", "focus_area": "2", "lat": "13.316670", "type": "PPL", "awardID": "00061339", "lon": "-88.583330", "precision": "1", "focus_area_descr": "Democratic Governance"}, {"outputID": "00077678", "output_locID": "00077678-13", "name": "Intipuc\u00e1", "focus_area": "2", "lat": "13.196940", "type": "PPL", "awardID": "00061339", "lon": "-88.054440", "precision": "1", "focus_area_descr": "Democratic Governance"}, {"outputID": "00077678", "output_locID": "00077678-14", "name": "Conchagua", "focus_area": "2", "lat": "13.307780", "type": "PPL", "awardID": "00061339", "lon": "-87.864720", "precision": "1", "focus_area_descr": "Democratic Governance"}, {"outputID": "00077678", "output_locID": "00077678-15", "name": "Chirilagua", "focus_area": "2", "lat": "13.220280", "type": "PPL", "awardID": "00061339", "lon": "-88.138610", "precision": "1", "focus_area_descr": "Democratic Governance"}, {"outputID": "00077678", "output_locID": "00077678-16", "name": "Acajutla", "focus_area": "2", "lat": "13.592780", "type": "PPL", "awardID": "00061339", "lon": "-89.827500", "precision": "1", "focus_area_descr": "Democratic Governance"}, {"outputID": "00077678", "output_locID": "00077678-17", "name": "R\u00edo Tamanique", "focus_area": "2", "lat": "13.556110", "type": "PPL", "awardID": "00061339", "lon": "-89.421390", "precision": "1", "focus_area_descr": "Democratic Governance"}, {"outputID": "00077678", "output_locID": "00077678-18", "name": "San Luis la  Herradura", "focus_area": "2", "lat": "13.354480", "type": "PPL", "awardID": "00061339", "lon": "-88.947030", "precision": "1", "focus_area_descr": "Democratic Governance"}]}, {"title": "programa gobernabilidad local", "id": "00067984", "subnational": []}, {"title": "voto residencial", "id": "00069424", "subnational": [{"outputID": "00084012", "output_locID": "00084012-1", "name": "Sonsonate", "focus_area": "2", "lat": "13.718890", "type": "PPLA", "awardID": "00069424", "lon": "-89.724170", "precision": "1", "focus_area_descr": "Democratic Governance"}, {"outputID": "00084012", "output_locID": "00084012-2", "name": "Santa Ana", "focus_area": "2", "lat": "13.994170", "type": "PPLA", "awardID": "00069424", "lon": "-89.559720", "precision": "1", "focus_area_descr": "Democratic Governance"}, {"outputID": "00084012", "output_locID": "00084012-3", "name": "San Salvador", "focus_area": "2", "lat": "13.689350", "type": "PPLC", "awardID": "00069424", "lon": "-89.187180", "precision": "1", "focus_area_descr": "Democratic Governance"}, {"outputID": "00084012", "output_locID": "00084012-4", "name": "Departamento de La Libertad", "focus_area": "2", "lat": "13.750000", "type": "ADM1", "awardID": "00069424", "lon": "-89.383330", "precision": "1", "focus_area_descr": "Democratic Governance"}, {"outputID": "00084012", "output_locID": "00084012-5", "name": "Departamento de Ahuachap\u00e1n", "focus_area": "2", "lat": "13.866670", "type": "ADM1", "awardID": "00069424", "lon": "-89.916670", "precision": "1", "focus_area_descr": "Democratic Governance"}]}, {"title": "optimizaci\u00f3n gasto e inversi\u00f3n social en vih min salud", "id": "00070764", "subnational": [{"outputID": "00084597", "output_locID": "00084597-1", "name": "San Salvador", "focus_area": "3", "lat": "13.689350", "type": "PPLC", "awardID": "00070764", "lon": "-89.187180", "precision": "1", "focus_area_descr": "Basic Services"}]}, {"title": "preparaci\u00f3n del proyecto humedales", "id": "00080556", "subnational": []}, {"title": "respuesta a la emergencia de la sequia en el salvador", "id": "00092681", "subnational": []}, {"title": "informes sobre desarrollo humano el salvador", "id": "00050369", "subnational": []}, {"title": "gobernabilidad y sostenibilidad de agua y saneamiento", "id": "00061325", "subnational": []}, {"title": "lucha contra vih en poblaciones vulnerables consolidado", "id": "00062852", "subnational": []}, {"title": "planificacion biodiversidad apoyo plan estrategico", "id": "00068999", "subnational": []}, {"title": "di\u00e1logo pol\u00edtico y construcci\u00f3n propuestas", "id": "00069421", "subnational": []}, {"title": "fortalecimiento  capacidades de gesti\u00f3n gobernabilidad", "id": "00072933", "subnational": []}, {"title": "apoyo a plan internacional como receptor gfatm", "id": "00074361", "subnational": []}, {"title": "modernizaci\u00f3n del sistema de pasaportes", "id": "00085763", "subnational": []}, {"title": "programa de desarrollo de proveedores", "id": "00048860", "subnational": []}, {"title": "analisis y escenarios gobernabilidad", "id": "00049968", "subnational": []}, {"title": "fortalecimiento de las capacidades nacionales y locales", "id": "00050011", "subnational": []}, {"title": "ronda de continuaci\u00f3n de financiamiento fondo global", "id": "00057674", "subnational": []}, {"title": "energy efficiency in public buildings", "id": "00060180", "subnational": []}, {"title": "transparencia y accountability", "id": "00060623", "subnational": []}, {"title": "fortalecimiento del mecanismo de coordinacion de pais", "id": "00062099", "subnational": []}, {"title": "cerrando brechas de participaci\u00f3n electoral con el voto", "id": "00062423", "subnational": []}, {"title": "atenci\u00f3n a la pobreza y cumplimiento objetivos milenio", "id": "00048066", "subnational": []}, {"title": "hacia la participaci\u00f3n pol\u00edtica de las mujeres", "id": "00050253", "subnational": []}, {"title": "pacto por la igualdad de g\u00e9nero", "id": "00050364", "subnational": []}, {"title": "building social capital to reduce violence.", "id": "00051329", "subnational": []}, {"title": "asentamientos urbanos productivos", "id": "00057273", "subnational": []}, {"title": "integraci\u00f3n en educaci\u00f3n basica", "id": "00057473", "subnational": []}, {"title": "programa seguridad alimentaria y nutricional", "id": "00059775", "subnational": []}, {"title": "prevencion y control tb en poblaciones vulnerables", "id": "00060122", "subnational": []}, {"title": "respuesta a los da\u00f1os causados por tormenta tropical 12e", "id": "00062948", "subnational": []}, {"title": "joint migration & development initiative ii-el salvador", "id": "00075634", "subnational": []}, {"title": "programa reconstrucci\u00f3n y modernizacion rural occidente", "id": "00012403", "subnational": []}, {"title": "plan implementacion compuestos organicos persistente", "id": "00043844", "subnational": []}, {"title": "segunda comunicaci\u00f3n cambio climatico", "id": "00044453", "subnational": []}, {"title": "fase ii del componente vih/sida del fondo mundial", "id": "00045522", "subnational": []}, {"title": "fortalecimiento para la gestion de riesgo", "id": "00047464", "subnational": []}, {"title": "fomento a la seguridad ciudadana sonsonate.", "id": "00047610", "subnational": []}, {"title": "fondo global vih ronda 7", "id": "00050738", "subnational": []}, {"title": "acceso agua potable san francisco gotera", "id": "00012408", "subnational": []}, {"title": "apoyo a la formulaci\u00f3n de pol\u00edticas p\u00fablicas", "id": "00046458", "subnational": []}, {"title": "asistencia al instituto salvadore\u00f1o del seguro social", "id": "00036748", "subnational": []}, {"title": "biodiversidad pesca y turismo", "id": "00057039", "subnational": []}, {"title": "ciudad segura para convivir", "id": "00057928", "subnational": []}, {"title": "consejo economico social i", "id": "00056902", "subnational": []}, {"title": "fortalecimiento de capacidades nacionales", "id": "00050082", "subnational": []}, {"title": "human development & migration in el salvador", "id": "00048926", "subnational": []}, {"title": "mdg based planning", "id": "00057254", "subnational": []}, {"title": "plan manejo fase terminal clorofluorocarbono", "id": "00049560", "subnational": []}], "op_unit": "SLV"}