{"iso_num": null, "projects": [{"title": "good governance", "id": "00062090", "subnational": [{"outputID": "00092080", "output_locID": "00092080-1", "name": "Kraljevo", "focus_area": "7", "lat": "43.577490", "type": "PPL", "awardID": "00062090", "lon": "21.700330", "precision": "1", "focus_area_descr": "Development Impact  Effectiveness"}, {"outputID": "00086951", "output_locID": "00086951-1", "name": "Vr\u0161ac", "focus_area": "3", "lat": "45.116670", "type": "PPLA3", "awardID": "00062090", "lon": "21.303610", "precision": "1", "focus_area_descr": "Responsive Institutions"}]}, {"title": "energy and environment", "id": "00062091", "subnational": [{"outputID": "00079370", "output_locID": "00079370-1", "name": "Vr\u0161ac", "focus_area": "1", "lat": "45.116670", "type": "PPLA3", "awardID": "00062091", "lon": "21.303610", "precision": "1", "focus_area_descr": "Inclusive & Sustainable Growth"}, {"outputID": "00079369", "output_locID": "00079369-1", "name": "Vr\u0161ac", "focus_area": "1", "lat": "45.116670", "type": "PPLA3", "awardID": "00062091", "lon": "21.303610", "precision": "1", "focus_area_descr": "Inclusive & Sustainable Growth"}, {"outputID": "00079371", "output_locID": "00079371-1", "name": "Vr\u0161ac", "focus_area": "1", "lat": "45.116670", "type": "PPLA3", "awardID": "00062091", "lon": "21.303610", "precision": "1", "focus_area_descr": "Inclusive & Sustainable Growth"}]}, {"title": "social inclusion", "id": "00062092", "subnational": [{"outputID": "00079355", "output_locID": "00079355-1", "name": "Vr\u0161ac", "focus_area": "4", "lat": "45.116670", "type": "PPLA3", "awardID": "00062092", "lon": "21.303610", "precision": "1", "focus_area_descr": "Gender Equality"}, {"outputID": "00079358", "output_locID": "00079358-1", "name": "Vr\u0161ac", "focus_area": "1", "lat": "45.116670", "type": "PPLA3", "awardID": "00062092", "lon": "21.303610", "precision": "1", "focus_area_descr": "Inclusive & Sustainable Growth"}]}, {"title": "capacity development programme for mod serbia", "id": "00062105", "subnational": [{"outputID": "00079388", "output_locID": "00079388-1", "name": "Vr\u0161ac", "focus_area": "3", "lat": "45.116670", "type": "PPLA3", "awardID": "00062105", "lon": "21.303610", "precision": "1", "focus_area_descr": "Responsive Institutions"}]}, {"title": "improving services at local level", "id": "00066910", "subnational": [{"outputID": "00082929", "output_locID": "00082929-1", "name": "Cajetina", "focus_area": "3", "lat": "43.749770", "type": "PPLA3", "awardID": "00066910", "lon": "19.712730", "precision": "1", "focus_area_descr": "Responsive Institutions"}, {"outputID": "00086880", "output_locID": "00086880-1", "name": "Vracar", "focus_area": "3", "lat": "44.792560", "type": "PPLA3", "awardID": "00066910", "lon": "20.474910", "precision": "1", "focus_area_descr": "Responsive Institutions"}, {"outputID": "00083781", "output_locID": "00083781-1", "name": "Alibunar", "focus_area": "3", "lat": "45.080830", "type": "PPLA3", "awardID": "00066910", "lon": "20.965830", "precision": "1", "focus_area_descr": "Responsive Institutions"}, {"outputID": "00084809", "output_locID": "00084809-1", "name": "Bosilegrad", "focus_area": "3", "lat": "42.501100", "type": "PPLA3", "awardID": "00066910", "lon": "22.472380", "precision": "1", "focus_area_descr": "Responsive Institutions"}, {"outputID": "00084941", "output_locID": "00084941-1", "name": "Savski Venac", "focus_area": "3", "lat": "44.779170", "type": "PPLA3", "awardID": "00066910", "lon": "20.453890", "precision": "1", "focus_area_descr": "Responsive Institutions"}]}, {"title": "biomass markets in serbia", "id": "00074238", "subnational": [{"outputID": "00086739", "output_locID": "00086739-1", "name": "Boto\u0161", "focus_area": "1", "lat": "45.308370", "type": "PPL", "awardID": "00074238", "lon": "20.635140", "precision": "1", "focus_area_descr": "Inclusive  Sustainable Growth"}, {"outputID": "00086739", "output_locID": "00086739-2", "name": "Alibunar", "focus_area": "1", "lat": "45.080830", "type": "PPLA3", "awardID": "00074238", "lon": "20.965830", "precision": "1", "focus_area_descr": "Inclusive  Sustainable Growth"}, {"outputID": "00086739", "output_locID": "00086739-3", "name": "Aleksinac", "focus_area": "1", "lat": "43.541670", "type": "PPLA3", "awardID": "00074238", "lon": "21.707780", "precision": "1", "focus_area_descr": "Inclusive  Sustainable Growth"}, {"outputID": "00086739", "output_locID": "00086739-4", "name": "Bac", "focus_area": "1", "lat": "45.399290", "type": "PPL", "awardID": "00074238", "lon": "19.198730", "precision": "1", "focus_area_descr": "Inclusive  Sustainable Growth"}]}, {"title": "response to the effects of floods serbia 2014-16", "id": "00081149", "subnational": [{"outputID": "00091067", "output_locID": "00091067-1", "name": "Velika Plana", "focus_area": "6", "lat": "44.333890", "type": "PPLA3", "awardID": "00081149", "lon": "21.076760", "precision": "1", "focus_area_descr": "Crisis Prevention & Recovery"}, {"outputID": "00091067", "output_locID": "00091067-2", "name": "Varvarin", "focus_area": "6", "lat": "43.723970", "type": "PPLA3", "awardID": "00081149", "lon": "21.362400", "precision": "1", "focus_area_descr": "Crisis Prevention & Recovery"}, {"outputID": "00091067", "output_locID": "00091067-3", "name": "Ub", "focus_area": "6", "lat": "44.456110", "type": "PPLA3", "awardID": "00081149", "lon": "20.073890", "precision": "1", "focus_area_descr": "Crisis Prevention & Recovery"}, {"outputID": "00091067", "output_locID": "00091067-4", "name": "Trstenik", "focus_area": "6", "lat": "43.616940", "type": "PPLA3", "awardID": "00081149", "lon": "21.002500", "precision": "1", "focus_area_descr": "Crisis Prevention & Recovery"}, {"outputID": "00091067", "output_locID": "00091067-5", "name": "Svilajnac", "focus_area": "6", "lat": "44.233700", "type": "PPLA3", "awardID": "00081149", "lon": "21.196700", "precision": "1", "focus_area_descr": "Crisis Prevention & Recovery"}, {"outputID": "00091067", "output_locID": "00091067-6", "name": "Smederevska Palanka", "focus_area": "6", "lat": "44.365480", "type": "PPLA3", "awardID": "00081149", "lon": "20.958850", "precision": "1", "focus_area_descr": "Crisis Prevention & Recovery"}, {"outputID": "00091067", "output_locID": "00091067-7", "name": "Paracin", "focus_area": "6", "lat": "43.860830", "type": "PPLA3", "awardID": "00081149", "lon": "21.407780", "precision": "1", "focus_area_descr": "Crisis Prevention & Recovery"}, {"outputID": "00091067", "output_locID": "00091067-8", "name": "Obrenovac", "focus_area": "6", "lat": "44.654860", "type": "PPLA3", "awardID": "00081149", "lon": "20.200170", "precision": "1", "focus_area_descr": "Crisis Prevention & Recovery"}, {"outputID": "00091067", "output_locID": "00091067-9", "name": "Negotin", "focus_area": "6", "lat": "44.226390", "type": "PPLA3", "awardID": "00081149", "lon": "22.530830", "precision": "1", "focus_area_descr": "Crisis Prevention & Recovery"}, {"outputID": "00091067", "output_locID": "00091067-10", "name": "Majdanpek", "focus_area": "6", "lat": "44.427710", "type": "PPLA3", "awardID": "00081149", "lon": "21.945960", "precision": "1", "focus_area_descr": "Crisis Prevention & Recovery"}, {"outputID": "00091067", "output_locID": "00091067-11", "name": "Lazarevac", "focus_area": "6", "lat": "44.385340", "type": "PPLA3", "awardID": "00081149", "lon": "20.255700", "precision": "1", "focus_area_descr": "Crisis Prevention & Recovery"}, {"outputID": "00091067", "output_locID": "00091067-12", "name": "Kraljevo", "focus_area": "6", "lat": "43.725830", "type": "PPLA2", "awardID": "00081149", "lon": "20.689440", "precision": "1", "focus_area_descr": "Crisis Prevention & Recovery"}, {"outputID": "00091067", "output_locID": "00091067-13", "name": "Kragujevac", "focus_area": "6", "lat": "44.016670", "type": "PPLA2", "awardID": "00081149", "lon": "20.916670", "precision": "1", "focus_area_descr": "Crisis Prevention & Recovery"}, {"outputID": "00091067", "output_locID": "00091067-14", "name": "Kladovo", "focus_area": "6", "lat": "44.606670", "type": "PPLA3", "awardID": "00081149", "lon": "22.611940", "precision": "1", "focus_area_descr": "Crisis Prevention & Recovery"}, {"outputID": "00091067", "output_locID": "00091067-15", "name": "Jagodina", "focus_area": "6", "lat": "43.977130", "type": "PPLA2", "awardID": "00081149", "lon": "21.261210", "precision": "1", "focus_area_descr": "Crisis Prevention & Recovery"}, {"outputID": "00091067", "output_locID": "00091067-16", "name": "Cacak", "focus_area": "6", "lat": "43.891390", "type": "PPLA2", "awardID": "00081149", "lon": "20.349720", "precision": "1", "focus_area_descr": "Crisis Prevention & Recovery"}, {"outputID": "00091067", "output_locID": "00091067-17", "name": "Valjevo", "focus_area": "6", "lat": "44.275130", "type": "PPLA2", "awardID": "00081149", "lon": "19.898210", "precision": "1", "focus_area_descr": "Crisis Prevention & Recovery"}, {"outputID": "00091067", "output_locID": "00091067-18", "name": "\u0160id", "focus_area": "6", "lat": "45.128330", "type": "PPLA3", "awardID": "00081149", "lon": "19.226390", "precision": "1", "focus_area_descr": "Crisis Prevention & Recovery"}, {"outputID": "00091067", "output_locID": "00091067-19", "name": "\u0160abac", "focus_area": "6", "lat": "44.746670", "type": "PPLA2", "awardID": "00081149", "lon": "19.690000", "precision": "1", "focus_area_descr": "Crisis Prevention & Recovery"}, {"outputID": "00091067", "output_locID": "00091067-20", "name": "Osecina", "focus_area": "6", "lat": "44.373060", "type": "PPLA3", "awardID": "00081149", "lon": "19.601390", "precision": "1", "focus_area_descr": "Crisis Prevention & Recovery"}, {"outputID": "00091067", "output_locID": "00091067-21", "name": "Mali Zvornik", "focus_area": "6", "lat": "44.373440", "type": "PPLA3", "awardID": "00081149", "lon": "19.106510", "precision": "1", "focus_area_descr": "Crisis Prevention & Recovery"}, {"outputID": "00091067", "output_locID": "00091067-22", "name": "Loznica", "focus_area": "6", "lat": "44.531180", "type": "PPL", "awardID": "00081149", "lon": "19.242670", "precision": "1", "focus_area_descr": "Crisis Prevention & Recovery"}, {"outputID": "00091067", "output_locID": "00091067-23", "name": "Ljubovija", "focus_area": "6", "lat": "44.189440", "type": "PPLA3", "awardID": "00081149", "lon": "19.376670", "precision": "1", "focus_area_descr": "Crisis Prevention & Recovery"}, {"outputID": "00091067", "output_locID": "00091067-24", "name": "Krupanj", "focus_area": "6", "lat": "44.365560", "type": "PPLA3", "awardID": "00081149", "lon": "19.361940", "precision": "1", "focus_area_descr": "Crisis Prevention & Recovery"}, {"outputID": "00091067", "output_locID": "00091067-25", "name": "Kosjeric", "focus_area": "6", "lat": "43.996110", "type": "PPLA3", "awardID": "00081149", "lon": "19.906940", "precision": "1", "focus_area_descr": "Crisis Prevention & Recovery"}, {"outputID": "00091067", "output_locID": "00091067-26", "name": "Koceljeva", "focus_area": "6", "lat": "44.473610", "type": "PPLA3", "awardID": "00081149", "lon": "19.811670", "precision": "1", "focus_area_descr": "Crisis Prevention & Recovery"}, {"outputID": "00091067", "output_locID": "00091067-27", "name": "Bajina Ba\u0161ta", "focus_area": "6", "lat": "43.970830", "type": "PPLA3", "awardID": "00081149", "lon": "19.567500", "precision": "1", "focus_area_descr": "Crisis Prevention & Recovery"}, {"outputID": "00091013", "output_locID": "00091013-1", "name": "Belgrade", "focus_area": "6", "lat": "44.804010", "type": "PPLC", "awardID": "00081149", "lon": "20.465130", "precision": "1", "focus_area_descr": "Crisis Prevention & Recovery"}, {"outputID": "00092414", "output_locID": "00092414-1", "name": "Belgrade", "focus_area": "6", "lat": "44.804010", "type": "PPLC", "awardID": "00081149", "lon": "20.465130", "precision": "1", "focus_area_descr": "Crisis Prevention & Recovery"}]}, {"title": "accelerating change in public administration", "id": "00087199", "subnational": [{"outputID": "00094309", "output_locID": "00094309-1", "name": "Belgrade", "focus_area": "2", "lat": "44.804010", "type": "PPLC", "awardID": "00087199", "lon": "20.465130", "precision": "1", "focus_area_descr": "Democratic Governance"}]}, {"title": "enhancement of municipal audit", "id": "00087601", "subnational": [{"outputID": "00097094", "output_locID": "00097094-1", "name": "Belgrade", "focus_area": "2", "lat": "44.804010", "type": "PPLC", "awardID": "00087601", "lon": "20.465130", "precision": "1", "focus_area_descr": "Democratic Governance"}]}, {"title": "climate smart urban development", "id": "00087660", "subnational": [{"outputID": "00094603", "output_locID": "00094603-1", "name": "Belgrade", "focus_area": "1", "lat": "44.804010", "type": "PPLC", "awardID": "00087660", "lon": "20.465130", "precision": "1", "focus_area_descr": "Inclusive  Sustainable Growth"}]}, {"title": "cd of  multilateral environmental agreements", "id": "00087663", "subnational": [{"outputID": "00094606", "output_locID": "00094606-1", "name": "Belgrade", "focus_area": "1", "lat": "44.804010", "type": "PPLC", "awardID": "00087663", "lon": "20.465130", "precision": "1", "focus_area_descr": "Inclusive  Sustainable Growth"}]}, {"title": "support energy management systems in municipalities", "id": "00087720", "subnational": [{"outputID": "00094643", "output_locID": "00094643-1", "name": "Belgrade", "focus_area": "1", "lat": "44.804010", "type": "PPLC", "awardID": "00087720", "lon": "20.465130", "precision": "1", "focus_area_descr": "Inclusive  Sustainable Growth"}]}, {"title": "management of citizen-centric policy measures", "id": "00089038", "subnational": [{"outputID": "00095435", "output_locID": "00095435-1", "name": "Belgrade", "focus_area": "2", "lat": "44.804010", "type": "PPLC", "awardID": "00089038", "lon": "20.465130", "precision": "1", "focus_area_descr": "Democratic Governance"}]}, {"title": "parliament oversight and transparency", "id": "00090554", "subnational": [{"outputID": "00096265", "output_locID": "00096265-1", "name": "Belgrade", "focus_area": "2", "lat": "44.804010", "type": "PPLC", "awardID": "00090554", "lon": "20.465130", "precision": "1", "focus_area_descr": "Democratic Governance"}, {"outputID": "00097091", "output_locID": "00097091-1", "name": "Belgrade", "focus_area": "2", "lat": "44.804010", "type": "PPLC", "awardID": "00090554", "lon": "20.465130", "precision": "1", "focus_area_descr": "Democratic Governance"}, {"outputID": "00097092", "output_locID": "00097092-1", "name": "Belgrade", "focus_area": "2", "lat": "44.804010", "type": "PPLC", "awardID": "00090554", "lon": "20.465130", "precision": "1", "focus_area_descr": "Democratic Governance"}]}, {"title": "response to violence against women", "id": "00090557", "subnational": [{"outputID": "00096268", "output_locID": "00096268-1", "name": "Belgrade", "focus_area": "4", "lat": "44.804010", "type": "PPLC", "awardID": "00090557", "lon": "20.465130", "precision": "1", "focus_area_descr": "Gender Equality"}]}, {"title": "accelerating accountability mechanisms in public finance", "id": "00090562", "subnational": [{"outputID": "00096273", "output_locID": "00096273-1", "name": "Belgrade", "focus_area": "2", "lat": "44.804010", "type": "PPLC", "awardID": "00090562", "lon": "20.465130", "precision": "1", "focus_area_descr": "Democratic Governance"}, {"outputID": "00101322", "output_locID": "00101322-1", "name": "Belgrade", "focus_area": "2", "lat": "44.804010", "type": "PPLC", "awardID": "00090562", "lon": "20.465130", "precision": "1", "focus_area_descr": "Democratic Governance"}, {"outputID": "00101323", "output_locID": "00101323-1", "name": "Belgrade", "focus_area": "2", "lat": "44.804010", "type": "PPLC", "awardID": "00090562", "lon": "20.465130", "precision": "1", "focus_area_descr": "Democratic Governance"}, {"outputID": "00101324", "output_locID": "00101324-1", "name": "Belgrade", "focus_area": "2", "lat": "44.804010", "type": "PPLC", "awardID": "00090562", "lon": "20.465130", "precision": "1", "focus_area_descr": "Democratic Governance"}, {"outputID": "00101325", "output_locID": "00101325-1", "name": "Belgrade", "focus_area": "2", "lat": "44.804010", "type": "PPLC", "awardID": "00090562", "lon": "20.465130", "precision": "1", "focus_area_descr": "Democratic Governance"}, {"outputID": "00101326", "output_locID": "00101326-1", "name": "Belgrade", "focus_area": "2", "lat": "44.804010", "type": "PPLC", "awardID": "00090562", "lon": "20.465130", "precision": "1", "focus_area_descr": "Democratic Governance"}, {"outputID": "00101327", "output_locID": "00101327-1", "name": "Belgrade", "focus_area": "2", "lat": "44.804010", "type": "PPLC", "awardID": "00090562", "lon": "20.465130", "precision": "1", "focus_area_descr": "Democratic Governance"}, {"outputID": "00101328", "output_locID": "00101328-1", "name": "Belgrade", "focus_area": "2", "lat": "44.804010", "type": "PPLC", "awardID": "00090562", "lon": "20.465130", "precision": "1", "focus_area_descr": "Democratic Governance"}]}, {"title": "open data in the republic of serbia", "id": "00090566", "subnational": [{"outputID": "00096277", "output_locID": "00096277-1", "name": "Belgrade", "focus_area": "2", "lat": "44.804010", "type": "PPLC", "awardID": "00090566", "lon": "20.465130", "precision": "1", "focus_area_descr": "Democratic Governance"}]}, {"title": "ministry of finance in eu accession", "id": "00092490", "subnational": [{"outputID": "00097177", "output_locID": "00097177-1", "name": "Belgrade", "focus_area": "2", "lat": "44.804010", "type": "PPLC", "awardID": "00092490", "lon": "20.465130", "precision": "1", "focus_area_descr": "Democratic Governance"}]}, {"title": "aid for trade-support to agro-industry", "id": "00094785", "subnational": [{"outputID": "00098874", "output_locID": "00098874-1", "name": "Belgrade", "focus_area": "1", "lat": "44.804010", "type": "PPLC", "awardID": "00094785", "lon": "20.465130", "precision": "1", "focus_area_descr": "Inclusive  Sustainable Growth"}]}, {"title": "response to migration crisis", "id": "00094787", "subnational": [{"outputID": "00098878", "output_locID": "00098878-1", "name": "Pre\u0161evo", "focus_area": "5", "lat": "42.309170", "type": "PPLA3", "awardID": "00094787", "lon": "21.649170", "precision": "1", "focus_area_descr": "Climate Change  Disaster Resilience"}, {"outputID": "00098878", "output_locID": "00098878-2", "name": "Kanji\u017ea", "focus_area": "5", "lat": "46.066670", "type": "PPLA3", "awardID": "00094787", "lon": "20.050000", "precision": "1", "focus_area_descr": "Climate Change  Disaster Resilience"}, {"outputID": "00098878", "output_locID": "00098878-3", "name": "Dimitrovgrad", "focus_area": "5", "lat": "43.014170", "type": "PPLA3", "awardID": "00094787", "lon": "22.775560", "precision": "1", "focus_area_descr": "Climate Change  Disaster Resilience"}, {"outputID": "00098878", "output_locID": "00098878-4", "name": "Bosilegrad", "focus_area": "5", "lat": "42.501100", "type": "PPLA3", "awardID": "00094787", "lon": "22.472380", "precision": "1", "focus_area_descr": "Climate Change  Disaster Resilience"}, {"outputID": "00098878", "output_locID": "00098878-5", "name": "\u0160id", "focus_area": "5", "lat": "45.128330", "type": "PPLA3", "awardID": "00094787", "lon": "19.226390", "precision": "1", "focus_area_descr": "Climate Change  Disaster Resilience"}]}, {"title": "mercury initial assessment in the republic of serbia", "id": "00095474", "subnational": [{"outputID": "00099482", "output_locID": "00099482-1", "name": "Belgrade", "focus_area": "1", "lat": "44.804010", "type": "PPLC", "awardID": "00095474", "lon": "20.465130", "precision": "1", "focus_area_descr": "Inclusive  Sustainable Growth"}]}, {"title": "development agency of the republic of serbia", "id": "00096790", "subnational": [{"outputID": "00100697", "output_locID": "00100697-1", "name": "Belgrade", "focus_area": "1", "lat": "44.804010", "type": "PPLC", "awardID": "00096790", "lon": "20.465130", "precision": "1", "focus_area_descr": "Inclusive  Sustainable Growth"}]}, {"title": "local resilience to migration", "id": "00097810", "subnational": [{"outputID": "00101381", "output_locID": "00101381-1", "name": "Pre\u0161evo", "focus_area": "5", "lat": "42.309170", "type": "PPLA3", "awardID": "00097810", "lon": "21.649170", "precision": "1", "focus_area_descr": "Climate Change  Disaster Resilience"}, {"outputID": "00101381", "output_locID": "00101381-2", "name": "Kanji\u017ea", "focus_area": "5", "lat": "46.066670", "type": "PPLA3", "awardID": "00097810", "lon": "20.050000", "precision": "1", "focus_area_descr": "Climate Change  Disaster Resilience"}, {"outputID": "00101381", "output_locID": "00101381-3", "name": "Dimitrovgrad", "focus_area": "5", "lat": "43.014170", "type": "PPLA3", "awardID": "00097810", "lon": "22.775560", "precision": "1", "focus_area_descr": "Climate Change  Disaster Resilience"}, {"outputID": "00101381", "output_locID": "00101381-4", "name": "Bosilegrad", "focus_area": "5", "lat": "42.501100", "type": "PPLA3", "awardID": "00097810", "lon": "22.472380", "precision": "1", "focus_area_descr": "Climate Change  Disaster Resilience"}, {"outputID": "00101381", "output_locID": "00101381-5", "name": "Subotica", "focus_area": "5", "lat": "46.100000", "type": "PPLA2", "awardID": "00097810", "lon": "19.666670", "precision": "1", "focus_area_descr": "Climate Change  Disaster Resilience"}, {"outputID": "00101381", "output_locID": "00101381-6", "name": "\u0160id", "focus_area": "5", "lat": "45.128330", "type": "PPLA3", "awardID": "00097810", "lon": "19.226390", "precision": "1", "focus_area_descr": "Climate Change  Disaster Resilience"}]}, {"title": "innovation in the public sector", "id": "00099088", "subnational": [{"outputID": "00102309", "output_locID": "00102309-1", "name": "Belgrade", "focus_area": "2", "lat": "44.804010", "type": "PPLC", "awardID": "00099088", "lon": "20.465130", "precision": "1", "focus_area_descr": "Democratic Governance"}]}, {"title": "diaspora home office", "id": "00099915", "subnational": [{"outputID": "00103118", "output_locID": "00103118-1", "name": "Ni\u0161", "focus_area": "7", "lat": "43.025060", "type": "PPL", "awardID": "00099915", "lon": "20.598240", "precision": "1", "focus_area_descr": "Development Impact  Effectiveness"}]}, {"title": "e-starting business", "id": "00100541", "subnational": [{"outputID": "00103453", "output_locID": "00103453-1", "name": "Belgrade", "focus_area": "7", "lat": "44.804010", "type": "PPLC", "awardID": "00100541", "lon": "20.465130", "precision": "1", "focus_area_descr": "Development Impact  Effectiveness"}]}, {"title": "social impact bond youth employment", "id": "00101811", "subnational": [{"outputID": "00104074", "output_locID": "00104074-1", "name": "Belgrade", "focus_area": "1", "lat": "44.804010", "type": "PPLC", "awardID": "00101811", "lon": "20.465130", "precision": "1", "focus_area_descr": "Inclusive  Sustainable Growth"}]}, {"title": "acadi", "id": "00102693", "subnational": []}, {"title": "eu open communities", "id": "00103911", "subnational": []}, {"title": "support to the office of the resident coordinator", "id": "00046274", "subnational": [{"outputID": "00069282", "output_locID": "00069282-1", "name": "Vr\u0161ac", "focus_area": "16", "lat": "45.116670", "type": "PPLA3", "awardID": "00046274", "lon": "21.303610", "precision": "1", "focus_area_descr": "Organizational Results Area 9"}]}, {"title": "parliament of serbia", "id": "00050865", "subnational": [{"outputID": "00083839", "output_locID": "00083839-1", "name": "Belgrade", "focus_area": "2", "lat": "44.804010", "type": "PPLC", "awardID": "00050865", "lon": "20.465130", "precision": "1", "focus_area_descr": "Democratic Governance"}]}, {"title": "seesac 2009-2016", "id": "00051250", "subnational": [{"outputID": "00080103", "output_locID": "00080103-1", "name": "Vr\u0161ac", "focus_area": "4", "lat": "45.116670", "type": "PPLA3", "awardID": "00051250", "lon": "21.303610", "precision": "1", "focus_area_descr": "Gender Equality"}, {"outputID": "00072526", "output_locID": "00072526-1", "name": "Vr\u0161ac", "focus_area": "3", "lat": "45.116670", "type": "PPLA3", "awardID": "00051250", "lon": "21.303610", "precision": "1", "focus_area_descr": "Responsive Institutions"}, {"outputID": "00088637", "output_locID": "00088637-1", "name": "Belgrade", "focus_area": "3", "lat": "44.804010", "type": "PPLC", "awardID": "00051250", "lon": "20.465130", "precision": "1", "focus_area_descr": "Responsive Institutions"}, {"outputID": "00074670", "output_locID": "00074670-1", "name": "Vr\u0161ac", "focus_area": "3", "lat": "45.116670", "type": "PPLA3", "awardID": "00051250", "lon": "21.303610", "precision": "1", "focus_area_descr": "Responsive Institutions"}, {"outputID": "00075297", "output_locID": "00075297-1", "name": "Vr\u0161ac", "focus_area": "4", "lat": "45.116670", "type": "PPLA3", "awardID": "00051250", "lon": "21.303610", "precision": "1", "focus_area_descr": "Gender Equality"}]}, {"title": "support to ministry of finance", "id": "00058117", "subnational": [{"outputID": "00072046", "output_locID": "00072046-1", "name": "Vr\u0161ac", "focus_area": "3", "lat": "45.116670", "type": "PPLA3", "awardID": "00058117", "lon": "21.303610", "precision": "1", "focus_area_descr": "Responsive Institutions"}]}, {"title": "national bd planning for implementing cbd strategic plan", "id": "00067932", "subnational": [{"outputID": "00083419", "output_locID": "00083419-1", "name": "Vr\u0161ac", "focus_area": "2", "lat": "45.116670", "type": "PPLA3", "awardID": "00067932", "lon": "21.303610", "precision": "1", "focus_area_descr": "Democratic Governance"}]}, {"title": "human security in southwest serbia", "id": "00070332", "subnational": [{"outputID": "00084373", "output_locID": "00084373-1", "name": "Tutin", "focus_area": "2", "lat": "42.990280", "type": "PPLA3", "awardID": "00070332", "lon": "20.331390", "precision": "1", "focus_area_descr": "Democratic Governance"}, {"outputID": "00084373", "output_locID": "00084373-2", "name": "Novi Pazar", "focus_area": "2", "lat": "43.136670", "type": "PPLA3", "awardID": "00070332", "lon": "20.512220", "precision": "1", "focus_area_descr": "Democratic Governance"}, {"outputID": "00084373", "output_locID": "00084373-3", "name": "Sjenica", "focus_area": "2", "lat": "43.273060", "type": "PPLA3", "awardID": "00070332", "lon": "19.999440", "precision": "1", "focus_area_descr": "Democratic Governance"}, {"outputID": "00084373", "output_locID": "00084373-4", "name": "Prijepolje", "focus_area": "2", "lat": "43.389960", "type": "PPLA3", "awardID": "00070332", "lon": "19.648700", "precision": "1", "focus_area_descr": "Democratic Governance"}, {"outputID": "00084373", "output_locID": "00084373-5", "name": "Nova Varo\u0161", "focus_area": "2", "lat": "43.460560", "type": "PPLA3", "awardID": "00070332", "lon": "19.811390", "precision": "1", "focus_area_descr": "Democratic Governance"}]}, {"title": "institutional response to gender based violence", "id": "00070652", "subnational": [{"outputID": "00084508", "output_locID": "00084508-1", "name": "Vr\u0161ac", "focus_area": "4", "lat": "45.116670", "type": "PPLA3", "awardID": "00070652", "lon": "21.303610", "precision": "1", "focus_area_descr": "Gender Equality"}]}, {"title": "increased resilience to respond to emergency situations", "id": "00087718", "subnational": [{"outputID": "00094641", "output_locID": "00094641-1", "name": "Belgrade", "focus_area": "6", "lat": "44.804010", "type": "PPLC", "awardID": "00087718", "lon": "20.465130", "precision": "1", "focus_area_descr": "Crisis Prevention & Recovery"}]}, {"title": "chemicals safety in the republic of serbia", "id": "00088765", "subnational": [{"outputID": "00095295", "output_locID": "00095295-1", "name": "Belgrade", "focus_area": "1", "lat": "44.804010", "type": "PPLC", "awardID": "00088765", "lon": "20.465130", "precision": "1", "focus_area_descr": "Inclusive & Sustainable Growth"}]}, {"title": "project preparation for capacity development for meas", "id": "00091165", "subnational": [{"outputID": "00096557", "output_locID": "00096557-1", "name": "Belgrade", "focus_area": "1", "lat": "44.804010", "type": "PPLC", "awardID": "00091165", "lon": "20.465130", "precision": "1", "focus_area_descr": "Inclusive & Sustainable Growth"}]}, {"title": "strengthen coordination & response to migration crisis", "id": "00093024", "subnational": [{"outputID": "00097486", "output_locID": "00097486-1", "name": "Subotica", "focus_area": "5", "lat": "44.171160", "type": "PPL", "awardID": "00093024", "lon": "21.338620", "precision": "1", "focus_area_descr": "Climate Change & Disaster Resilience"}, {"outputID": "00097486", "output_locID": "00097486-2", "name": "Pre\u0161evo", "focus_area": "5", "lat": "42.309170", "type": "PPLA3", "awardID": "00093024", "lon": "21.649170", "precision": "1", "focus_area_descr": "Climate Change & Disaster Resilience"}, {"outputID": "00097486", "output_locID": "00097486-3", "name": "Kanji\u017ea", "focus_area": "5", "lat": "46.066670", "type": "PPLA3", "awardID": "00093024", "lon": "20.050000", "precision": "1", "focus_area_descr": "Climate Change & Disaster Resilience"}, {"outputID": "00097486", "output_locID": "00097486-4", "name": "Dimitrovgrad", "focus_area": "5", "lat": "43.014170", "type": "PPLA3", "awardID": "00093024", "lon": "22.775560", "precision": "1", "focus_area_descr": "Climate Change & Disaster Resilience"}, {"outputID": "00097486", "output_locID": "00097486-5", "name": "Bosilegrad", "focus_area": "5", "lat": "42.501100", "type": "PPLA3", "awardID": "00093024", "lon": "22.472380", "precision": "1", "focus_area_descr": "Climate Change & Disaster Resilience"}, {"outputID": "00097486", "output_locID": "00097486-6", "name": "\u0160id", "focus_area": "5", "lat": "45.128330", "type": "PPLA3", "awardID": "00093024", "lon": "19.226390", "precision": "1", "focus_area_descr": "Climate Change & Disaster Resilience"}]}, {"title": "climate smart urban development ppg", "id": "00096169", "subnational": [{"outputID": "00100158", "output_locID": "00100158-1", "name": "Belgrade", "focus_area": "7", "lat": "44.804010", "type": "PPLC", "awardID": "00096169", "lon": "20.465130", "precision": "1", "focus_area_descr": "Development Impact & Effectiveness"}]}, {"title": "hiv/aids", "id": "00046174", "subnational": [{"outputID": "00055065", "output_locID": "00055065-1", "name": "Vr\u0161ac", "focus_area": "3", "lat": "45.116670", "type": "PPLA3", "awardID": "00046174", "lon": "21.303610", "precision": "1", "focus_area_descr": "Responsive Institutions"}]}, {"title": "protected areas in serbia", "id": "00059435", "subnational": [{"outputID": "00074312", "output_locID": "00074312-1", "name": "Vr\u0161ac", "focus_area": "1", "lat": "45.116670", "type": "PPLA3", "awardID": "00059435", "lon": "21.303610", "precision": "1", "focus_area_descr": "Inclusive & Sustainable Growth"}]}, {"title": "sustainable transport in belgrade", "id": "00059575", "subnational": [{"outputID": "00074551", "output_locID": "00074551-1", "name": "Vr\u0161ac", "focus_area": "1", "lat": "45.116670", "type": "PPLA3", "awardID": "00059575", "lon": "21.303610", "precision": "1", "focus_area_descr": "Inclusive & Sustainable Growth"}]}, {"title": "vlasina ecotourism", "id": "00060655", "subnational": [{"outputID": "00076465", "output_locID": "00076465-1", "name": "Op\u0161tina Surdulica", "focus_area": "1", "lat": "42.690380", "type": "ADM3", "awardID": "00060655", "lon": "22.173840", "precision": "1", "focus_area_descr": "Inclusive & Sustainable Growth"}]}, {"title": "second national communication to the unfccc", "id": "00064350", "subnational": [{"outputID": "00081189", "output_locID": "00081189-1", "name": "Vr\u0161ac", "focus_area": "1", "lat": "45.116670", "type": "PPLA3", "awardID": "00064350", "lon": "21.303610", "precision": "1", "focus_area_descr": "Inclusive & Sustainable Growth"}]}, {"title": "serbia's first biennial update report", "id": "00076646", "subnational": [{"outputID": "00087930", "output_locID": "00087930-1", "name": "Belgrade", "focus_area": "1", "lat": "44.804010", "type": "PPLC", "awardID": "00076646", "lon": "20.465130", "precision": "1", "focus_area_descr": "Inclusive & Sustainable Growth"}]}, {"title": "advancing accountablity in public finance 2", "id": "00077705", "subnational": [{"outputID": "00088320", "output_locID": "00088320-1", "name": "Belgrade", "focus_area": "2", "lat": "44.804010", "type": "PPLC", "awardID": "00077705", "lon": "20.465130", "precision": "1", "focus_area_descr": "Democratic Governance"}, {"outputID": "00088570", "output_locID": "00088570-1", "name": "Belgrade", "focus_area": "2", "lat": "44.804010", "type": "PPLC", "awardID": "00077705", "lon": "20.465130", "precision": "1", "focus_area_descr": "Democratic Governance"}, {"outputID": "00088571", "output_locID": "00088571-1", "name": "Belgrade", "focus_area": "2", "lat": "44.804010", "type": "PPLC", "awardID": "00077705", "lon": "20.465130", "precision": "1", "focus_area_descr": "Democratic Governance"}, {"outputID": "00088574", "output_locID": "00088574-1", "name": "Belgrade", "focus_area": "2", "lat": "44.804010", "type": "PPLC", "awardID": "00077705", "lon": "20.465130", "precision": "1", "focus_area_descr": "Democratic Governance"}, {"outputID": "00088575", "output_locID": "00088575-1", "name": "Belgrade", "focus_area": "2", "lat": "44.804010", "type": "PPLC", "awardID": "00077705", "lon": "20.465130", "precision": "1", "focus_area_descr": "Democratic Governance"}, {"outputID": "00088576", "output_locID": "00088576-1", "name": "Belgrade", "focus_area": "2", "lat": "44.804010", "type": "PPLC", "awardID": "00077705", "lon": "20.465130", "precision": "1", "focus_area_descr": "Democratic Governance"}, {"outputID": "00088577", "output_locID": "00088577-1", "name": "Belgrade", "focus_area": "2", "lat": "44.804010", "type": "PPLC", "awardID": "00077705", "lon": "20.465130", "precision": "1", "focus_area_descr": "Democratic Governance"}, {"outputID": "00093208", "output_locID": "00093208-1", "name": "Belgrade", "focus_area": "2", "lat": "44.804010", "type": "PPLC", "awardID": "00077705", "lon": "20.465130", "precision": "1", "focus_area_descr": "Democratic Governance"}, {"outputID": "00093209", "output_locID": "00093209-1", "name": "Belgrade", "focus_area": "2", "lat": "44.804010", "type": "PPLC", "awardID": "00077705", "lon": "20.465130", "precision": "1", "focus_area_descr": "Democratic Governance"}]}, {"title": "promote energy management systems in municipalities ppg", "id": "00079382", "subnational": [{"outputID": "00089373", "output_locID": "00089373-1", "name": "Belgrade", "focus_area": "1", "lat": "44.804010", "type": "PPLC", "awardID": "00079382", "lon": "20.465130", "precision": "1", "focus_area_descr": "Inclusive & Sustainable Growth"}]}, {"title": "administrative agent south serbia", "id": "00060203", "subnational": [{"outputID": "00075701", "output_locID": "00075701-1", "name": "Vr\u0161ac", "focus_area": "0", "lat": "45.116670", "type": "PPLA3", "awardID": "00060203", "lon": "21.303610", "precision": "1", "focus_area_descr": "SP_NONE_APPLIES"}]}, {"title": "drr capacity development", "id": "00060458", "subnational": [{"outputID": "00076131", "output_locID": "00076131-1", "name": "Vr\u0161ac", "focus_area": "5", "lat": "45.116670", "type": "PPLA3", "awardID": "00060458", "lon": "21.303610", "precision": "1", "focus_area_descr": "Climate Change & Disaster Resilience"}]}, {"title": "youth against corruption", "id": "00066786", "subnational": [{"outputID": "00082829", "output_locID": "00082829-1", "name": "Vr\u0161ac", "focus_area": "2", "lat": "45.116670", "type": "PPLA3", "awardID": "00066786", "lon": "21.303610", "precision": "1", "focus_area_descr": "Democratic Governance"}]}, {"title": "anti-discrimination programme", "id": "00046125", "subnational": [{"outputID": "00079354", "output_locID": "00079354-1", "name": "Vr\u0161ac", "focus_area": "2", "lat": "45.116670", "type": "PPLA3", "awardID": "00046125", "lon": "21.303610", "precision": "1", "focus_area_descr": "Democratic Governance"}]}, {"title": "public finances accountability", "id": "00050321", "subnational": [{"outputID": "00073006", "output_locID": "00073006-1", "name": "Vr\u0161ac", "focus_area": "2", "lat": "45.116670", "type": "PPLA3", "awardID": "00050321", "lon": "21.303610", "precision": "1", "focus_area_descr": "Democratic Governance"}, {"outputID": "00073008", "output_locID": "00073008-1", "name": "Vr\u0161ac", "focus_area": "2", "lat": "45.116670", "type": "PPLA3", "awardID": "00050321", "lon": "21.303610", "precision": "1", "focus_area_descr": "Democratic Governance"}]}, {"title": "local development in south serbia", "id": "00058284", "subnational": [{"outputID": "00072349", "output_locID": "00072349-1", "name": "Vr\u0161ac", "focus_area": "3", "lat": "45.116670", "type": "PPLA3", "awardID": "00058284", "lon": "21.303610", "precision": "1", "focus_area_descr": "Responsive Institutions"}]}, {"title": "mdgf peace building", "id": "00058294", "subnational": [{"outputID": "00072368", "output_locID": "00072368-1", "name": "Vr\u0161ac", "focus_area": "1", "lat": "45.116670", "type": "PPLA3", "awardID": "00058294", "lon": "21.303610", "precision": "1", "focus_area_descr": "Inclusive & Sustainable Growth"}]}, {"title": "anti-corruption programme", "id": "00059339", "subnational": [{"outputID": "00077965", "output_locID": "00077965-1", "name": "Vr\u0161ac", "focus_area": "2", "lat": "45.116670", "type": "PPLA3", "awardID": "00059339", "lon": "21.303610", "precision": "1", "focus_area_descr": "Democratic Governance"}]}, {"title": "revitalization of rural areas", "id": "00059772", "subnational": [{"outputID": "00074920", "output_locID": "00074920-1", "name": "Op\u0161tina \u017dagubica", "focus_area": "1", "lat": "44.196540", "type": "ADM3", "awardID": "00059772", "lon": "21.786920", "precision": "1", "focus_area_descr": "Inclusive & Sustainable Growth"}, {"outputID": "00074920", "output_locID": "00074920-2", "name": "Vr\u0161ac", "focus_area": "1", "lat": "45.116670", "type": "PPLA3", "awardID": "00059772", "lon": "21.303610", "precision": "1", "focus_area_descr": "Inclusive & Sustainable Growth"}, {"outputID": "00074920", "output_locID": "00074920-3", "name": "Op\u0161tina Kucevo", "focus_area": "1", "lat": "44.472930", "type": "ADM3", "awardID": "00059772", "lon": "21.664520", "precision": "1", "focus_area_descr": "Inclusive & Sustainable Growth"}, {"outputID": "00074920", "output_locID": "00074920-4", "name": "Golubac", "focus_area": "1", "lat": "44.652960", "type": "PPLA3", "awardID": "00059772", "lon": "21.631990", "precision": "1", "focus_area_descr": "Inclusive & Sustainable Growth"}, {"outputID": "00074920", "output_locID": "00074920-5", "name": "Bor", "focus_area": "1", "lat": "44.074880", "type": "PPLA2", "awardID": "00059772", "lon": "22.095910", "precision": "1", "focus_area_descr": "Inclusive & Sustainable Growth"}, {"outputID": "00074920", "output_locID": "00074920-6", "name": "Alibunar", "focus_area": "1", "lat": "45.080830", "type": "PPLA3", "awardID": "00059772", "lon": "20.965830", "precision": "1", "focus_area_descr": "Inclusive & Sustainable Growth"}, {"outputID": "00074920", "output_locID": "00074920-7", "name": "Cajetina", "focus_area": "1", "lat": "43.749770", "type": "PPLA3", "awardID": "00059772", "lon": "19.712730", "precision": "1", "focus_area_descr": "Inclusive & Sustainable Growth"}]}, {"title": "inclusive local development in south serbia", "id": "00060189", "subnational": [{"outputID": "00075685", "output_locID": "00075685-1", "name": "Vr\u0161ac", "focus_area": "3", "lat": "45.116670", "type": "PPLA3", "awardID": "00060189", "lon": "21.303610", "precision": "1", "focus_area_descr": "Responsive Institutions"}]}, {"title": "communicating eu in serbia", "id": "00060699", "subnational": [{"outputID": "00076541", "output_locID": "00076541-1", "name": "Vr\u0161ac", "focus_area": "0", "lat": "45.116670", "type": "PPLA3", "awardID": "00060699", "lon": "21.303610", "precision": "1", "focus_area_descr": "SP_NONE_APPLIES"}]}, {"title": "biomass markets in serbia", "id": "00065756", "subnational": [{"outputID": "00082125", "output_locID": "00082125-1", "name": "Vr\u0161ac", "focus_area": "1", "lat": "45.116670", "type": "PPLA3", "awardID": "00065756", "lon": "21.303610", "precision": "1", "focus_area_descr": "Inclusive & Sustainable Growth"}]}, {"title": "initial national communication", "id": "00046097", "subnational": []}, {"title": "gender based violence", "id": "00051261", "subnational": []}, {"title": "mdgf sustainable rural tourism", "id": "00057155", "subnational": []}, {"title": "mdgf youth employment", "id": "00057478", "subnational": []}, {"title": "remediation of bor mine", "id": "00058608", "subnational": []}, {"title": "de-development effectiveness", "id": "00065078", "subnational": []}, {"title": "biodiversity strategy", "id": "00046087", "subnational": []}, {"title": "democratic governance at local level", "id": "00050436", "subnational": []}, {"title": "human development and mdgs", "id": "00046217", "subnational": []}, {"title": "integrated local development", "id": "00060050", "subnational": []}, {"title": "national capacity self-assessment", "id": "00046124", "subnational": []}, {"title": "peace support operations", "id": "00061636", "subnational": []}], "op_unit": "SRB"}