{"iso_num":"688","op_unit":"SRB","projects":[{"id":"00060203","subnational":[{"awardID":"00060203","lat":"45.11667","lon":"21.30361","name":"Vrsac, Serbia","precision":"3","type":"PPLA2"}],"title":"Administrative Agent South Serbia"},{"id":"00077705","subnational":[],"title":"Advancing Accountablity in Public Finance 2"},{"id":"00059339","subnational":[{"awardID":"00059339","lat":"45.11667","lon":"21.30361","name":"Vrsac, Serbia","precision":"3","type":"PPLA2"}],"title":"Anti-Corruption Programme"},{"id":"00046125","subnational":[{"awardID":"00046125","lat":"45.11667","lon":"21.30361","name":"Vrsac, Serbia","precision":"3","type":"PPLA2"},{"awardID":"00046125","lat":"45.11667","lon":"21.30361","name":"Vrsac, Serbia","precision":"3","type":"PPLA2"}],"title":"Anti-Discrimination Programme"},{"id":"00065756","subnational":[{"awardID":"00065756","lat":"45.11667","lon":"21.30361","name":"Vrsac, Serbia","precision":"3","type":"PPLA2"}],"title":"Biomass Markets in Serbia"},{"id":"00062105","subnational":[{"awardID":"00062105","lat":"45.11667","lon":"21.30361","name":"Vrsac, Serbia","precision":"3","type":"PPLA2"}],"title":"Capacity Development Programme for MOD Serbia"},{"id":"00060699","subnational":[{"awardID":"00060699","lat":"45.11667","lon":"21.30361","name":"Vrsac, Serbia","precision":"3","type":"PPLA2"}],"title":"Communicating EU in Serbia"},{"id":"00060458","subnational":[{"awardID":"00060458","lat":"45.11667","lon":"21.30361","name":"Vrsac, Serbia","precision":"3","type":"PPLA2"}],"title":"DRR Capacity Development"},{"id":"00062091","subnational":[{"awardID":"00062091","lat":"45.11667","lon":"21.30361","name":"Vrsac, Serbia","precision":"3","type":"PPLA2"},{"awardID":"00062091","lat":"45.11667","lon":"21.30361","name":"Vrsac, Serbia","precision":"3","type":"PPLA2"},{"awardID":"00062091","lat":"45.11667","lon":"21.30361","name":"Vrsac, Serbia","precision":"3","type":"PPLA2"}],"title":"Energy and Environment"},{"id":"00062090","subnational":[{"awardID":"00062090","lat":"45.11667","lon":"21.30361","name":"Vrsac, Serbia","precision":"3","type":"PPLA2"}],"title":"Good Governance"},{"id":"00046174","subnational":[{"awardID":"00046174","lat":"45.11667","lon":"21.30361","name":"Vrsac, Serbia","precision":"3","type":"PPLA2"}],"title":"HIV/AIDS"},{"id":"00070332","subnational":[{"awardID":"00070332","lat":"45.11667","lon":"21.30361","name":"Vrsac, Serbia","precision":"3","type":"PPLA2"}],"title":"Human Security in southwest Serbia"},{"id":"00066910","subnational":[{"awardID":"00066910","lat":"45.11667","lon":"21.30361","name":"Vrsac, Serbia","precision":"3","type":"PPLA2"},{"awardID":"00066910","lat":"45.11667","lon":"21.30361","name":"Vrsac, Serbia","precision":"3","type":"PPLA2"},{"awardID":"00066910","lat":"45.11667","lon":"21.30361","name":"Vrsac, Serbia","precision":"3","type":"PPLA2"},{"awardID":"00066910","lat":"45.11667","lon":"21.30361","name":"Vrsac, Serbia","precision":"3","type":"PPLA2"},{"awardID":"00066910","lat":"45.11667","lon":"21.30361","name":"Vrsac, Serbia","precision":"3","type":"PPLA2"}],"title":"Improving Services at Local Level"},{"id":"00060189","subnational":[{"awardID":"00060189","lat":"45.11667","lon":"21.30361","name":"Vrsac, Serbia","precision":"3","type":"PPLA2"}],"title":"Inclusive Local Development in South Serbia"},{"id":"00070652","subnational":[{"awardID":"00070652","lat":"45.11667","lon":"21.30361","name":"Vrsac, Serbia","precision":"3","type":"PPLA2"}],"title":"Institutional Response to Gender Based Violence"},{"id":"00058284","subnational":[{"awardID":"00058284","lat":"45.11667","lon":"21.30361","name":"Vrsac, Serbia","precision":"3","type":"PPLA2"}],"title":"Local Development in South Serbia"},{"id":"00058294","subnational":[{"awardID":"00058294","lat":"45.11667","lon":"21.30361","name":"Vrsac, Serbia","precision":"3","type":"PPLA2"}],"title":"MDGF Peace Building"},{"id":"00067932","subnational":[{"awardID":"00067932","lat":"45.11667","lon":"21.30361","name":"Vrsac, Serbia","precision":"3","type":"PPLA2"}],"title":"National BD Planning for Implementing CBD Strategic Plan"},{"id":"00050865","subnational":[{"awardID":"00050865","lat":"45.11667","lon":"21.30361","name":"Vrsac, Serbia","precision":"3","type":"PPLA2"}],"title":"Parliament of Serbia"},{"id":"00059435","subnational":[{"awardID":"00059435","lat":"45.11667","lon":"21.30361","name":"Vrsac, Serbia","precision":"3","type":"PPLA2"}],"title":"Protected Areas in Serbia"},{"id":"00050321","subnational":[{"awardID":"00050321","lat":"45.11667","lon":"21.30361","name":"Vrsac, Serbia","precision":"3","type":"PPLA2"},{"awardID":"00050321","lat":"45.11667","lon":"21.30361","name":"Vrsac, Serbia","precision":"3","type":"PPLA2"}],"title":"Public Finances Accountability"},{"id":"00059772","subnational":[{"awardID":"00059772","lat":"45.08083","lon":"20.96583","name":"Alibunar, Serbia","precision":"3","type":"PPLA2"},{"awardID":"00059772","lat":"45.08083","lon":"20.96583","name":"Alibunar, Serbia","precision":"3","type":"PPLA2"},{"awardID":"00059772","lat":"44.07488","lon":"22.09591","name":"Bor, Serbia","precision":"3","type":"PPLA2"},{"awardID":"00059772","lat":"43.74977","lon":"19.71273","name":"Cajetina, Serbia","precision":"3","type":"PPLA2"},{"awardID":"00059772","lat":"44.65296","lon":"21.63199","name":"Golubac, Serbia","precision":"3","type":"PPLA2"},{"awardID":"00059772","lat":"44.47293","lon":"21.66452","name":"Kucevo, Serbia","precision":"3","type":"ADM2"},{"awardID":"00059772","lat":"45.11667","lon":"21.30361","name":"Vrsac, Serbia","precision":"3","type":"PPLA2"},{"awardID":"00059772","lat":"44.19654","lon":"21.78692","name":"Zagubica, Serbia","precision":"3","type":"ADM2"}],"title":"Revitalization of Rural Areas"},{"id":"00064350","subnational":[{"awardID":"00064350","lat":"45.11667","lon":"21.30361","name":"Vrsac, Serbia","precision":"3","type":"PPLA2"}],"title":"Second National Communication to the UNFCCC"},{"id":"00051250","subnational":[{"awardID":"00051250","lat":"45.11667","lon":"21.30361","name":"Vrsac, Serbia","precision":"3","type":"PPLA2"},{"awardID":"00051250","lat":"45.11667","lon":"21.30361","name":"Vrsac, Serbia","precision":"3","type":"PPLA2"},{"awardID":"00051250","lat":"45.11667","lon":"21.30361","name":"Vrsac, Serbia","precision":"3","type":"PPLA2"},{"awardID":"00051250","lat":"45.11667","lon":"21.30361","name":"Vrsac, Serbia","precision":"3","type":"PPLA2"}],"title":"SEESAC 2009-2016"},{"id":"00062092","subnational":[{"awardID":"00062092","lat":"45.11667","lon":"21.30361","name":"Vrsac, Serbia","precision":"3","type":"PPLA2"},{"awardID":"00062092","lat":"45.11667","lon":"21.30361","name":"Vrsac, Serbia","precision":"3","type":"PPLA2"}],"title":"Social Inclusion"},{"id":"00058117","subnational":[{"awardID":"00058117","lat":"45.11667","lon":"21.30361","name":"Vrsac, Serbia","precision":"3","type":"PPLA2"}],"title":"Support to Ministry of Finance"},{"id":"00046274","subnational":[{"awardID":"00046274","lat":"45.11667","lon":"21.30361","name":"Vrsac, Serbia","precision":"3","type":"PPLA2"}],"title":"Support to the Office of the Resident Coordinator"},{"id":"00059575","subnational":[{"awardID":"00059575","lat":"45.11667","lon":"21.30361","name":"Vrsac, Serbia","precision":"3","type":"PPLA2"}],"title":"Sustainable Transport in Belgrade"},{"id":"00060655","subnational":[{"awardID":"00060655","lat":"42.69038","lon":"22.17384","name":"Surdulica","precision":"3","type":"ADM2"}],"title":"Vlasina Ecotourism"},{"id":"00066786","subnational":[{"awardID":"00066786","lat":"45.11667","lon":"21.30361","name":"Vrsac, Serbia","precision":"3","type":"PPLA2"}],"title":"Youth Against Corruption"}]}