{"iso_num":"688","op_unit":"SRB","projects":[{"id":"00046087","subnational":[],"title":"Biodiversity Strategy"},{"id":"00046097","subnational":[],"title":"Initial National Communication"},{"id":"00046124","subnational":[],"title":"National Capacity Self-Assessment"},{"id":"00046125","subnational":[],"title":"Anti-Discrimination Programme"},{"id":"00046174","subnational":[],"title":"HIV/AIDS"},{"id":"00046217","subnational":[],"title":"Human Development and MDGs"},{"id":"00050321","subnational":[],"title":"Public Finances Accountability"},{"id":"00050436","subnational":[],"title":"Democratic Governance at Local Level"},{"id":"00050865","subnational":[],"title":"Parliament of Serbia"},{"id":"00051250","subnational":[],"title":"SEESAC 2009-2014"},{"id":"00051261","subnational":[],"title":"Gender Based Violence"},{"id":"00057155","subnational":[],"title":"MDGF Sustainable Rural Tourism"},{"id":"00057478","subnational":[],"title":"MDGF Youth Employment"},{"id":"00058117","subnational":[],"title":"Support to Ministry of Finance"},{"id":"00058284","subnational":[],"title":"Local Development in South Serbia"},{"id":"00058294","subnational":[],"title":"MDGF Peace Building"},{"id":"00058608","subnational":[],"title":"Remediation of Bor Mine"},{"id":"00059339","subnational":[],"title":"Anti-Corruption Programme"},{"id":"00059435","subnational":[],"title":"Protected Areas in Serbia"},{"id":"00059575","subnational":[],"title":"Sustainable Transport in Belgrade"},{"id":"00059772","subnational":[{"lat":43.756117,"lon":19.725135,"precision":"3","scope":"2","type":"2"},{"lat":44.05937,"lon":22.100523,"precision":"3","scope":"3","type":"2"},{"lat":44.197809,"lon":21.787919,"precision":"3","scope":"3","type":"2"},{"lat":44.4709,"lon":21.666925,"precision":"3","scope":"3","type":"2"},{"lat":44.65,"lon":21.626389,"precision":"3","scope":"3","type":"2"},{"lat":45.083333,"lon":20.966667,"precision":"3","scope":"3","type":"2"},{"lat":45.083333,"lon":20.966667,"precision":"3","scope":"3","type":"2"},{"lat":45.12273,"lon":21.30022,"precision":"3","scope":"3","type":"2"}],"title":"Revitalization of Rural Areas"},{"id":"00060050","subnational":[],"title":"Integrated Local Development"},{"id":"00060189","subnational":[],"title":"Inclusive Local Development in South Serbia"},{"id":"00060203","subnational":[],"title":"Administrative Agent South Serbia"},{"id":"00060458","subnational":[],"title":"DRR Capacity Development"},{"id":"00060655","subnational":[{"lat":42.693062,"lon":22.17235,"precision":"3","scope":"1","type":"2"}],"title":"Vlasina Ecotourism"},{"id":"00060699","subnational":[],"title":"Communicating EU in Serbia"},{"id":"00061636","subnational":[],"title":"Peace Support Operations"},{"id":"00062090","subnational":[],"title":"Good Governance"},{"id":"00062091","subnational":[],"title":"Energy and Environment"},{"id":"00062092","subnational":[],"title":"Social Inclusion"},{"id":"00062105","subnational":[],"title":"Capacity Development Programme for MOD Serbia"},{"id":"00064350","subnational":[],"title":"Second National Communication to the UNFCCC"},{"id":"00065078","subnational":[],"title":"DE-Development Effectiveness"},{"id":"00065756","subnational":[],"title":"Biomass Markets in Serbia"},{"id":"00066786","subnational":[],"title":"Youth Against Corruption"},{"id":"00066910","subnational":[],"title":"Improving Services at Local Level"},{"id":"00070332","subnational":[],"title":"Human Security in southwest Serbia"},{"id":"00070652","subnational":[],"title":"Institutional Response to Gender Based Violence"}]}