{"iso_num":"688","op_unit":"SRB","projects":[{"id":"00060203","subnational":[],"title":"Administrative Agent South Serbia"},{"id":"00059339","subnational":[],"title":"Anti-Corruption Programme"},{"id":"00046125","subnational":[],"title":"Anti-Discrimination Programme"},{"id":"00065756","subnational":[],"title":"Biomass Markets in Serbia"},{"id":"00062105","subnational":[],"title":"Capacity Development Programme for MOD Serbia"},{"id":"00060699","subnational":[],"title":"Communicating EU in Serbia"},{"id":"00060458","subnational":[],"title":"DRR Capacity Development"},{"id":"00062091","subnational":[],"title":"Energy and Environment"},{"id":"00062090","subnational":[],"title":"Good Governance"},{"id":"00046174","subnational":[],"title":"HIV/AIDS"},{"id":"00070332","subnational":[],"title":"Human Security in southwest Serbia"},{"id":"00066910","subnational":[],"title":"Improving Services at Local Level"},{"id":"00060189","subnational":[],"title":"Inclusive Local Development in South Serbia"},{"id":"00070652","subnational":[],"title":"Institutional Response to Gender Based Violence"},{"id":"00058284","subnational":[],"title":"Local Development in South Serbia"},{"id":"00058294","subnational":[],"title":"MDGF Peace Building"},{"id":"00067932","subnational":[],"title":"National BD Planning for Implementing CBD Strategic Plan"},{"id":"00050865","subnational":[],"title":"Parliament of Serbia"},{"id":"00059435","subnational":[],"title":"Protected Areas in Serbia"},{"id":"00050321","subnational":[],"title":"Public Finances Accountability"},{"id":"00059772","subnational":[{"awardID":"00059772","lat":"45.08083","lon":"20.96583","name":"Alibunar, Serbia","precision":"3","type":"PPLA3"},{"awardID":"00059772","lat":"45.11667","lon":"21.30361","name":"Vrsac, Serbia","precision":"3","type":"PPLA3"},{"awardID":"00059772","lat":"44.65296","lon":"21.63199","name":"Golubac, Serbia","precision":"3","type":"PPLA3"},{"awardID":"00059772","lat":"44.47293","lon":"21.66452","name":"Kucevo, Serbia","precision":"3","type":"ADM3"},{"awardID":"00059772","lat":"44.07488","lon":"22.09591","name":"Bor, Serbia","precision":"3","type":"PPLA2"},{"awardID":"00059772","lat":"44.19654","lon":"21.78692","name":"Zagubica, Serbia","precision":"3","type":"ADM3"},{"awardID":"00059772","lat":"45.08083","lon":"20.96583","name":"Alibunar, Serbia","precision":"3","type":"PPLA3"},{"awardID":"00059772","lat":"43.74977","lon":"19.71273","name":"Cajetina, Serbia","precision":"3","type":"PPLA3"}],"title":"Revitalization of Rural Areas"},{"id":"00064350","subnational":[],"title":"Second National Communication to the UNFCCC"},{"id":"00051250","subnational":[],"title":"SEESAC 2009-2015"},{"id":"00062092","subnational":[],"title":"Social Inclusion"},{"id":"00058117","subnational":[],"title":"Support to Ministry of Finance"},{"id":"00046274","subnational":[],"title":"Support to the Office of the Resident Coordinator"},{"id":"00059575","subnational":[],"title":"Sustainable Transport in Belgrade"},{"id":"00060655","subnational":[{"awardID":"00060655","lat":"42.69038","lon":"22.17384","name":"Surdulica","precision":"3","type":"ADM3"}],"title":"Vlasina Ecotourism"},{"id":"00066786","subnational":[],"title":"Youth Against Corruption"}]}