{"iso_num": null, "projects": [{"title": "mainstreaming biodiversity into production sectors", "id": "00045015", "subnational": [{"outputID": "00053107", "output_locID": "00053107-1", "name": "Republic of Seychelles", "focus_area": "1", "lat": "-4.583330", "type": "PCLI", "awardID": "00045015", "lon": "55.666670", "precision": "1", "focus_area_descr": "Inclusive & Sustainable Growth"}]}, {"title": "development advisory services", "id": "00050931", "subnational": [{"outputID": "00063166", "output_locID": "00063166-1", "name": "Republic of Seychelles", "focus_area": "0", "lat": "-4.583330", "type": "PCLI", "awardID": "00050931", "lon": "55.666670", "precision": "1", "focus_area_descr": "SP_NONE_APPLIES"}]}, {"title": "development support services for seychelles", "id": "00057862", "subnational": []}, {"title": "protected area system in seychelles under ngo management", "id": "00060844", "subnational": [{"outputID": "00076774", "output_locID": "00076774-1", "name": "Groupe d\u2019 Aldabra", "focus_area": "1", "lat": "-9.416670", "type": "ISLS", "awardID": "00060844", "lon": "46.366670", "precision": "1", "focus_area_descr": "Inclusive & Sustainable Growth"}]}, {"title": "grid-connected rooftop pv systems in seychelles", "id": "00065515", "subnational": [{"outputID": "00081971", "output_locID": "00081971-1", "name": "Republic of Seychelles", "focus_area": "1", "lat": "-4.583330", "type": "PCLI", "awardID": "00065515", "lon": "55.666670", "precision": "1", "focus_area_descr": "Inclusive & Sustainable Growth"}]}, {"title": "management of outer island protected areas in seychelles", "id": "00075876", "subnational": []}, {"title": "resource efficiency project in seychelles", "id": "00079923", "subnational": []}, {"title": "ecosystem based adaptation to climate change in seychell", "id": "00080054", "subnational": []}, {"title": "cap bldg for the implementation of minamata convention", "id": "00084466", "subnational": []}, {"title": "seychelles protected area finance project", "id": "00088837", "subnational": []}, {"title": "global climate change alliance seychelles programme", "id": "00092970", "subnational": []}, {"title": "rapid assessment to farquhar atoll after cyclone fantala", "id": "00096568", "subnational": []}, {"title": "mainsreaming control of invasives species in seychelles", "id": "00045017", "subnational": [{"outputID": "00053109", "output_locID": "00053109-1", "name": "Republic of Seychelles", "focus_area": "1", "lat": "-4.583330", "type": "PCLI", "awardID": "00045017", "lon": "55.666670", "precision": "1", "focus_area_descr": "Inclusive & Sustainable Growth"}]}, {"title": "national biodiversity strategy and action plan for seyc", "id": "00063028", "subnational": [{"outputID": "00080329", "output_locID": "00080329-1", "name": "Republic of Seychelles", "focus_area": "1", "lat": "-4.583330", "type": "PCLI", "awardID": "00063028", "lon": "55.666670", "precision": "1", "focus_area_descr": "Inclusive & Sustainable Growth"}]}, {"title": "seychelles pa finance project", "id": "00081296", "subnational": [{"outputID": "00090617", "output_locID": "00090617-1", "name": "Victoria", "focus_area": "1", "lat": "-4.616670", "type": "PPLC", "awardID": "00081296", "lon": "55.450000", "precision": "1", "focus_area_descr": "Inclusive & Sustainable Growth"}]}, {"title": "early warning and disaster mgmt system in seychelles", "id": "00042041", "subnational": [{"outputID": "00048118", "output_locID": "00048118-1", "name": "Republic of Seychelles", "focus_area": "1", "lat": "-4.583330", "type": "PCLI", "awardID": "00042041", "lon": "55.666670", "precision": "1", "focus_area_descr": "Inclusive & Sustainable Growth"}]}, {"title": "capacity building for parliament in seychelles", "id": "00049373", "subnational": []}, {"title": "capacity dev for improved environmental management", "id": "00057805", "subnational": [{"outputID": "00071548", "output_locID": "00071548-1", "name": "Republic of Seychelles", "focus_area": "1", "lat": "-4.583330", "type": "PCLI", "awardID": "00057805", "lon": "55.666670", "precision": "1", "focus_area_descr": "Inclusive & Sustainable Growth"}]}, {"title": "governance capacity building programme", "id": "00058194", "subnational": [{"outputID": "00072176", "output_locID": "00072176-1", "name": "Republic of Seychelles", "focus_area": "2", "lat": "-4.583330", "type": "PCLI", "awardID": "00058194", "lon": "55.666670", "precision": "1", "focus_area_descr": "Democratic Governance"}]}, {"title": "preparation grant for energy efficiency in seychelles", "id": "00074539", "subnational": [{"outputID": "00086896", "output_locID": "00086896-1", "name": "Republic of Seychelles", "focus_area": "1", "lat": "-4.583330", "type": "PCLI", "awardID": "00074539", "lon": "55.666670", "precision": "1", "focus_area_descr": "Inclusive & Sustainable Growth"}]}, {"title": "-0national capacity self assessment in seychelles", "id": "00013509", "subnational": [{"outputID": "00013509", "output_locID": "00013509-1", "name": "Republic of Seychelles", "focus_area": "1", "lat": "-4.583330", "type": "PCLI", "awardID": "00013509", "lon": "55.666670", "precision": "1", "focus_area_descr": "Inclusive & Sustainable Growth"}]}, {"title": "citizenship dialogue on human rights in seychelles", "id": "00039314", "subnational": [{"outputID": "00044047", "output_locID": "00044047-1", "name": "Republic of Seychelles", "focus_area": "-", "lat": "-4.583330", "type": "PCLI", "awardID": "00039314", "lon": "55.666670", "precision": "1", "focus_area_descr": "-"}]}, {"title": "cap dev for land management - pims 3390", "id": "00042076", "subnational": [{"outputID": "00048158", "output_locID": "00048158-1", "name": "Victoria", "focus_area": "-", "lat": "-4.616670", "type": "PPLC", "awardID": "00042076", "lon": "55.450000", "precision": "1", "focus_area_descr": "-"}]}, {"title": "reform of judiciary in seychelles", "id": "00057752", "subnational": [{"outputID": "00071456", "output_locID": "00071456-1", "name": "Republic of Seychelles", "focus_area": "-", "lat": "-4.583330", "type": "PCLI", "awardID": "00057752", "lon": "55.666670", "precision": "1", "focus_area_descr": "-"}]}, {"title": "outer island protected area subsystem", "id": "00067480", "subnational": [{"outputID": "00083221", "output_locID": "00083221-1", "name": "Poivre Islands", "focus_area": "1", "lat": "-5.766670", "type": "ISLS", "awardID": "00067480", "lon": "53.316670", "precision": "1", "focus_area_descr": "Inclusive & Sustainable Growth"}, {"outputID": "00083221", "output_locID": "00083221-2", "name": "\u00cele Desroches", "focus_area": "1", "lat": "-5.683330", "type": "ISL", "awardID": "00067480", "lon": "53.683330", "precision": "1", "focus_area_descr": "Inclusive & Sustainable Growth"}, {"outputID": "00083221", "output_locID": "00083221-3", "name": "\u00cele Alphonse", "focus_area": "1", "lat": "-7.000000", "type": "ISL", "awardID": "00067480", "lon": "52.733330", "precision": "1", "focus_area_descr": "Inclusive & Sustainable Growth"}, {"outputID": "00083221", "output_locID": "00083221-4", "name": "Atoll de Farquhar", "focus_area": "1", "lat": "-10.166670", "type": "ISLS", "awardID": "00067480", "lon": "51.166670", "precision": "1", "focus_area_descr": "Inclusive & Sustainable Growth"}]}, {"title": "self assessment for 2nd national commnunications", "id": "00036413", "subnational": [{"outputID": "00039576", "output_locID": "00039576-1", "name": "Republic of Seychelles", "focus_area": "-", "lat": "-4.583330", "type": "PCLI", "awardID": "00036413", "lon": "55.666670", "precision": "1", "focus_area_descr": "-"}]}, {"title": "grid-connected rooftop pv system in seychelles", "id": "00060188", "subnational": [{"outputID": "00075682", "output_locID": "00075682-1", "name": "Republic of Seychelles", "focus_area": "-", "lat": "-4.583330", "type": "PCLI", "awardID": "00060188", "lon": "55.666670", "precision": "1", "focus_area_descr": "-"}]}, {"title": "support plan for social welfare agency", "id": "00061184", "subnational": [{"outputID": "00077400", "output_locID": "00077400-1", "name": "Republic of Seychelles", "focus_area": "-", "lat": "-4.583330", "type": "PCLI", "awardID": "00061184", "lon": "55.666670", "precision": "1", "focus_area_descr": "-"}]}, {"title": "ec capacity building for sa and nsa in seychelles", "id": "00044497", "subnational": []}, {"title": "rehabilitation of roads and bridges in seychelles", "id": "00039537", "subnational": []}], "op_unit": "SYC"}