{"iso_num":"690","op_unit":"SYC","projects":[{"id":"00013509","subnational":[{"awardID":"00013509","lat":"-4.58333","lon":"55.66667","name":"Seychelles","precision":"9","type":"PCL"}],"title":"-0National Capacity Self Assessment in Seychelles"},{"id":"00042076","subnational":[{"awardID":"00042076","lat":"-4.61667","lon":"55.45","name":"Victoria","precision":"3","type":"PPLC"}],"title":"Cap Dev for Land Management - PIMS 3390"},{"id":"00057805","subnational":[{"awardID":"00057805","lat":"-4.58333","lon":"55.66667","name":"Seychelles","precision":"9","type":"PCL"}],"title":"Capacity Dev for Improved Environmental Management"},{"id":"00039314","subnational":[{"awardID":"00039314","lat":"-4.58333","lon":"55.66667","name":"Seychelles","precision":"9","type":"PCL"}],"title":"CITIZENSHIP DIALOGUE ON HUMAN RIGHTS IN SEYCHELLES"},{"id":"00042041","subnational":[{"awardID":"00042041","lat":"-4.58333","lon":"55.66667","name":"Seychelles","precision":"9","type":"PCL"}],"title":"Early warning and Disaster Mgmt System in Seychelles"},{"id":"00058194","subnational":[{"awardID":"00058194","lat":"-4.58333","lon":"55.66667","name":"Seychelles","precision":"9","type":"PCL"}],"title":"Governance Capacity Building Programme"},{"id":"00065515","subnational":[{"awardID":"00065515","lat":"-4.58333","lon":"55.66667","name":"Seychelles","precision":"9","type":"PCL"}],"title":"Grid-Connected Rooftop PV Systems in Seychelles"},{"id":"00045017","subnational":[{"awardID":"00045017","lat":"-4.58333","lon":"55.66667","name":"Seychelles","precision":"9","type":"PCL"}],"title":"Mainsreaming Control of Invasives Species in Seychelles"},{"id":"00045015","subnational":[{"awardID":"00045015","lat":"-4.58333","lon":"55.66667","name":"Seychelles","precision":"9","type":"PCL"}],"title":"Mainstreaming Biodiversity into Production Sectors"},{"id":"00063028","subnational":[{"awardID":"00063028","lat":"-4.58333","lon":"55.66667","name":"Seychelles","precision":"9","type":"PCL"}],"title":"National Biodiversity Strategy and Action Plan for Seyc"},{"id":"00067480","subnational":[{"awardID":"00067480","lat":"-5.69687","lon":"53.65551","name":"Desroches","precision":"3","type":"PPL"},{"awardID":"00067480","lat":"-7.00447","lon":"52.72686","name":"Alphonse","precision":"3","type":"PPL"},{"awardID":"00067480","lat":"-10.16667","lon":"51.16667","name":"Farquhar","precision":"4","type":"RES"},{"awardID":"00067480","lat":"-5.76667","lon":"53.31667","name":"Poivre","precision":"4","type":"RES"}],"title":"Outer Island Protected Area Subsystem"},{"id":"00074539","subnational":[{"awardID":"00074539","lat":"-4.58333","lon":"55.66667","name":"Seychelles","precision":"9","type":"PCL"}],"title":"Preparation Grant for Energy Efficiency in Seychelles"},{"id":"00060844","subnational":[{"awardID":"00060844","lat":"-9.41667","lon":"46.36667","name":"Aldabra","precision":"4","type":"RES"}],"title":"Protected Area System in Seychelles under NGO Management"},{"id":"00057752","subnational":[{"awardID":"00057752","lat":"-4.58333","lon":"55.66667","name":"Seychelles","precision":"9","type":"PCL"}],"title":"Reform of Judiciary in Seychelles"}]}