{"iso_num": null, "projects": [{"title": "mainstreaming biodiversity into production sectors", "id": "00045015", "subnational": [{"outputID": "00053107", "output_locID": "00053107-1", "name": "Republic of Seychelles", "focus_area": "1", "lat": "-4.583330", "type": "PCLI", "awardID": "00045015", "lon": "55.666670", "precision": "1", "focus_area_descr": "Inclusive & Sustainable Growth"}]}, {"title": "mainsreaming control of invasives species in seychelles", "id": "00045017", "subnational": [{"outputID": "00053109", "output_locID": "00053109-1", "name": "Republic of Seychelles", "focus_area": "8", "lat": "-4.583330", "type": "PCLI", "awardID": "00045017", "lon": "55.666670", "precision": "1", "focus_area_descr": "South-South"}]}, {"title": "national biodiversity strategy and action plan for seyc", "id": "00063028", "subnational": [{"outputID": "00080329", "output_locID": "00080329-1", "name": "Republic of Seychelles", "focus_area": "1", "lat": "-4.583330", "type": "PCLI", "awardID": "00063028", "lon": "55.666670", "precision": "1", "focus_area_descr": "Inclusive & Sustainable Growth"}]}, {"title": "grid-connected rooftop pv systems in seychelles", "id": "00065515", "subnational": [{"outputID": "00081971", "output_locID": "00081971-1", "name": "Republic of Seychelles", "focus_area": "1", "lat": "-4.583330", "type": "PCLI", "awardID": "00065515", "lon": "55.666670", "precision": "1", "focus_area_descr": "Inclusive & Sustainable Growth"}]}, {"title": "protected area system in seychelles under ngo management", "id": "00060844", "subnational": [{"outputID": "00076774", "output_locID": "00076774-1", "name": "Groupe d\u2019 Aldabra", "focus_area": "1", "lat": "-9.416670", "type": "ISLS", "awardID": "00060844", "lon": "46.366670", "precision": "1", "focus_area_descr": "Inclusive & Sustainable Growth"}]}, {"title": "resource efficiency project in seychelles", "id": "00079923", "subnational": []}, {"title": "ecosystem based adaptation to climate change in seychell", "id": "00080054", "subnational": []}, {"title": "cap bldg for the implementation of minamata convention", "id": "00084466", "subnational": []}, {"title": "seychelles pa finance project", "id": "00081296", "subnational": []}, {"title": "management of outer island protected areas in seychelles", "id": "00075876", "subnational": []}, {"title": "-0national capacity self assessment in seychelles", "id": "00013509", "subnational": [{"outputID": "00013509", "output_locID": "00013509-1", "name": "Seychelles", "focus_area": "-", "lat": "-4.58333", "type": "PCL", "awardID": "00013509", "lon": "55.66667", "precision": "9", "focus_area_descr": "-"}]}, {"title": "cap dev for land management - pims 3390", "id": "00042076", "subnational": [{"outputID": "00048158", "output_locID": "00048158-1", "name": "Victoria", "focus_area": "-", "lat": "-4.61667", "type": "PPLC", "awardID": "00042076", "lon": "55.45", "precision": "3", "focus_area_descr": "-"}]}, {"title": "capacity dev for improved environmental management", "id": "00057805", "subnational": [{"outputID": "00071548", "output_locID": "00071548-1", "name": "Seychelles", "focus_area": "-", "lat": "-4.58333", "type": "PCL", "awardID": "00057805", "lon": "55.66667", "precision": "9", "focus_area_descr": "-"}]}, {"title": "citizenship dialogue on human rights in seychelles", "id": "00039314", "subnational": [{"outputID": "00044047", "output_locID": "00044047-1", "name": "Seychelles", "focus_area": "-", "lat": "-4.58333", "type": "PCL", "awardID": "00039314", "lon": "55.66667", "precision": "9", "focus_area_descr": "-"}]}, {"title": "early warning and disaster mgmt system in seychelles", "id": "00042041", "subnational": [{"outputID": "00048118", "output_locID": "00048118-1", "name": "Seychelles", "focus_area": "-", "lat": "-4.58333", "type": "PCL", "awardID": "00042041", "lon": "55.66667", "precision": "9", "focus_area_descr": "-"}]}, {"title": "governance capacity building programme", "id": "00058194", "subnational": [{"outputID": "00072176", "output_locID": "00072176-1", "name": "Seychelles", "focus_area": "-", "lat": "-4.58333", "type": "PCL", "awardID": "00058194", "lon": "55.66667", "precision": "9", "focus_area_descr": "-"}]}, {"title": "outer island protected area subsystem", "id": "00067480", "subnational": [{"outputID": "00083221", "output_locID": "00083221-1", "name": "Desroches", "focus_area": "-", "lat": "-5.69687", "type": "PPL", "awardID": "00067480", "lon": "53.65551", "precision": "3", "focus_area_descr": "-"}, {"outputID": "00083221", "output_locID": "00083221-2", "name": "Alphonse", "focus_area": "-", "lat": "-7.00447", "type": "PPL", "awardID": "00067480", "lon": "52.72686", "precision": "3", "focus_area_descr": "-"}, {"outputID": "00083221", "output_locID": "00083221-3", "name": "Farquhar", "focus_area": "-", "lat": "-10.16667", "type": "RES", "awardID": "00067480", "lon": "51.16667", "precision": "4", "focus_area_descr": "-"}, {"outputID": "00083221", "output_locID": "00083221-4", "name": "Poivre", "focus_area": "-", "lat": "-5.76667", "type": "RES", "awardID": "00067480", "lon": "53.31667", "precision": "4", "focus_area_descr": "-"}]}, {"title": "preparation grant for energy efficiency in seychelles", "id": "00074539", "subnational": [{"outputID": "00086896", "output_locID": "00086896-1", "name": "Seychelles", "focus_area": "-", "lat": "-4.58333", "type": "PCL", "awardID": "00074539", "lon": "55.66667", "precision": "9", "focus_area_descr": "-"}]}, {"title": "reform of judiciary in seychelles", "id": "00057752", "subnational": [{"outputID": "00071456", "output_locID": "00071456-1", "name": "Seychelles", "focus_area": "-", "lat": "-4.58333", "type": "PCL", "awardID": "00057752", "lon": "55.66667", "precision": "9", "focus_area_descr": "-"}]}, {"title": "development advisory services", "id": "00050931", "subnational": []}, {"title": "ec capacity building for sa and nsa in seychelles", "id": "00044497", "subnational": []}, {"title": "grid-connected rooftop pv system in seychelles", "id": "00060188", "subnational": []}, {"title": "rehabilitation of roads and bridges in seychelles", "id": "00039537", "subnational": []}, {"title": "self assessment for 2nd national commnunications", "id": "00036413", "subnational": []}, {"title": "support plan for social welfare agency", "id": "00061184", "subnational": []}, {"title": "capacity building for parliament in seychelles", "id": "00049373", "subnational": []}, {"title": "development support services for seychelles", "id": "00057862", "subnational": []}], "op_unit": "SYC"}