{"iso_num":"690","op_unit":"SYC","projects":[{"id":"00013509","subnational":[{"awardID":"00013509","focus_area":"-","focus_area_descr":"-","lat":"-4.58333","lon":"55.66667","name":"Seychelles","outputID":"00013509","output_locID":"00013509-1","precision":"9","type":"PCL"}],"title":"-0National Capacity Self Assessment in Seychelles"},{"id":"00042076","subnational":[{"awardID":"00042076","focus_area":"-","focus_area_descr":"-","lat":"-4.61667","lon":"55.45","name":"Victoria","outputID":"00048158","output_locID":"00048158-1","precision":"3","type":"PPLC"}],"title":"Cap Dev for Land Management - PIMS 3390"},{"id":"00057805","subnational":[{"awardID":"00057805","focus_area":"-","focus_area_descr":"-","lat":"-4.58333","lon":"55.66667","name":"Seychelles","outputID":"00071548","output_locID":"00071548-1","precision":"9","type":"PCL"}],"title":"Capacity Dev for Improved Environmental Management"},{"id":"00039314","subnational":[{"awardID":"00039314","focus_area":"-","focus_area_descr":"-","lat":"-4.58333","lon":"55.66667","name":"Seychelles","outputID":"00044047","output_locID":"00044047-1","precision":"9","type":"PCL"}],"title":"CITIZENSHIP DIALOGUE ON HUMAN RIGHTS IN SEYCHELLES"},{"id":"00042041","subnational":[{"awardID":"00042041","focus_area":"-","focus_area_descr":"-","lat":"-4.58333","lon":"55.66667","name":"Seychelles","outputID":"00048118","output_locID":"00048118-1","precision":"9","type":"PCL"}],"title":"Early warning and Disaster Mgmt System in Seychelles"},{"id":"00058194","subnational":[{"awardID":"00058194","focus_area":"-","focus_area_descr":"-","lat":"-4.58333","lon":"55.66667","name":"Seychelles","outputID":"00072176","output_locID":"00072176-1","precision":"9","type":"PCL"}],"title":"Governance Capacity Building Programme"},{"id":"00065515","subnational":[{"awardID":"00065515","focus_area":"-","focus_area_descr":"-","lat":"-4.58333","lon":"55.66667","name":"Seychelles","outputID":"00081971","output_locID":"00081971-1","precision":"9","type":"PCL"}],"title":"Grid-Connected Rooftop PV Systems in Seychelles"},{"id":"00045017","subnational":[{"awardID":"00045017","focus_area":"-","focus_area_descr":"-","lat":"-4.58333","lon":"55.66667","name":"Seychelles","outputID":"00053109","output_locID":"00053109-1","precision":"9","type":"PCL"}],"title":"Mainsreaming Control of Invasives Species in Seychelles"},{"id":"00045015","subnational":[{"awardID":"00045015","focus_area":"-","focus_area_descr":"-","lat":"-4.58333","lon":"55.66667","name":"Seychelles","outputID":"00053107","output_locID":"00053107-1","precision":"9","type":"PCL"}],"title":"Mainstreaming Biodiversity into Production Sectors"},{"id":"00063028","subnational":[{"awardID":"00063028","focus_area":"-","focus_area_descr":"-","lat":"-4.58333","lon":"55.66667","name":"Seychelles","outputID":"00080329","output_locID":"00080329-1","precision":"9","type":"PCL"}],"title":"National Biodiversity Strategy and Action Plan for Seyc"},{"id":"00067480","subnational":[{"awardID":"00067480","focus_area":"-","focus_area_descr":"-","lat":"-5.69687","lon":"53.65551","name":"Desroches","outputID":"00083221","output_locID":"00083221-1","precision":"3","type":"PPL"},{"awardID":"00067480","focus_area":"-","focus_area_descr":"-","lat":"-7.00447","lon":"52.72686","name":"Alphonse","outputID":"00083221","output_locID":"00083221-2","precision":"3","type":"PPL"},{"awardID":"00067480","focus_area":"-","focus_area_descr":"-","lat":"-10.16667","lon":"51.16667","name":"Farquhar","outputID":"00083221","output_locID":"00083221-3","precision":"4","type":"RES"},{"awardID":"00067480","focus_area":"-","focus_area_descr":"-","lat":"-5.76667","lon":"53.31667","name":"Poivre","outputID":"00083221","output_locID":"00083221-4","precision":"4","type":"RES"}],"title":"Outer Island Protected Area Subsystem"},{"id":"00074539","subnational":[{"awardID":"00074539","focus_area":"-","focus_area_descr":"-","lat":"-4.58333","lon":"55.66667","name":"Seychelles","outputID":"00086896","output_locID":"00086896-1","precision":"9","type":"PCL"}],"title":"Preparation Grant for Energy Efficiency in Seychelles"},{"id":"00060844","subnational":[{"awardID":"00060844","focus_area":"-","focus_area_descr":"-","lat":"-9.41667","lon":"46.36667","name":"Aldabra","outputID":"00076774","output_locID":"00076774-1","precision":"4","type":"RES"}],"title":"Protected Area System in Seychelles under NGO Management"},{"id":"00057752","subnational":[{"awardID":"00057752","focus_area":"-","focus_area_descr":"-","lat":"-4.58333","lon":"55.66667","name":"Seychelles","outputID":"00071456","output_locID":"00071456-1","precision":"9","type":"PCL"}],"title":"Reform of Judiciary in Seychelles"},{"id":"00050931","subnational":[{"awardID":"00050931","focus_area":"-","focus_area_descr":"-","lat":"-4.58333","lon":"55.66667","name":"Seychelles","outputID":"00063166","output_locID":"00063166-1","precision":"9","type":"PCL"}],"title":"Development Advisory Services"},{"id":"00044497","subnational":[],"title":"EC Capacity Building for SA and NSA in Seychelles"},{"id":"00060188","subnational":[{"awardID":"00060188","focus_area":"-","focus_area_descr":"-","lat":"-4.58333","lon":"55.66667","name":"Seychelles","outputID":"00075682","output_locID":"00075682-1","precision":"9","type":"PCL"}],"title":"Grid-Connected Rooftop PV System in Seychelles"},{"id":"00039537","subnational":[],"title":"Rehabilitation of Roads and Bridges in Seychelles"},{"id":"00036413","subnational":[{"awardID":"00036413","focus_area":"-","focus_area_descr":"-","lat":"-4.58333","lon":"55.66667","name":"Seychelles","outputID":"00039576","output_locID":"00039576-1","precision":"9","type":"PCL"}],"title":"Self Assessment for 2nd National Commnunications"},{"id":"00061184","subnational":[{"awardID":"00061184","focus_area":"-","focus_area_descr":"-","lat":"-4.58333","lon":"55.66667","name":"Seychelles","outputID":"00077400","output_locID":"00077400-1","precision":"9","type":"PCL"}],"title":"Support Plan for Social Welfare Agency"},{"id":"00050931","subnational":[{"awardID":"00050931","focus_area":"-","focus_area_descr":"-","lat":"-4.58333","lon":"55.66667","name":"Seychelles","outputID":"00063166","output_locID":"00063166-1","precision":"9","type":"PCL"}],"title":"Development Advisory Services"},{"id":"00060188","subnational":[{"awardID":"00060188","focus_area":"-","focus_area_descr":"-","lat":"-4.58333","lon":"55.66667","name":"Seychelles","outputID":"00075682","output_locID":"00075682-1","precision":"9","type":"PCL"}],"title":"Grid-Connected Rooftop PV System in Seychelles"},{"id":"00036413","subnational":[{"awardID":"00036413","focus_area":"-","focus_area_descr":"-","lat":"-4.58333","lon":"55.66667","name":"Seychelles","outputID":"00039576","output_locID":"00039576-1","precision":"9","type":"PCL"}],"title":"Self Assessment for 2nd National Commnunications"},{"id":"00061184","subnational":[{"awardID":"00061184","focus_area":"-","focus_area_descr":"-","lat":"-4.58333","lon":"55.66667","name":"Seychelles","outputID":"00077400","output_locID":"00077400-1","precision":"9","type":"PCL"}],"title":"Support Plan for Social Welfare Agency"}]}