{"iso_num":"764","op_unit":"THA","projects":[{"id":"00062068","subnational":[{"awardID":"00062068","lat":"13.41456","lon":"100.00264","name":"Mae Klong","precision":"1","type":"PPLA"}],"title":"'Water for People' Partnership: Small Grants Programme"},{"id":"00050148","subnational":[],"title":"60th Anniversary of Universal Declaration of HumanRights"},{"id":"00051180","subnational":[{"awardID":"00051180","lat":"13.75398","lon":"100.50144","name":"Bangkok","precision":"9","type":"PPLC"}],"title":"Capacity building to support Thailand Mine Action Centre"},{"id":"00061370","subnational":[],"title":"GEF PIMS 3642 BD FSP: BEDO"},{"id":"00067532","subnational":[],"title":"Initiation Workplan"},{"id":"00059213","subnational":[{"awardID":"00059213","lat":"19.30029","lon":"97.96852","name":"Mae Hong Son","precision":"4","type":"PPLA"}],"title":"Integrated Livelihood in MHS"},{"id":"00056640","subnational":[{"awardID":"00056640","lat":"15","lon":"100","name":"Thailand","precision":"9","type":"PCL"},{"awardID":"00056640","lat":"15","lon":"100","name":"Thailand","precision":"9","type":"PCL"}],"title":"Integrated ONE AWP programme and policy support for CPAP"},{"id":"00072673","subnational":[],"title":"Law Reform and Legal Empowerment"},{"id":"00056871","subnational":[{"awardID":"00056871","lat":"15","lon":"100","name":"Thailand","precision":"9","type":"PCL"}],"title":"Legal Empowerment Partnership"},{"id":"00050356","subnational":[{"awardID":"00050356","lat":"18.54706","lon":"97.71042","name":"Mae Hong Song","precision":"4","type":"ADM1"}],"title":"Livelihoods and Social Cohesion in MHS"},{"id":"00045925","subnational":[],"title":"MDG Monitoring and Statistical Strengthening"},{"id":"00050691","subnational":[{"awardID":"00050691","lat":"10.4957","lon":"99.17971","name":"Chumphon","precision":"4","type":"ADM1"},{"awardID":"00050691","lat":"9.14011","lon":"99.33311","name":"Surat Thani","precision":"4","type":"ADM1"},{"awardID":"00050691","lat":"8.4303975","lon":"99.9631219","name":"Nakhon Si Thammarat Province","precision":"4","type":"ADM1"},{"awardID":"00050691","lat":"9.96583","lon":"98.63476","name":"Ranong","precision":"4","type":"ADM1"},{"awardID":"00050691","lat":"8.7005","lon":"98.26447","name":"Phang Nga","precision":"4","type":"ADM1"},{"awardID":"00050691","lat":"8.07257","lon":"98.91052","name":"Krabi","precision":"4","type":"ADM1"},{"awardID":"00050691","lat":"7.89059","lon":"98.3981","name":"Phuket","precision":"4","type":"ADM1"},{"awardID":"00050691","lat":"7.55633","lon":"99.61141","name":"Trang","precision":"4","type":"ADM1"}],"title":"MFF-SGF"},{"id":"00041960","subnational":[{"awardID":"00041960","lat":"15","lon":"100","name":"Thailand","precision":"9","type":"PCL"}],"title":"Pims 2968 CC EA: Thailand Second National Communication"},{"id":"00057971","subnational":[{"awardID":"00057971","lat":"15","lon":"100","name":"Thailand","precision":"9","type":"PCL"}],"title":"PIMS 3327 CC FSP: BRESL: Thailand"},{"id":"00059765","subnational":[{"awardID":"00059765","lat":"15","lon":"100","name":"Thailand","precision":"9","type":"PCL"}],"title":"PIMS 3771 CC FSP : SCCF"},{"id":"00048912","subnational":[{"awardID":"00048912","lat":"19.30029","lon":"97.96852","name":"Mae Hong Son","precision":"4","type":"ADM1"},{"awardID":"00048912","lat":"18.79038","lon":"98.98468","name":"Chiang Mai","precision":"4","type":"ADM1"},{"awardID":"00048912","lat":"19.90858","lon":"99.8325","name":"Chiang Rai","precision":"4","type":"ADM1"},{"awardID":"00048912","lat":"16.86968","lon":"99.12898","name":"Tak","precision":"4","type":"ADM1"}],"title":"PIMS 3908 CC FP: Promoting RE in MHS Province"},{"id":"00061807","subnational":[],"title":"PIMS 3937 CC FP Promoting Energy Efficiency in Commercia"},{"id":"00061756","subnational":[],"title":"PIMS 4033 MFA FSP: CBFCM"},{"id":"00059058","subnational":[],"title":"PIMS3825 Catalyzing Sustainability of TH's PA System"},{"id":"00066019","subnational":[],"title":"PIMS5065 Low Emission Capacity Building Programme - THA"},{"id":"00069397","subnational":[],"title":"Promoting Human Security and Leadership AcademyProgramme"},{"id":"00060374","subnational":[{"awardID":"00060374","lat":"15","lon":"100","name":"Thailand","precision":"9","type":"PCL"}],"title":"Road to Nat'l GuidelineforMSM HIV Prevention in Thailand"},{"id":"00059629","subnational":[{"awardID":"00059629","lat":"6.42639","lon":"101.82308","name":"Narathiwat","precision":"4","type":"ADM1"},{"awardID":"00059629","lat":"6.86814","lon":"101.25009","name":"Pattani","precision":"4","type":"ADM1"},{"awardID":"00059629","lat":"6.53995","lon":"101.28128","name":"Yala","precision":"4","type":"ADM1"},{"awardID":"00059629","lat":"6.62314","lon":"100.06676","name":"Satun","precision":"4","type":"ADM1"},{"awardID":"00059629","lat":"7.1756004","lon":"100.614347","name":"Songhkla","precision":"4","type":"ADM1"}],"title":"Southern Thailand Empowerment and Participation"},{"id":"00046919","subnational":[],"title":"SRC Fund"},{"id":"00069109","subnational":[],"title":"Strengthening Disaster Management Capacities in Thailand"},{"id":"00059930","subnational":[{"awardID":"00059930","lat":"13.41456","lon":"100.00264","name":"Samut Songkhram","precision":"4","type":"ADM1"},{"awardID":"00059930","lat":"13.54753","lon":"100.27362","name":"Samut Sakhon","precision":"4","type":"ADM1"},{"awardID":"00059930","lat":"16.44671","lon":"102.833","name":"Khon Kaen","precision":"4","type":"ADM1"}],"title":"Strengthening Inclusive Planning & Economic Decision-Mak"},{"id":"00072680","subnational":[],"title":"Strengthening Thailand's Capacity to Link Climate Policy"},{"id":"00059627","subnational":[{"awardID":"00059627","lat":"15","lon":"100","name":"Thailand","precision":"9","type":"PCL"}],"title":"Supporting implementation of Domestic Violence Act 2007"},{"id":"00058392","subnational":[{"awardID":"00058392","lat":"15.79496","lon":"98.87787","name":"Umphang","precision":"1","type":"ADM2"},{"awardID":"00058392","lat":"16.47215","lon":"98.83501","name":"Phop Phra","precision":"1","type":"ADM2"}],"title":"Sustainable Solutions to the Displaced People Situation"},{"id":"00061392","subnational":[{"awardID":"00061392","lat":"15","lon":"100","name":"Thailand","precision":"9","type":"PCL"}],"title":"Sustaining Thailand's Democratic Practice through improv"},{"id":"00068725","subnational":[],"title":"Thailand as An Active Global Partner for Development"},{"id":"00068904","subnational":[{"awardID":"00068904","lat":"15","lon":"100","name":"Thailand","precision":"9","type":"PCL"}],"title":"Thailand National Human Development Report 2013"},{"id":"00045460","subnational":[{"awardID":"00045460","lat":"15","lon":"100","name":"Thailand","precision":"9","type":"PCL"},{"awardID":"00045460","lat":"15","lon":"100","name":"Thailand","precision":"9","type":"PCL"},{"awardID":"00045460","lat":"15","lon":"100","name":"Thailand","precision":"9","type":"PCL"},{"awardID":"00045460","lat":"15","lon":"100","name":"Thailand","precision":"9","type":"PCL"},{"awardID":"00045460","lat":"15","lon":"100","name":"Thailand","precision":"9","type":"PCL"},{"awardID":"00045460","lat":"15","lon":"100","name":"Thailand","precision":"9","type":"PCL"},{"awardID":"00045460","lat":"15","lon":"100","name":"Thailand","precision":"9","type":"PCL"}],"title":"UN Inter-Agency Project on Human Trafficking  Phase III"},{"id":"00033648","subnational":[],"title":"UN Theme Group Fund - Action against HIV/AIDS"}]}