{"iso_num": null, "projects": [{"title": "'water for people' partnership: small grants programme", "id": "00062068", "subnational": [{"outputID": "00079310", "output_locID": "00079310-1", "name": "Bangkok", "focus_area": "4", "lat": "13.75398", "type": "PPLC", "awardID": "00062068", "lon": "100.50144", "precision": "3", "focus_area_descr": "Environment & sustainable development"}, {"outputID": "00079310", "output_locID": "00079310-2", "name": "Kanchanaburi", "focus_area": "4", "lat": "14.00412", "type": "ADM1", "awardID": "00062068", "lon": "99.54832", "precision": "4", "focus_area_descr": "Environment & sustainable development"}, {"outputID": "00079310", "output_locID": "00079310-3", "name": "Pathumthani", "focus_area": "4", "lat": "14.01346", "type": "ADM1", "awardID": "00062068", "lon": "100.53049", "precision": "4", "focus_area_descr": "Environment & sustainable development"}, {"outputID": "00079310", "output_locID": "00079310-4", "name": "Tak", "focus_area": "4", "lat": "16.86968", "type": "ADM1", "awardID": "00062068", "lon": "99.12898", "precision": "4", "focus_area_descr": "Environment & sustainable development"}]}, {"title": "advancing anti-corruption effort in thailand", "id": "00078586", "subnational": []}, {"title": "capacity building to support thailand mine action centre", "id": "00051180", "subnational": [{"outputID": "00063583", "output_locID": "00063583-1", "name": "Bangkok", "focus_area": "-", "lat": "13.75398", "type": "PPLC", "awardID": "00051180", "lon": "100.50144", "precision": "3", "focus_area_descr": "-"}]}, {"title": "gef pims 3642 bd fsp: bedo", "id": "00061370", "subnational": [{"outputID": "00077720", "output_locID": "00077720-1", "name": "Bangkok", "focus_area": "4", "lat": "13.75398", "type": "PPLC", "awardID": "00061370", "lon": "100.50144", "precision": "3", "focus_area_descr": "Environment & sustainable development"}, {"outputID": "00077720", "output_locID": "00077720-2", "name": "Phang Nga", "focus_area": "4", "lat": "8.7005", "type": "ADM1", "awardID": "00061370", "lon": "98.26447", "precision": "4", "focus_area_descr": "Environment & sustainable development"}, {"outputID": "00077720", "output_locID": "00077720-3", "name": "Prachinburi", "focus_area": "4", "lat": "13.89616", "type": "RES", "awardID": "00061370", "lon": "101.16193", "precision": "4", "focus_area_descr": "Environment & sustainable development"}]}, {"title": "integrated livelihood in mhs", "id": "00059213", "subnational": [{"outputID": "00073993", "output_locID": "00073993-1", "name": "Mae Hong Son", "focus_area": "2", "lat": "19.30029", "type": "ADM1", "awardID": "00059213", "lon": "97.96852", "precision": "4", "focus_area_descr": "Democratic governance"}]}, {"title": "integrated one awp programme and policy support for cpap", "id": "00056640", "subnational": [{"outputID": "00069448", "output_locID": "00069448-1", "name": "Thailand", "focus_area": "2", "lat": "13.75398", "type": "PCL", "awardID": "00056640", "lon": "100.50144", "precision": "9", "focus_area_descr": "Democratic governance"}, {"outputID": "00070589", "output_locID": "00070589-1", "name": "Thailand", "focus_area": "-", "lat": "13.75398", "type": "PCL", "awardID": "00056640", "lon": "100.50144", "precision": "9", "focus_area_descr": "-"}, {"outputID": "00070590", "output_locID": "00070590-1", "name": "Thailand", "focus_area": "1", "lat": "13.75398", "type": "PCL", "awardID": "00056640", "lon": "100.50144", "precision": "9", "focus_area_descr": "Poverty reduction & MDG achievement"}]}, {"title": "law reform and legal empowerment", "id": "00072673", "subnational": [{"outputID": "00085734", "output_locID": "00085734-1", "name": "Thailand", "focus_area": "2", "lat": "13.75398", "type": "PCL", "awardID": "00072673", "lon": "100.50144", "precision": "9", "focus_area_descr": "Democratic governance"}]}, {"title": "legal empowerment partnership", "id": "00056871", "subnational": [{"outputID": "00069978", "output_locID": "00069978-1", "name": "Thailand", "focus_area": "-", "lat": "13.75398", "type": "PCL", "awardID": "00056871", "lon": "100.50144", "precision": "9", "focus_area_descr": "-"}]}, {"title": "livelihoods and social cohesion in mhs", "id": "00050356", "subnational": [{"outputID": "00062176", "output_locID": "00062176-1", "name": "Mae Hong Song", "focus_area": "-", "lat": "18.53603", "type": "PPL", "awardID": "00050356", "lon": "97.68303", "precision": "4", "focus_area_descr": "-"}]}, {"title": "madrid project", "id": "00081867", "subnational": []}, {"title": "pims 2968 cc ea: thailand second national communication", "id": "00041960", "subnational": [{"outputID": "00048011", "output_locID": "00048011-1", "name": "Thailand", "focus_area": "-", "lat": "13.75398", "type": "PCL", "awardID": "00041960", "lon": "100.50144", "precision": "9", "focus_area_descr": "-"}]}, {"title": "pims 3327 cc fsp: bresl: thailand", "id": "00057971", "subnational": [{"outputID": "00071804", "output_locID": "00071804-1", "name": "Thailand", "focus_area": "4", "lat": "13.75398", "type": "PCL", "awardID": "00057971", "lon": "100.50144", "precision": "9", "focus_area_descr": "Environment & sustainable development"}]}, {"title": "pims 3771 cc fsp : sccf", "id": "00059765", "subnational": [{"outputID": "00074912", "output_locID": "00074912-1", "name": "Trang", "focus_area": "4", "lat": "7.55633", "type": "ADM1", "awardID": "00059765", "lon": "99.61141", "precision": "4", "focus_area_descr": "Environment & sustainable development"}]}, {"title": "pims 3908 cc fp: promoting re in mhs province", "id": "00048912", "subnational": [{"outputID": "00059287", "output_locID": "00059287-1", "name": "Chiang Mai", "focus_area": "4", "lat": "18.79038", "type": "ADM1", "awardID": "00048912", "lon": "98.98468", "precision": "4", "focus_area_descr": "Environment & sustainable development"}, {"outputID": "00059287", "output_locID": "00059287-2", "name": "Chiang Rai", "focus_area": "4", "lat": "19.90858", "type": "ADM1", "awardID": "00048912", "lon": "99.8325", "precision": "4", "focus_area_descr": "Environment & sustainable development"}, {"outputID": "00059287", "output_locID": "00059287-3", "name": "Mae Hong Son", "focus_area": "4", "lat": "19.30029", "type": "ADM1", "awardID": "00048912", "lon": "97.96852", "precision": "4", "focus_area_descr": "Environment & sustainable development"}, {"outputID": "00059287", "output_locID": "00059287-4", "name": "Tak", "focus_area": "4", "lat": "16.86968", "type": "ADM1", "awardID": "00048912", "lon": "99.12898", "precision": "4", "focus_area_descr": "Environment & sustainable development"}]}, {"title": "pims 3937 cc fp promoting energy efficiency in commercia", "id": "00061807", "subnational": [{"outputID": "00078576", "output_locID": "00078576-1", "name": "Thailand", "focus_area": "4", "lat": "13.75398", "type": "PCL", "awardID": "00061807", "lon": "100.50144", "precision": "9", "focus_area_descr": "Environment & sustainable development"}]}, {"title": "pims 4033 mfa fsp: cbfcm", "id": "00061756", "subnational": [{"outputID": "00078499", "output_locID": "00078499-1", "name": "Chiang Mai", "focus_area": "4", "lat": "18.79038", "type": "ADM1", "awardID": "00061756", "lon": "98.98468", "precision": "4", "focus_area_descr": "Environment & sustainable development"}, {"outputID": "00078499", "output_locID": "00078499-2", "name": "Ubon Ratchathani", "focus_area": "4", "lat": "15.23844", "type": "ADM1", "awardID": "00061756", "lon": "104.84866", "precision": "4", "focus_area_descr": "Environment & sustainable development"}]}, {"title": "pims3825 catalyzing sustainability of ths pa system", "id": "00059058", "subnational": [{"outputID": "00073656", "output_locID": "00073656-1", "name": "Bangkok", "focus_area": "4", "lat": "13.75398", "type": "PPLC", "awardID": "00059058", "lon": "100.50144", "precision": "3", "focus_area_descr": "Environment & sustainable development"}, {"outputID": "00073656", "output_locID": "00073656-2", "name": "Chantaburi", "focus_area": "4", "lat": "12.60961", "type": "ADM1", "awardID": "00059058", "lon": "102.10447", "precision": "4", "focus_area_descr": "Environment & sustainable development"}, {"outputID": "00073656", "output_locID": "00073656-3", "name": "Chiang Mai", "focus_area": "4", "lat": "18.79038", "type": "ADM1", "awardID": "00059058", "lon": "98.98468", "precision": "4", "focus_area_descr": "Environment & sustainable development"}, {"outputID": "00073656", "output_locID": "00073656-4", "name": "Trad", "focus_area": "4", "lat": "12.24364", "type": "ADM1", "awardID": "00059058", "lon": "102.51514", "precision": "4", "focus_area_descr": "Environment & sustainable development"}]}, {"title": "pims5065 low emission capacity building programme - tha", "id": "00066019", "subnational": [{"outputID": "00082296", "output_locID": "00082296-1", "name": "Thailand", "focus_area": "4", "lat": "13.75398", "type": "PCL", "awardID": "00066019", "lon": "100.50144", "precision": "9", "focus_area_descr": "Environment & sustainable development"}]}, {"title": "ppg conserving habitats for globally important flora&fau", "id": "00076129", "subnational": []}, {"title": "ppg low carbon growth in cities through sustainabl", "id": "00078085", "subnational": []}, {"title": "ppg: sustainable mgt model for lgos", "id": "00081692", "subnational": []}, {"title": "ppg: tha: maximizing carbon sink", "id": "00075449", "subnational": [{"outputID": "00087346", "output_locID": "00087346-1", "name": "Thailand", "focus_area": "4", "lat": "13.75398", "type": "PCL", "awardID": "00075449", "lon": "100.50144", "precision": "9", "focus_area_descr": "Environment & sustainable development"}]}, {"title": "promoting human security and leadership academyprogramme", "id": "00069397", "subnational": [{"outputID": "00083997", "output_locID": "00083997-1", "name": "Chumporn", "focus_area": "1", "lat": "10.4957", "type": "ADM1", "awardID": "00069397", "lon": "99.17971", "precision": "4", "focus_area_descr": "Poverty reduction & MDG achievement"}, {"outputID": "00083997", "output_locID": "00083997-2", "name": "Krabi", "focus_area": "1", "lat": "8.07257", "type": "ADM1", "awardID": "00069397", "lon": "98.91052", "precision": "4", "focus_area_descr": "Poverty reduction & MDG achievement"}, {"outputID": "00083997", "output_locID": "00083997-3", "name": "Nakhon Sri Thammarat", "focus_area": "1", "lat": "8.43333", "type": "ADM1", "awardID": "00069397", "lon": "99.96667", "precision": "4", "focus_area_descr": "Poverty reduction & MDG achievement"}, {"outputID": "00083997", "output_locID": "00083997-4", "name": "Narathiwat", "focus_area": "1", "lat": "6.42639", "type": "ADM1", "awardID": "00069397", "lon": "101.82308", "precision": "4", "focus_area_descr": "Poverty reduction & MDG achievement"}, {"outputID": "00083997", "output_locID": "00083997-5", "name": "Pattani", "focus_area": "1", "lat": "6.86814", "type": "ADM1", "awardID": "00069397", "lon": "101.25009", "precision": "4", "focus_area_descr": "Poverty reduction & MDG achievement"}, {"outputID": "00083997", "output_locID": "00083997-6", "name": "Phang Nga", "focus_area": "1", "lat": "8.7005", "type": "ADM1", "awardID": "00069397", "lon": "98.26447", "precision": "4", "focus_area_descr": "Poverty reduction & MDG achievement"}, {"outputID": "00083997", "output_locID": "00083997-7", "name": "Phattalung", "focus_area": "1", "lat": "7.61786", "type": "ADM1", "awardID": "00069397", "lon": "100.07792", "precision": "4", "focus_area_descr": "Poverty reduction & MDG achievement"}, {"outputID": "00083997", "output_locID": "00083997-8", "name": "Phuket", "focus_area": "1", "lat": "7.89059", "type": "ADM1", "awardID": "00069397", "lon": "98.3981", "precision": "4", "focus_area_descr": "Poverty reduction & MDG achievement"}, {"outputID": "00083997", "output_locID": "00083997-9", "name": "Ranong", "focus_area": "1", "lat": "9.96583", "type": "ADM1", "awardID": "00069397", "lon": "98.63476", "precision": "4", "focus_area_descr": "Poverty reduction & MDG achievement"}, {"outputID": "00083997", "output_locID": "00083997-10", "name": "Satun", "focus_area": "1", "lat": "6.62314", "type": "ADM1", "awardID": "00069397", "lon": "100.06676", "precision": "4", "focus_area_descr": "Poverty reduction & MDG achievement"}, {"outputID": "00083997", "output_locID": "00083997-11", "name": "Surat Thani", "focus_area": "1", "lat": "9.14011", "type": "ADM1", "awardID": "00069397", "lon": "99.33311", "precision": "4", "focus_area_descr": "Poverty reduction & MDG achievement"}, {"outputID": "00083997", "output_locID": "00083997-12", "name": "Trang", "focus_area": "1", "lat": "7.55633", "type": "ADM1", "awardID": "00069397", "lon": "99.61141", "precision": "4", "focus_area_descr": "Poverty reduction & MDG achievement"}, {"outputID": "00083997", "output_locID": "00083997-13", "name": "Yala", "focus_area": "1", "lat": "6.53995", "type": "ADM1", "awardID": "00069397", "lon": "101.28128", "precision": "4", "focus_area_descr": "Poverty reduction & MDG achievement"}, {"outputID": "00083997", "output_locID": "00083997-14", "name": "Thailand", "focus_area": "1", "lat": "13.75398", "type": "PCL", "awardID": "00069397", "lon": "100.50144", "precision": "9", "focus_area_descr": "Poverty reduction & MDG achievement"}]}, {"title": "road to nat'l guidelineformsm hiv prevention in thailand", "id": "00060374", "subnational": [{"outputID": "00075993", "output_locID": "00075993-1", "name": "Thailand", "focus_area": "-", "lat": "13.75398", "type": "PCL", "awardID": "00060374", "lon": "100.50144", "precision": "9", "focus_area_descr": "-"}]}, {"title": "southern thailand empowerment and participation", "id": "00059629", "subnational": [{"outputID": "00074646", "output_locID": "00074646-1", "name": "Narathiwat", "focus_area": "2", "lat": "6.42639", "type": "ADM1", "awardID": "00059629", "lon": "101.82308", "precision": "4", "focus_area_descr": "Democratic governance"}, {"outputID": "00074646", "output_locID": "00074646-2", "name": "Pattani", "focus_area": "2", "lat": "6.86814", "type": "ADM1", "awardID": "00059629", "lon": "101.25009", "precision": "4", "focus_area_descr": "Democratic governance"}, {"outputID": "00074646", "output_locID": "00074646-3", "name": "Satun", "focus_area": "2", "lat": "6.62314", "type": "ADM1", "awardID": "00059629", "lon": "100.06676", "precision": "4", "focus_area_descr": "Democratic governance"}, {"outputID": "00074646", "output_locID": "00074646-4", "name": "Yala", "focus_area": "2", "lat": "6.53995", "type": "ADM1", "awardID": "00059629", "lon": "101.28128", "precision": "4", "focus_area_descr": "Democratic governance"}]}, {"title": "southern thailand empowerment and participation phase ii", "id": "00081751", "subnational": []}, {"title": "strengthening disaster management capacities in thailand", "id": "00069109", "subnational": [{"outputID": "00083873", "output_locID": "00083873-1", "name": "Thailand", "focus_area": "2", "lat": "13.75398", "type": "PCL", "awardID": "00069109", "lon": "100.50144", "precision": "9", "focus_area_descr": "Democratic governance"}]}, {"title": "strengthening inclusive planning & economic decision-mak", "id": "00059930", "subnational": [{"outputID": "00075188", "output_locID": "00075188-1", "name": "Khon Kaen", "focus_area": "4", "lat": "16.44671", "type": "ADM1", "awardID": "00059930", "lon": "102.833", "precision": "4", "focus_area_descr": "Environment & sustainable development"}, {"outputID": "00075188", "output_locID": "00075188-2", "name": "Samut Sakhon", "focus_area": "4", "lat": "13.54753", "type": "ADM1", "awardID": "00059930", "lon": "100.27362", "precision": "4", "focus_area_descr": "Environment & sustainable development"}, {"outputID": "00075188", "output_locID": "00075188-3", "name": "Samut Songkhram", "focus_area": "4", "lat": "13.41456", "type": "ADM1", "awardID": "00059930", "lon": "100.00264", "precision": "4", "focus_area_descr": "Environment & sustainable development"}]}, {"title": "strengthening thailand's capacity to link climate policy", "id": "00072680", "subnational": [{"outputID": "00085748", "output_locID": "00085748-1", "name": "Thailand", "focus_area": "4", "lat": "13.75398", "type": "PCL", "awardID": "00072680", "lon": "100.50144", "precision": "9", "focus_area_descr": "Environment & sustainable development"}]}, {"title": "support to resident coordinator fund", "id": "00046919", "subnational": [{"outputID": "00056118", "output_locID": "00056118-1", "name": "Thailand", "focus_area": "-", "lat": "13.75398", "type": "PCL", "awardID": "00046919", "lon": "100.50144", "precision": "9", "focus_area_descr": "-"}]}, {"title": "supporting conflict transformation in thailand", "id": "00079404", "subnational": []}, {"title": "supporting implementation of domestic violence act 2007", "id": "00059627", "subnational": [{"outputID": "00074644", "output_locID": "00074644-1", "name": "Thailand", "focus_area": "1", "lat": "13.75398", "type": "PCL", "awardID": "00059627", "lon": "100.50144", "precision": "9", "focus_area_descr": "Poverty reduction & MDG achievement"}]}, {"title": "sustainable solutions to the displaced people situation", "id": "00058392", "subnational": [{"outputID": "00072521", "output_locID": "00072521-1", "name": "Phop Phra, Tak Province", "focus_area": "2", "lat": "16.86968", "type": "ADM1", "awardID": "00058392", "lon": "99.12898", "precision": "4", "focus_area_descr": "Democratic governance"}, {"outputID": "00072521", "output_locID": "00072521-2", "name": "Umphang, Tak Province", "focus_area": "2", "lat": "16.86968", "type": "ADM1", "awardID": "00058392", "lon": "99.12898", "precision": "4", "focus_area_descr": "Democratic governance"}]}, {"title": "sustaining thailand's democratic practice through improv", "id": "00061392", "subnational": [{"outputID": "00077752", "output_locID": "00077752-1", "name": "Thailand", "focus_area": "2", "lat": "13.75398", "type": "PCL", "awardID": "00061392", "lon": "100.50144", "precision": "9", "focus_area_descr": "Democratic governance"}]}, {"title": "thailand as an active global partner for development", "id": "00068725", "subnational": [{"outputID": "00083742", "output_locID": "00083742-1", "name": "Thailand", "focus_area": "1", "lat": "13.75398", "type": "PCL", "awardID": "00068725", "lon": "100.50144", "precision": "9", "focus_area_descr": "Poverty reduction & MDG achievement"}]}, {"title": "thailand national human development report 2013", "id": "00068904", "subnational": [{"outputID": "00083799", "output_locID": "00083799-1", "name": "Thailand", "focus_area": "1", "lat": "13.75398", "type": "PCL", "awardID": "00068904", "lon": "100.50144", "precision": "9", "focus_area_descr": "Poverty reduction & MDG achievement"}]}, {"title": "thailand's domestic preparation for post-2020 contributi", "id": "00079104", "subnational": []}, {"title": "third national communication and biennial update report", "id": "00079406", "subnational": []}, {"title": "un inter-agency project on human trafficking  phase iii", "id": "00045460", "subnational": [{"outputID": "00053709", "output_locID": "00053709-1", "name": "Bangkok", "focus_area": "-", "lat": "13.75398", "type": "PPLC", "awardID": "00045460", "lon": "100.50144", "precision": "3", "focus_area_descr": "-"}, {"outputID": "00059470", "output_locID": "00059470-1", "name": "Cambodia", "focus_area": "-", "lat": "10.29735", "type": "PCL", "awardID": "00045460", "lon": "105.85087", "precision": "9", "focus_area_descr": "-"}, {"outputID": "00059471", "output_locID": "00059471-1", "name": "China", "focus_area": "-", "lat": "6.72256", "type": "PCL", "awardID": "00045460", "lon": "100.18875", "precision": "9", "focus_area_descr": "-"}, {"outputID": "00059472", "output_locID": "00059472-1", "name": "Laos", "focus_area": "-", "lat": "14.59488", "type": "PCL", "awardID": "00045460", "lon": "99.68338", "precision": "9", "focus_area_descr": "-"}, {"outputID": "00059473", "output_locID": "00059473-1", "name": "Myanma", "focus_area": "-", "lat": "10", "type": "PCL", "awardID": "00045460", "lon": "95", "precision": "9", "focus_area_descr": "-"}, {"outputID": "00059474", "output_locID": "00059474-1", "name": "Thailand", "focus_area": "-", "lat": "13.75398", "type": "PCL", "awardID": "00045460", "lon": "100.50144", "precision": "9", "focus_area_descr": "-"}, {"outputID": "00059475", "output_locID": "00059475-1", "name": "Vietnam", "focus_area": "-", "lat": "10.29735", "type": "PCL", "awardID": "00045460", "lon": "105.85087", "precision": "9", "focus_area_descr": "-"}, {"outputID": "00083770", "output_locID": "00083770-1", "name": "Bangkok", "focus_area": "-", "lat": "13.75398", "type": "PPLC", "awardID": "00045460", "lon": "100.50144", "precision": "3", "focus_area_descr": "-"}]}, {"title": "60th anniversary of universal declaration of humanrights", "id": "00050148", "subnational": [{"outputID": "00061800", "output_locID": "00061800-1", "name": "Thailand", "focus_area": "-", "lat": "13.75398", "type": "PCL", "awardID": "00050148", "lon": "100.50144", "precision": "9", "focus_area_descr": "-"}]}, {"title": "initiation workplan", "id": "00067532", "subnational": [{"outputID": "00083248", "output_locID": "00083248-1", "name": "Thailand", "focus_area": "4", "lat": "13.75398", "type": "PCL", "awardID": "00067532", "lon": "100.50144", "precision": "9", "focus_area_descr": "Environment & sustainable development"}, {"outputID": "00083249", "output_locID": "00083249-1", "name": "Thailand", "focus_area": "2", "lat": "13.75398", "type": "PCL", "awardID": "00067532", "lon": "100.50144", "precision": "9", "focus_area_descr": "Democratic governance"}]}, {"title": "mdg monitoring and statistical strengthening", "id": "00045925", "subnational": [{"outputID": "00054626", "output_locID": "00054626-1", "name": "Trang", "focus_area": "-", "lat": "7.55633", "type": "ADM1", "awardID": "00045925", "lon": "99.61141", "precision": "4", "focus_area_descr": "-"}]}, {"title": "mff-sgf", "id": "00050691", "subnational": [{"outputID": "00062732", "output_locID": "00062732-1", "name": "Chumphon", "focus_area": "4", "lat": "10.4957", "type": "ADM1", "awardID": "00050691", "lon": "99.17971", "precision": "4", "focus_area_descr": "Environment & sustainable development"}, {"outputID": "00062732", "output_locID": "00062732-2", "name": "Krabi", "focus_area": "4", "lat": "8.07257", "type": "ADM1", "awardID": "00050691", "lon": "98.91052", "precision": "4", "focus_area_descr": "Environment & sustainable development"}, {"outputID": "00062732", "output_locID": "00062732-3", "name": "Phang Nga", "focus_area": "4", "lat": "8.7005", "type": "ADM1", "awardID": "00050691", "lon": "98.26447", "precision": "4", "focus_area_descr": "Environment & sustainable development"}, {"outputID": "00062732", "output_locID": "00062732-4", "name": "Phuket", "focus_area": "4", "lat": "7.89059", "type": "ADM1", "awardID": "00050691", "lon": "98.3981", "precision": "4", "focus_area_descr": "Environment & sustainable development"}, {"outputID": "00062732", "output_locID": "00062732-5", "name": "Ranong", "focus_area": "4", "lat": "9.96583", "type": "ADM1", "awardID": "00050691", "lon": "98.63476", "precision": "4", "focus_area_descr": "Environment & sustainable development"}, {"outputID": "00062732", "output_locID": "00062732-6", "name": "Surat Thani", "focus_area": "4", "lat": "9.14011", "type": "ADM1", "awardID": "00050691", "lon": "99.33311", "precision": "4", "focus_area_descr": "Environment & sustainable development"}]}, {"title": "pims 3642 bd ppg: bedo", "id": "00058441", "subnational": [{"outputID": "00072602", "output_locID": "00072602-1", "name": "Thailand", "focus_area": "-", "lat": "13.75398", "type": "PCL", "awardID": "00058441", "lon": "100.50144", "precision": "9", "focus_area_descr": "-"}]}, {"title": "pims 4033 mfa fsp: cbfcm", "id": "00059548", "subnational": [{"outputID": "00074512", "output_locID": "00074512-1", "name": "Thailand", "focus_area": "-", "lat": "13.75398", "type": "PCL", "awardID": "00059548", "lon": "100.50144", "precision": "9", "focus_area_descr": "-"}]}, {"title": "un theme group fund - action against hiv/aids", "id": "00033648", "subnational": [{"outputID": "00035064", "output_locID": "00035064-1", "name": "Thailand", "focus_area": "-", "lat": "13.75398", "type": "PCL", "awardID": "00033648", "lon": "100.50144", "precision": "9", "focus_area_descr": "-"}]}, {"title": "a groundwork to zero: national guidelines for msm/tg", "id": "00064125", "subnational": []}, {"title": "development advisory services", "id": "00047052", "subnational": []}, {"title": "thailand 2011 flooding early recovery & coordination sup", "id": "00062632", "subnational": []}, {"title": "capacity assessment & capacity development for nso", "id": "00060513", "subnational": []}, {"title": "ipdp", "id": "00035826", "subnational": []}, {"title": "pims 3937 cc ppg: ee building (peecb)", "id": "00059342", "subnational": []}, {"title": "stigma&discrimination prevention&aids rights protection", "id": "00062160", "subnational": []}, {"title": "support to nbsap", "id": "00049174", "subnational": []}], "op_unit": "THA"}