{"iso_num":"764","op_unit":"THA","projects":[{"id":"00062068","subnational":[{"awardID":"00062068","lat":"13.75398","lon":"100.50144","name":"Bangkok","precision":"3","type":"PPLC"},{"awardID":"00062068","lat":"14.00412","lon":"99.54832","name":"Kanchanaburi","precision":"4","type":"ADM1"},{"awardID":"00062068","lat":"14.01346","lon":"100.53049","name":"Pathumthani","precision":"4","type":"ADM1"},{"awardID":"00062068","lat":"16.86968","lon":"99.12898","name":"Tak","precision":"4","type":"ADM1"}],"title":"'Water for People' Partnership: Small Grants Programme"},{"id":"00050148","subnational":[{"awardID":"00050148","lat":"13.75398","lon":"100.50144","name":"Thailand","precision":"9","type":"PCL"}],"title":"60th Anniversary of Universal Declaration of HumanRights"},{"id":"00051180","subnational":[{"awardID":"00051180","lat":"13.75398","lon":"100.50144","name":"Bangkok","precision":"3","type":"PPLC"}],"title":"Capacity building to support Thailand Mine Action Centre"},{"id":"00061370","subnational":[{"awardID":"00061370","lat":"13.75398","lon":"100.50144","name":"Bangkok","precision":"3","type":"PPLC"},{"awardID":"00061370","lat":"8.7005","lon":"98.26447","name":"Phang Nga","precision":"4","type":"ADM1"},{"awardID":"00061370","lat":"13.89616","lon":"101.16193","name":"Prachinburi","precision":"4","type":"RES"}],"title":"GEF PIMS 3642 BD FSP: BEDO"},{"id":"00067532","subnational":[{"awardID":"00067532","lat":"13.75398","lon":"100.50144","name":"Thailand","precision":"9","type":"PCL"},{"awardID":"00067532","lat":"13.75398","lon":"100.50144","name":"Thailand","precision":"9","type":"PCL"}],"title":"Initiation Workplan"},{"id":"00059213","subnational":[{"awardID":"00059213","lat":"19.30029","lon":"97.96852","name":"Mae Hong Son","precision":"4","type":"ADM1"}],"title":"Integrated Livelihood in MHS"},{"id":"00056640","subnational":[{"awardID":"00056640","lat":"13.75398","lon":"100.50144","name":"Thailand","precision":"9","type":"PCL"},{"awardID":"00056640","lat":"13.75398","lon":"100.50144","name":"Thailand","precision":"9","type":"PCL"},{"awardID":"00056640","lat":"13.75398","lon":"100.50144","name":"Thailand","precision":"9","type":"PCL"}],"title":"Integrated ONE AWP programme and policy support for CPAP"},{"id":"00072673","subnational":[{"awardID":"00072673","lat":"13.75398","lon":"100.50144","name":"Thailand","precision":"9","type":"PCL"}],"title":"Law Reform and Legal Empowerment"},{"id":"00056871","subnational":[{"awardID":"00056871","lat":"13.75398","lon":"100.50144","name":"Thailand","precision":"9","type":"PCL"}],"title":"Legal Empowerment Partnership"},{"id":"00050356","subnational":[{"awardID":"00050356","lat":"18.53603","lon":"97.68303","name":"Mae Hong Song","precision":"4","type":"PPL"}],"title":"Livelihoods and Social Cohesion in MHS"},{"id":"00045925","subnational":[{"awardID":"00045925","lat":"7.55633","lon":"99.61141","name":"Trang","precision":"4","type":"ADM1"}],"title":"MDG Monitoring and Statistical Strengthening"},{"id":"00050691","subnational":[{"awardID":"00050691","lat":"10.4957","lon":"99.17971","name":"Chumphon","precision":"4","type":"ADM1"},{"awardID":"00050691","lat":"8.07257","lon":"98.91052","name":"Krabi","precision":"4","type":"ADM1"},{"awardID":"00050691","lat":"8.7005","lon":"98.26447","name":"Phang Nga","precision":"4","type":"ADM1"},{"awardID":"00050691","lat":"7.89059","lon":"98.3981","name":"Phuket","precision":"4","type":"ADM1"},{"awardID":"00050691","lat":"9.96583","lon":"98.63476","name":"Ranong","precision":"4","type":"ADM1"},{"awardID":"00050691","lat":"9.14011","lon":"99.33311","name":"Surat Thani","precision":"4","type":"ADM1"}],"title":"MFF-SGF"},{"id":"00041960","subnational":[{"awardID":"00041960","lat":"13.75398","lon":"100.50144","name":"Thailand","precision":"9","type":"PCL"}],"title":"Pims 2968 CC EA: Thailand Second National Communication"},{"id":"00057971","subnational":[{"awardID":"00057971","lat":"13.75398","lon":"100.50144","name":"Thailand","precision":"9","type":"PCL"}],"title":"PIMS 3327 CC FSP: BRESL: Thailand"},{"id":"00058441","subnational":[{"awardID":"00058441","lat":"13.75398","lon":"100.50144","name":"Thailand","precision":"9","type":"PCL"}],"title":"PIMS 3642 BD PPG: BEDO"},{"id":"00059765","subnational":[{"awardID":"00059765","lat":"7.55633","lon":"99.61141","name":"Trang","precision":"4","type":"ADM1"}],"title":"PIMS 3771 CC FSP : SCCF"},{"id":"00048912","subnational":[{"awardID":"00048912","lat":"18.79038","lon":"98.98468","name":"Chiang Mai","precision":"4","type":"ADM1"},{"awardID":"00048912","lat":"19.90858","lon":"99.8325","name":"Chiang Rai","precision":"4","type":"ADM1"},{"awardID":"00048912","lat":"19.30029","lon":"97.96852","name":"Mae Hong Son","precision":"4","type":"ADM1"},{"awardID":"00048912","lat":"16.86968","lon":"99.12898","name":"Tak","precision":"4","type":"ADM1"}],"title":"PIMS 3908 CC FP: Promoting RE in MHS Province"},{"id":"00061807","subnational":[{"awardID":"00061807","lat":"13.75398","lon":"100.50144","name":"Thailand","precision":"9","type":"PCL"}],"title":"PIMS 3937 CC FP Promoting Energy Efficiency in Commercia"},{"id":"00061756","subnational":[{"awardID":"00061756","lat":"18.79038","lon":"98.98468","name":"Chiang Mai","precision":"4","type":"ADM1"},{"awardID":"00061756","lat":"15.23844","lon":"104.84866","name":"Ubon Ratchathani","precision":"4","type":"ADM1"}],"title":"PIMS 4033 MFA FSP: CBFCM"},{"id":"00059548","subnational":[{"awardID":"00059548","lat":"13.75398","lon":"100.50144","name":"Thailand","precision":"9","type":"PCL"}],"title":"PIMS 4033 MFA FSP: CBFCM"},{"id":"00059058","subnational":[{"awardID":"00059058","lat":"13.75398","lon":"100.50144","name":"Bangkok","precision":"3","type":"PPLC"},{"awardID":"00059058","lat":"12.60961","lon":"102.10447","name":"Chantaburi","precision":"4","type":"ADM1"},{"awardID":"00059058","lat":"18.79038","lon":"98.98468","name":"Chiang Mai","precision":"4","type":"ADM1"},{"awardID":"00059058","lat":"12.24364","lon":"102.51514","name":"Trad","precision":"4","type":"ADM1"}],"title":"PIMS3825 Catalyzing Sustainability of TH's PA System"},{"id":"00066019","subnational":[{"awardID":"00066019","lat":"13.75398","lon":"100.50144","name":"Thailand","precision":"9","type":"PCL"}],"title":"PIMS5065 Low Emission Capacity Building Programme - THA"},{"id":"00076129","subnational":[],"title":"PPG Conserving Habitats for Globally Important Flora&Fau"},{"id":"00075449","subnational":[{"awardID":"00075449","lat":"13.75398","lon":"100.50144","name":"Thailand","precision":"9","type":"PCL"}],"title":"PPG: THA: Maximizing carbon sink"},{"id":"00069397","subnational":[{"awardID":"00069397","lat":"10.4957","lon":"99.17971","name":"Chumporn","precision":"4","type":"ADM1"},{"awardID":"00069397","lat":"8.07257","lon":"98.91052","name":"Krabi","precision":"4","type":"ADM1"},{"awardID":"00069397","lat":"8.43333","lon":"99.96667","name":"Nakhon Sri Thammarat","precision":"4","type":"ADM1"},{"awardID":"00069397","lat":"6.42639","lon":"101.82308","name":"Narathiwat","precision":"4","type":"ADM1"},{"awardID":"00069397","lat":"6.86814","lon":"101.25009","name":"Pattani","precision":"4","type":"ADM1"},{"awardID":"00069397","lat":"8.7005","lon":"98.26447","name":"Phang Nga","precision":"4","type":"ADM1"},{"awardID":"00069397","lat":"7.61786","lon":"100.07792","name":"Phattalung","precision":"4","type":"ADM1"},{"awardID":"00069397","lat":"7.89059","lon":"98.3981","name":"Phuket","precision":"4","type":"ADM1"},{"awardID":"00069397","lat":"9.96583","lon":"98.63476","name":"Ranong","precision":"4","type":"ADM1"},{"awardID":"00069397","lat":"6.62314","lon":"100.06676","name":"Satun","precision":"4","type":"ADM1"},{"awardID":"00069397","lat":"9.14011","lon":"99.33311","name":"Surat Thani","precision":"4","type":"ADM1"},{"awardID":"00069397","lat":"7.55633","lon":"99.61141","name":"Trang","precision":"4","type":"ADM1"},{"awardID":"00069397","lat":"6.53995","lon":"101.28128","name":"Yala","precision":"4","type":"ADM1"},{"awardID":"00069397","lat":"13.75398","lon":"100.50144","name":"Thailand","precision":"9","type":"PCL"}],"title":"Promoting Human Security and Leadership AcademyProgramme"},{"id":"00060374","subnational":[{"awardID":"00060374","lat":"13.75398","lon":"100.50144","name":"Thailand","precision":"9","type":"PCL"}],"title":"Road to Nat'l GuidelineforMSM HIV Prevention in Thailand"},{"id":"00059629","subnational":[{"awardID":"00059629","lat":"6.42639","lon":"101.82308","name":"Narathiwat","precision":"4","type":"ADM1"},{"awardID":"00059629","lat":"6.86814","lon":"101.25009","name":"Pattani","precision":"4","type":"ADM1"},{"awardID":"00059629","lat":"6.62314","lon":"100.06676","name":"Satun","precision":"4","type":"ADM1"},{"awardID":"00059629","lat":"6.53995","lon":"101.28128","name":"Yala","precision":"4","type":"ADM1"}],"title":"Southern Thailand Empowerment and Participation"},{"id":"00046919","subnational":[{"awardID":"00046919","lat":"13.75398","lon":"100.50144","name":"Thailand","precision":"9","type":"PCL"}],"title":"SRC Fund"},{"id":"00069109","subnational":[{"awardID":"00069109","lat":"13.75398","lon":"100.50144","name":"Thailand","precision":"9","type":"PCL"}],"title":"Strengthening Disaster Management Capacities in Thailand"},{"id":"00059930","subnational":[{"awardID":"00059930","lat":"16.44671","lon":"102.833","name":"Khon Kaen","precision":"4","type":"ADM1"},{"awardID":"00059930","lat":"13.54753","lon":"100.27362","name":"Samut Sakhon","precision":"4","type":"ADM1"},{"awardID":"00059930","lat":"13.41456","lon":"100.00264","name":"Samut Songkhram","precision":"4","type":"ADM1"}],"title":"Strengthening Inclusive Planning & Economic Decision-Mak"},{"id":"00072680","subnational":[{"awardID":"00072680","lat":"13.75398","lon":"100.50144","name":"Thailand","precision":"9","type":"PCL"}],"title":"Strengthening Thailand's Capacity to Link Climate Policy"},{"id":"00059627","subnational":[{"awardID":"00059627","lat":"13.75398","lon":"100.50144","name":"Thailand","precision":"9","type":"PCL"}],"title":"Supporting implementation of Domestic Violence Act 2007"},{"id":"00058392","subnational":[{"awardID":"00058392","lat":"16.86968","lon":"99.12898","name":"Phop Phra, Tak Province","precision":"4","type":"ADM1"},{"awardID":"00058392","lat":"16.86968","lon":"99.12898","name":"Umphang, Tak Province","precision":"4","type":"ADM1"}],"title":"Sustainable Solutions to the Displaced People Situation"},{"id":"00061392","subnational":[{"awardID":"00061392","lat":"13.75398","lon":"100.50144","name":"Thailand","precision":"9","type":"PCL"}],"title":"Sustaining Thailand's Democratic Practice through improv"},{"id":"00068725","subnational":[{"awardID":"00068725","lat":"13.75398","lon":"100.50144","name":"Thailand","precision":"9","type":"PCL"}],"title":"Thailand as An Active Global Partner for Development"},{"id":"00068904","subnational":[{"awardID":"00068904","lat":"13.75398","lon":"100.50144","name":"Thailand","precision":"9","type":"PCL"}],"title":"Thailand National Human Development Report 2013"},{"id":"00045460","subnational":[{"awardID":"00045460","lat":"13.75398","lon":"100.50144","name":"Bangkok","precision":"3","type":"PPLC"},{"awardID":"00045460","lat":"10.29735","lon":"105.85087","name":"Cambodia","precision":"9","type":"PCL"},{"awardID":"00045460","lat":"6.72256","lon":"100.18875","name":"China","precision":"9","type":"PCL"},{"awardID":"00045460","lat":"14.59488","lon":"99.68338","name":"Laos","precision":"9","type":"PCL"},{"awardID":"00045460","lat":"10","lon":"95","name":"Myanma","precision":"9","type":"PCL"},{"awardID":"00045460","lat":"13.75398","lon":"100.50144","name":"Thailand","precision":"9","type":"PCL"},{"awardID":"00045460","lat":"10.29735","lon":"105.85087","name":"Vietnam","precision":"9","type":"PCL"},{"awardID":"00045460","lat":"13.75398","lon":"100.50144","name":"Bangkok","precision":"3","type":"PPLC"}],"title":"UN Inter-Agency Project on Human Trafficking  Phase III"},{"id":"00033648","subnational":[{"awardID":"00033648","lat":"13.75398","lon":"100.50144","name":"Thailand","precision":"9","type":"PCL"}],"title":"UN Theme Group Fund - Action against HIV/AIDS"}]}