{"iso_num":"764","op_unit":"THA","projects":[{"id":"00033648","subnational":[],"title":"UN Theme Group Fund - Action against HIV/AIDS"},{"id":"00035826","subnational":[],"title":"IPDP"},{"id":"00041960","subnational":[{"lat":15.0,"lon":100.0,"precision":"9","scope":"4","type":"2"}],"title":"Pims 2968 CC EA: Thailand Second National Communication"},{"id":"00045460","subnational":[{"lat":15.0,"lon":100.0,"precision":"9","scope":"5","type":"2"},{"lat":15.0,"lon":100.0,"precision":"9","scope":"5","type":"2"},{"lat":15.0,"lon":100.0,"precision":"9","scope":"5","type":"2"},{"lat":15.0,"lon":100.0,"precision":"9","scope":"5","type":"2"},{"lat":15.0,"lon":100.0,"precision":"9","scope":"5","type":"2"},{"lat":15.0,"lon":100.0,"precision":"9","scope":"5","type":"2"},{"lat":15.0,"lon":100.0,"precision":"9","scope":"5","type":"2"}],"title":"UN Inter-Agency Project on Human Trafficking  Phase III"},{"id":"00045925","subnational":[],"title":"MDG Monitoring and Statistical Strengthening"},{"id":"00046919","subnational":[],"title":"SRC Fund"},{"id":"00047052","subnational":[],"title":"Development Advisory Services"},{"id":"00048912","subnational":[{"lat":16.8839901,"lon":99.1258498,"precision":"4","scope":"3","type":"2"},{"lat":18.790977,"lon":98.9607756,"precision":"4","scope":"3","type":"2"},{"lat":19.2990643,"lon":97.9656226,"precision":"4","scope":"3","type":"2"},{"lat":19.9071656,"lon":99.830955,"precision":"4","scope":"3","type":"2"}],"title":"PIMS 3908 CC FP: Promoting RE in MHS Province"},{"id":"00049174","subnational":[],"title":"Support to NBSAP"},{"id":"00050148","subnational":[],"title":"60th Anniversary of Universal Declaration of HumanRights"},{"id":"00050356","subnational":[{"lat":19.2990643,"lon":97.9656226,"precision":"4","scope":"2","type":"2"}],"title":"Livelihoods and Social Cohesion in MHS"},{"id":"00050691","subnational":[{"lat":7.5593851,"lon":99.6110065,"precision":"4","scope":"5","type":"2"},{"lat":7.9810496,"lon":98.3638824,"precision":"4","scope":"5","type":"2"},{"lat":8.0862997,"lon":98.9062835,"precision":"4","scope":"5","type":"2"},{"lat":8.4303975,"lon":99.9631219,"precision":"4","scope":"5","type":"2"},{"lat":8.4407456,"lon":98.5193032,"precision":"4","scope":"5","type":"2"},{"lat":9.1382389,"lon":99.3217483,"precision":"4","scope":"5","type":"2"},{"lat":9.9528702,"lon":98.6084641,"precision":"4","scope":"5","type":"2"},{"lat":10.4930496,"lon":99.1800199,"precision":"4","scope":"5","type":"2"}],"title":"MFF-SGP"},{"id":"00051180","subnational":[],"title":"Capacity building to support Thailand Mine Action Centre"},{"id":"00056640","subnational":[{"lat":15.0,"lon":100.0,"precision":"9","scope":"4","type":"2"},{"lat":15.0,"lon":100.0,"precision":"9","scope":"4","type":"2"},{"lat":15.0,"lon":100.0,"precision":"9","scope":"4","type":"2"}],"title":"Integrated ONE AWP programme and policy support for CPAP"},{"id":"00056871","subnational":[{"lat":15.0,"lon":100.0,"precision":"9","scope":"4","type":"2"}],"title":"Legal Empowerment Partnership"},{"id":"00057971","subnational":[{"lat":15.0,"lon":100.0,"precision":"9","scope":"4","type":"2"}],"title":"PIMS 3327 CC FSP: BRESL: Thailand"},{"id":"00058392","subnational":[],"title":"Sustainable Solutions to the Displaced People Situation"},{"id":"00058441","subnational":[{"lat":8.0862997,"lon":98.9062835,"precision":"4","scope":"3","type":"2"},{"lat":8.4407456,"lon":98.5193032,"precision":"4","scope":"3","type":"2"},{"lat":9.9528702,"lon":98.6084641,"precision":"4","scope":"3","type":"2"},{"lat":13.824038,"lon":102.0645839,"precision":"4","scope":"3","type":"2"},{"lat":14.0227797,"lon":99.5328115,"precision":"4","scope":"3","type":"2"},{"lat":14.0509704,"lon":101.3727439,"precision":"4","scope":"3","type":"2"}],"title":"PIMS 3642 BD PPG: BEDO"},{"id":"00059058","subnational":[],"title":"PIMS3825 Catalyzing Sustainability of TH's PA System"},{"id":"00059213","subnational":[{"lat":19.2990643,"lon":97.9656226,"precision":"4","scope":"2","type":"2"}],"title":"Integrated Livelihood in MHS"},{"id":"00059342","subnational":[],"title":"PIMS 3937 CC PPG: EE Building (PEECB)"},{"id":"00059548","subnational":[{"lat":8.0862997,"lon":98.9062835,"precision":"4","scope":"3","type":"2"},{"lat":9.1382389,"lon":99.3217483,"precision":"4","scope":"3","type":"2"},{"lat":9.7318753,"lon":100.0135929,"precision":"4","scope":"3","type":"2"},{"lat":13.5353264,"lon":100.2431893,"precision":"4","scope":"3","type":"2"},{"lat":13.5497754,"lon":100.2740821,"precision":"4","scope":"3","type":"2"},{"lat":13.8199206,"lon":100.0621676,"precision":"4","scope":"3","type":"2"},{"lat":15.2286861,"lon":104.8564217,"precision":"4","scope":"3","type":"2"},{"lat":18.790977,"lon":98.9607756,"precision":"4","scope":"3","type":"2"},{"lat":18.8950548,"lon":98.941094,"precision":"4","scope":"3","type":"2"}],"title":"PIMS 4033 MFA FSP: CBFCM"},{"id":"00059627","subnational":[{"lat":15.0,"lon":100.0,"precision":"9","scope":"4","type":"2"}],"title":"Supporting implementation of Domestic Violence Act 2007"},{"id":"00059629","subnational":[{"lat":6.4254607,"lon":101.8253143,"precision":"4","scope":"3","type":"2"},{"lat":6.541147,"lon":101.2803947,"precision":"4","scope":"3","type":"2"},{"lat":6.6238158,"lon":100.0673744,"precision":"4","scope":"3","type":"2"},{"lat":6.8694844,"lon":101.2504826,"precision":"4","scope":"3","type":"2"},{"lat":7.1756004,"lon":100.614347,"precision":"4","scope":"3","type":"2"}],"title":"Southern Thailand Empowerment and Participation"},{"id":"00059765","subnational":[],"title":"PIMS 3771 CC FSP : SCCF"},{"id":"00059930","subnational":[{"lat":13.4098217,"lon":100.0022645,"precision":"4","scope":"3","type":"2"},{"lat":13.5475216,"lon":100.2743956,"precision":"4","scope":"3","type":"2"},{"lat":16.4419355,"lon":102.8359921,"precision":"4","scope":"3","type":"2"}],"title":"Strengthening Inclusive Planning & Economic Decision-Mak"},{"id":"00060374","subnational":[{"lat":15.0,"lon":100.0,"precision":"9","scope":"4","type":"2"}],"title":"Road to Nat'l GuidelineforMSM HIV Prevention in Thailand"},{"id":"00060513","subnational":[],"title":"Capacity Assessment & Capacity Development for NSO"},{"id":"00061370","subnational":[],"title":"GEF PIMS 3642 BD FSP: BEDO"},{"id":"00061392","subnational":[{"lat":15.0,"lon":100.0,"precision":"9","scope":"4","type":"2"}],"title":"Sustaining Thailand's Democratic Practice through improv"},{"id":"00061756","subnational":[],"title":"PIMS 4033 MFA FSP: CBFCM"},{"id":"00062068","subnational":[],"title":"'Water for People' Partnership: Small Grants Programme"},{"id":"00062160","subnational":[],"title":"Stigma&Discrimination Prevention&AIDS Rights Protection"},{"id":"00062632","subnational":[],"title":"Thailand 2011 Flooding Early Recovery & Coordination Sup"},{"id":"00064125","subnational":[{"lat":15.0,"lon":100.0,"precision":"9","scope":"4","type":"2"}],"title":"A Groundwork to Zero: National Guidelines for MSM/TG"},{"id":"00066019","subnational":[],"title":"PIMS5065 Low Emission Capacity Building Programme - THA"},{"id":"00067532","subnational":[],"title":"Initiation Workplan"},{"id":"00068725","subnational":[],"title":"Thailand as An Active Global Partner for Development"},{"id":"00068904","subnational":[{"lat":15.0,"lon":100.0,"precision":"9","scope":"4","type":"2"}],"title":"Thailand National Human Development Report 2013"},{"id":"00069109","subnational":[],"title":"Strengthening Disaster Management Capacities in Thailand"},{"id":"00069397","subnational":[],"title":"Promoting Human Security and Leadership AcademyProgramme"}]}