{"iso_num":"764","op_unit":"THA","projects":[{"id":"00062068","subnational":[{"awardID":"00062068","focus_area":"4","focus_area_descr":"Environment & sustainable development","lat":"13.41456","lon":"100.00264","name":"Mae Klong","outputID":"00079310","precision":"1","type":"PPLA"}],"title":"'Water for People' Partnership: Small Grants Programme"},{"id":"00050148","subnational":[],"title":"60th Anniversary of Universal Declaration of HumanRights"},{"id":"00051180","subnational":[{"awardID":"00051180","focus_area":"-","focus_area_descr":"-","lat":"13.75398","lon":"100.50144","name":"Bangkok","outputID":"00063583","precision":"9","type":"PPLC"}],"title":"Capacity building to support Thailand Mine Action Centre"},{"id":"00061370","subnational":[],"title":"GEF PIMS 3642 BD FSP: BEDO"},{"id":"00067532","subnational":[],"title":"Initiation Workplan"},{"id":"00059213","subnational":[{"awardID":"00059213","focus_area":"2","focus_area_descr":"Democratic governance","lat":"19.30029","lon":"97.96852","name":"Mae Hong Son","outputID":"00073993","precision":"4","type":"PPLA"}],"title":"Integrated Livelihood in MHS"},{"id":"00056640","subnational":[{"awardID":"00056640","focus_area":"2","focus_area_descr":"Democratic governance","lat":"15","lon":"100","name":"Thailand","outputID":"00069448","precision":"9","type":"PCL"},{"awardID":"00056640","focus_area":"-","focus_area_descr":"-","lat":"15","lon":"100","name":"Thailand","outputID":"00070589","precision":"9","type":"PCL"}],"title":"Integrated ONE AWP programme and policy support for CPAP"},{"id":"00072673","subnational":[],"title":"Law Reform and Legal Empowerment"},{"id":"00056871","subnational":[{"awardID":"00056871","focus_area":"-","focus_area_descr":"-","lat":"15","lon":"100","name":"Thailand","outputID":"00069978","precision":"9","type":"PCL"}],"title":"Legal Empowerment Partnership"},{"id":"00050356","subnational":[{"awardID":"00050356","focus_area":"-","focus_area_descr":"-","lat":"18.54706","lon":"97.71042","name":"Mae Hong Song","outputID":"00062176","precision":"4","type":"ADM1"}],"title":"Livelihoods and Social Cohesion in MHS"},{"id":"00045925","subnational":[],"title":"MDG Monitoring and Statistical Strengthening"},{"id":"00050691","subnational":[{"awardID":"00050691","focus_area":"4","focus_area_descr":"Environment & sustainable development","lat":"10.4957","lon":"99.17971","name":"Chumphon","outputID":"00062732","precision":"4","type":"ADM1"},{"awardID":"00050691","focus_area":"4","focus_area_descr":"Environment & sustainable development","lat":"9.14011","lon":"99.33311","name":"Surat Thani","outputID":"00062732","precision":"4","type":"ADM1"},{"awardID":"00050691","focus_area":"4","focus_area_descr":"Environment & sustainable development","lat":"8.4303975","lon":"99.9631219","name":"Nakhon Si Thammarat Province","outputID":"00062732","precision":"4","type":"ADM1"},{"awardID":"00050691","focus_area":"4","focus_area_descr":"Environment & sustainable development","lat":"9.96583","lon":"98.63476","name":"Ranong","outputID":"00062732","precision":"4","type":"ADM1"},{"awardID":"00050691","focus_area":"4","focus_area_descr":"Environment & sustainable development","lat":"8.7005","lon":"98.26447","name":"Phang Nga","outputID":"00062732","precision":"4","type":"ADM1"},{"awardID":"00050691","focus_area":"4","focus_area_descr":"Environment & sustainable development","lat":"8.07257","lon":"98.91052","name":"Krabi","outputID":"00062732","precision":"4","type":"ADM1"},{"awardID":"00050691","focus_area":"4","focus_area_descr":"Environment & sustainable development","lat":"7.89059","lon":"98.3981","name":"Phuket","outputID":"00062732","precision":"4","type":"ADM1"},{"awardID":"00050691","focus_area":"4","focus_area_descr":"Environment & sustainable development","lat":"7.55633","lon":"99.61141","name":"Trang","outputID":"00062732","precision":"4","type":"ADM1"}],"title":"MFF-SGF"},{"id":"00041960","subnational":[{"awardID":"00041960","focus_area":"-","focus_area_descr":"-","lat":"15","lon":"100","name":"Thailand","outputID":"00048011","precision":"9","type":"PCL"}],"title":"Pims 2968 CC EA: Thailand Second National Communication"},{"id":"00057971","subnational":[{"awardID":"00057971","focus_area":"4","focus_area_descr":"Environment & sustainable development","lat":"15","lon":"100","name":"Thailand","outputID":"00071804","precision":"9","type":"PCL"}],"title":"PIMS 3327 CC FSP: BRESL: Thailand"},{"id":"00059765","subnational":[{"awardID":"00059765","focus_area":"4","focus_area_descr":"Environment & sustainable development","lat":"15","lon":"100","name":"Thailand","outputID":"00074912","precision":"9","type":"PCL"}],"title":"PIMS 3771 CC FSP : SCCF"},{"id":"00048912","subnational":[{"awardID":"00048912","focus_area":"4","focus_area_descr":"Environment & sustainable development","lat":"19.30029","lon":"97.96852","name":"Mae Hong Son","outputID":"00059287","precision":"4","type":"ADM1"},{"awardID":"00048912","focus_area":"4","focus_area_descr":"Environment & sustainable development","lat":"18.79038","lon":"98.98468","name":"Chiang Mai","outputID":"00059287","precision":"4","type":"ADM1"},{"awardID":"00048912","focus_area":"4","focus_area_descr":"Environment & sustainable development","lat":"19.90858","lon":"99.8325","name":"Chiang Rai","outputID":"00059287","precision":"4","type":"ADM1"},{"awardID":"00048912","focus_area":"4","focus_area_descr":"Environment & sustainable development","lat":"16.86968","lon":"99.12898","name":"Tak","outputID":"00059287","precision":"4","type":"ADM1"}],"title":"PIMS 3908 CC FP: Promoting RE in MHS Province"},{"id":"00061807","subnational":[],"title":"PIMS 3937 CC FP Promoting Energy Efficiency in Commercia"},{"id":"00061756","subnational":[],"title":"PIMS 4033 MFA FSP: CBFCM"},{"id":"00059058","subnational":[],"title":"PIMS3825 Catalyzing Sustainability of TH's PA System"},{"id":"00066019","subnational":[],"title":"PIMS5065 Low Emission Capacity Building Programme - THA"},{"id":"00069397","subnational":[],"title":"Promoting Human Security and Leadership AcademyProgramme"},{"id":"00060374","subnational":[{"awardID":"00060374","focus_area":"-","focus_area_descr":"-","lat":"15","lon":"100","name":"Thailand","outputID":"00075993","precision":"9","type":"PCL"}],"title":"Road to Nat'l GuidelineforMSM HIV Prevention in Thailand"},{"id":"00059629","subnational":[{"awardID":"00059629","focus_area":"2","focus_area_descr":"Democratic governance","lat":"6.42639","lon":"101.82308","name":"Narathiwat","outputID":"00074646","precision":"4","type":"ADM1"},{"awardID":"00059629","focus_area":"2","focus_area_descr":"Democratic governance","lat":"6.86814","lon":"101.25009","name":"Pattani","outputID":"00074646","precision":"4","type":"ADM1"},{"awardID":"00059629","focus_area":"2","focus_area_descr":"Democratic governance","lat":"6.53995","lon":"101.28128","name":"Yala","outputID":"00074646","precision":"4","type":"ADM1"},{"awardID":"00059629","focus_area":"2","focus_area_descr":"Democratic governance","lat":"6.62314","lon":"100.06676","name":"Satun","outputID":"00074646","precision":"4","type":"ADM1"},{"awardID":"00059629","focus_area":"2","focus_area_descr":"Democratic governance","lat":"7.1756004","lon":"100.614347","name":"Songhkla","outputID":"00074646","precision":"4","type":"ADM1"}],"title":"Southern Thailand Empowerment and Participation"},{"id":"00046919","subnational":[],"title":"SRC Fund"},{"id":"00069109","subnational":[],"title":"Strengthening Disaster Management Capacities in Thailand"},{"id":"00059930","subnational":[{"awardID":"00059930","focus_area":"-","focus_area_descr":"-","lat":"13.41456","lon":"100.00264","name":"Samut Songkhram","outputID":"00075188","precision":"4","type":"ADM1"},{"awardID":"00059930","focus_area":"-","focus_area_descr":"-","lat":"13.54753","lon":"100.27362","name":"Samut Sakhon","outputID":"00075188","precision":"4","type":"ADM1"},{"awardID":"00059930","focus_area":"-","focus_area_descr":"-","lat":"16.44671","lon":"102.833","name":"Khon Kaen","outputID":"00075188","precision":"4","type":"ADM1"}],"title":"Strengthening Inclusive Planning & Economic Decision-Mak"},{"id":"00072680","subnational":[],"title":"Strengthening Thailand's Capacity to Link Climate Policy"},{"id":"00059627","subnational":[{"awardID":"00059627","focus_area":"1","focus_area_descr":"Poverty reduction & MDG achievement","lat":"15","lon":"100","name":"Thailand","outputID":"00074644","precision":"9","type":"PCL"}],"title":"Supporting implementation of Domestic Violence Act 2007"},{"id":"00058392","subnational":[{"awardID":"00058392","focus_area":"-","focus_area_descr":"-","lat":"15.79496","lon":"98.87787","name":"Umphang","outputID":"00072521","precision":"1","type":"ADM2"},{"awardID":"00058392","focus_area":"-","focus_area_descr":"-","lat":"16.47215","lon":"98.83501","name":"Phop Phra","outputID":"00072521","precision":"1","type":"ADM2"}],"title":"Sustainable Solutions to the Displaced People Situation"},{"id":"00061392","subnational":[{"awardID":"00061392","focus_area":"2","focus_area_descr":"Democratic governance","lat":"15","lon":"100","name":"Thailand","outputID":"00077752","precision":"9","type":"PCL"}],"title":"Sustaining Thailand's Democratic Practice through improv"},{"id":"00068725","subnational":[],"title":"Thailand as An Active Global Partner for Development"},{"id":"00068904","subnational":[{"awardID":"00068904","focus_area":"1","focus_area_descr":"Poverty reduction & MDG achievement","lat":"15","lon":"100","name":"Thailand","outputID":"00083799","precision":"9","type":"PCL"}],"title":"Thailand National Human Development Report 2013"},{"id":"00045460","subnational":[{"awardID":"00045460","focus_area":"-","focus_area_descr":"-","lat":"15","lon":"100","name":"Thailand","outputID":"00053709","precision":"9","type":"PCL"},{"awardID":"00045460","focus_area":"-","focus_area_descr":"-","lat":"15","lon":"100","name":"Thailand","outputID":"00059470","precision":"9","type":"PCL"},{"awardID":"00045460","focus_area":"-","focus_area_descr":"-","lat":"15","lon":"100","name":"Thailand","outputID":"00059471","precision":"9","type":"PCL"},{"awardID":"00045460","focus_area":"-","focus_area_descr":"-","lat":"15","lon":"100","name":"Thailand","outputID":"00059472","precision":"9","type":"PCL"},{"awardID":"00045460","focus_area":"-","focus_area_descr":"-","lat":"15","lon":"100","name":"Thailand","outputID":"00059473","precision":"9","type":"PCL"},{"awardID":"00045460","focus_area":"-","focus_area_descr":"-","lat":"15","lon":"100","name":"Thailand","outputID":"00059474","precision":"9","type":"PCL"},{"awardID":"00045460","focus_area":"-","focus_area_descr":"-","lat":"15","lon":"100","name":"Thailand","outputID":"00059475","precision":"9","type":"PCL"}],"title":"UN Inter-Agency Project on Human Trafficking  Phase III"},{"id":"00033648","subnational":[],"title":"UN Theme Group Fund - Action against HIV/AIDS"}]}