{"iso_num": null, "projects": [{"title": "development support services-dss", "id": "00045556", "subnational": []}, {"title": "support to resident coordinator fund", "id": "00046919", "subnational": [{"outputID": "00056118", "output_locID": "00056118-1", "name": "Kingdom of Thailand", "focus_area": "7", "lat": "15.500000", "type": "PCLI", "awardID": "00046919", "lon": "101.000000", "precision": "1", "focus_area_descr": "Development Impact & Effectiveness"}]}, {"title": "fs promoting renewable energy in mhs province", "id": "00048912", "subnational": [{"outputID": "00059287", "output_locID": "00059287-1", "name": "Changwat Chiang Rai", "focus_area": "1", "lat": "19.916670", "type": "ADM1", "awardID": "00048912", "lon": "99.916670", "precision": "1", "focus_area_descr": "Inclusive & Sustainable Growth"}, {"outputID": "00059287", "output_locID": "00059287-2", "name": "Chiang Mai Province", "focus_area": "1", "lat": "18.750000", "type": "ADM1", "awardID": "00048912", "lon": "99.000000", "precision": "1", "focus_area_descr": "Inclusive & Sustainable Growth"}, {"outputID": "00059287", "output_locID": "00059287-3", "name": "Changwat Mae Hong Son", "focus_area": "1", "lat": "18.750000", "type": "ADM1", "awardID": "00048912", "lon": "97.916670", "precision": "1", "focus_area_descr": "Inclusive & Sustainable Growth"}, {"outputID": "00059287", "output_locID": "00059287-4", "name": "Changwat Mae Hong Son", "focus_area": "1", "lat": "18.750000", "type": "ADM1", "awardID": "00048912", "lon": "97.916670", "precision": "1", "focus_area_descr": "Inclusive & Sustainable Growth"}, {"outputID": "00059287", "output_locID": "00059287-5", "name": "Changwat Tak", "focus_area": "1", "lat": "16.583330", "type": "ADM1", "awardID": "00048912", "lon": "98.833330", "precision": "1", "focus_area_descr": "Inclusive & Sustainable Growth"}]}, {"title": "mangroves for the future (mff)/ small grants facility", "id": "00050691", "subnational": [{"outputID": "00062732", "output_locID": "00062732-1", "name": "Changwat Surat Thani", "focus_area": "1", "lat": "9.001100", "type": "ADM1", "awardID": "00050691", "lon": "99.039400", "precision": "1", "focus_area_descr": "Inclusive & Sustainable Growth"}, {"outputID": "00062732", "output_locID": "00062732-2", "name": "Changwat Krabi", "focus_area": "1", "lat": "8.197930", "type": "ADM1", "awardID": "00050691", "lon": "99.008590", "precision": "1", "focus_area_descr": "Inclusive & Sustainable Growth"}, {"outputID": "00062732", "output_locID": "00062732-3", "name": "Phang-Nga", "focus_area": "1", "lat": "8.700500", "type": "ADMD", "awardID": "00050691", "lon": "98.264470", "precision": "1", "focus_area_descr": "Inclusive & Sustainable Growth"}, {"outputID": "00062732", "output_locID": "00062732-4", "name": "Changwat Chumphon", "focus_area": "1", "lat": "10.400000", "type": "ADM1", "awardID": "00050691", "lon": "99.066670", "precision": "1", "focus_area_descr": "Inclusive & Sustainable Growth"}, {"outputID": "00062732", "output_locID": "00062732-5", "name": "Phuket Province", "focus_area": "1", "lat": "7.971520", "type": "ADM1", "awardID": "00050691", "lon": "98.350980", "precision": "1", "focus_area_descr": "Inclusive & Sustainable Growth"}, {"outputID": "00062732", "output_locID": "00062732-6", "name": "Changwat Ranong", "focus_area": "1", "lat": "10.100000", "type": "ADM1", "awardID": "00050691", "lon": "98.750000", "precision": "1", "focus_area_descr": "Inclusive & Sustainable Growth"}]}, {"title": "fs barrier removal to the cost-effective development", "id": "00057971", "subnational": [{"outputID": "00071804", "output_locID": "00071804-1", "name": "Kingdom of Thailand", "focus_area": "1", "lat": "15.500000", "type": "PCLI", "awardID": "00057971", "lon": "101.000000", "precision": "1", "focus_area_descr": "Inclusive & Sustainable Growth"}]}, {"title": "sustainable solutions to the displaced people situation", "id": "00058392", "subnational": [{"outputID": "00072521", "output_locID": "00072521-1", "name": "Amphoe Umphang", "focus_area": "2", "lat": "15.794960", "type": "ADM2", "awardID": "00058392", "lon": "98.877870", "precision": "1", "focus_area_descr": "Democratic Governance"}, {"outputID": "00072521", "output_locID": "00072521-2", "name": "Phop Phra", "focus_area": "2", "lat": "16.384610", "type": "PPLA2", "awardID": "00058392", "lon": "98.690280", "precision": "1", "focus_area_descr": "Democratic Governance"}]}, {"title": "fs catalyzing sustainability of ths pa system", "id": "00059058", "subnational": [{"outputID": "00073656", "output_locID": "00073656-1", "name": "Chiang Mai Province", "focus_area": "8", "lat": "18.750000", "type": "ADM1", "awardID": "00059058", "lon": "99.000000", "precision": "1", "focus_area_descr": "South-South"}, {"outputID": "00073656", "output_locID": "00073656-2", "name": "Changwat Chanthaburi", "focus_area": "8", "lat": "12.857980", "type": "ADM1", "awardID": "00059058", "lon": "102.154340", "precision": "1", "focus_area_descr": "South-South"}, {"outputID": "00073656", "output_locID": "00073656-3", "name": "Changwat Trat", "focus_area": "8", "lat": "12.500000", "type": "ADM1", "awardID": "00059058", "lon": "102.500000", "precision": "1", "focus_area_descr": "South-South"}, {"outputID": "00073656", "output_locID": "00073656-4", "name": "Bangkok", "focus_area": "8", "lat": "13.753980", "type": "PPLC", "awardID": "00059058", "lon": "100.501440", "precision": "1", "focus_area_descr": "South-South"}, {"outputID": "00073656", "output_locID": "00073656-5", "name": "Satul", "focus_area": "8", "lat": "6.833330", "type": "ADM1", "awardID": "00059058", "lon": "100.000000", "precision": "1", "focus_area_descr": "South-South"}, {"outputID": "00073656", "output_locID": "00073656-6", "name": "Amphoe Lan Sak", "focus_area": "8", "lat": "15.522880", "type": "ADM2", "awardID": "00059058", "lon": "99.461100", "precision": "1", "focus_area_descr": "South-South"}]}, {"title": "southern thailand empowerment and participation", "id": "00059629", "subnational": [{"outputID": "00074646", "output_locID": "00074646-1", "name": "Changwat Narathiwat", "focus_area": "2", "lat": "6.203360", "type": "ADM1", "awardID": "00059629", "lon": "101.720050", "precision": "1", "focus_area_descr": "Democratic Governance"}, {"outputID": "00074646", "output_locID": "00074646-2", "name": "Changwat Pattani", "focus_area": "2", "lat": "6.747220", "type": "ADM1", "awardID": "00059629", "lon": "101.375000", "precision": "1", "focus_area_descr": "Democratic Governance"}, {"outputID": "00074646", "output_locID": "00074646-3", "name": "Satul", "focus_area": "2", "lat": "6.833330", "type": "ADM1", "awardID": "00059629", "lon": "100.000000", "precision": "1", "focus_area_descr": "Democratic Governance"}, {"outputID": "00074646", "output_locID": "00074646-4", "name": "Changwat Yala", "focus_area": "2", "lat": "6.333330", "type": "ADM1", "awardID": "00059629", "lon": "101.250000", "precision": "1", "focus_area_descr": "Democratic Governance"}]}, {"title": "fs management of bd in thailand's production landscape", "id": "00061370", "subnational": [{"outputID": "00077720", "output_locID": "00077720-1", "name": "Bangkok", "focus_area": "1", "lat": "13.753980", "type": "PPLC", "awardID": "00061370", "lon": "100.501440", "precision": "1", "focus_area_descr": "Inclusive & Sustainable Growth"}, {"outputID": "00077720", "output_locID": "00077720-2", "name": "Changwat Prachin Buri", "focus_area": "1", "lat": "14.083330", "type": "ADM1", "awardID": "00061370", "lon": "101.666670", "precision": "1", "focus_area_descr": "Inclusive & Sustainable Growth"}, {"outputID": "00077720", "output_locID": "00077720-3", "name": "Changwat Phangnga", "focus_area": "1", "lat": "8.633330", "type": "ADM1", "awardID": "00061370", "lon": "98.416670", "precision": "1", "focus_area_descr": "Inclusive & Sustainable Growth"}]}, {"title": "fs community-based forest/catchment mange", "id": "00061756", "subnational": [{"outputID": "00078499", "output_locID": "00078499-1", "name": "Chiang Mai Province", "focus_area": "1", "lat": "18.750000", "type": "ADM1", "awardID": "00061756", "lon": "99.000000", "precision": "1", "focus_area_descr": "Inclusive & Sustainable Growth"}, {"outputID": "00078499", "output_locID": "00078499-2", "name": "Changwat Ubon Ratchathani", "focus_area": "1", "lat": "15.166670", "type": "ADM1", "awardID": "00061756", "lon": "105.166670", "precision": "1", "focus_area_descr": "Inclusive & Sustainable Growth"}]}, {"title": "fs promoting energy efficiency in building", "id": "00061807", "subnational": [{"outputID": "00078576", "output_locID": "00078576-1", "name": "Kingdom of Thailand", "focus_area": "1", "lat": "15.500000", "type": "PCLI", "awardID": "00061807", "lon": "101.000000", "precision": "1", "focus_area_descr": "Inclusive & Sustainable Growth"}]}, {"title": "'water for people' partnership: small grants programme", "id": "00062068", "subnational": [{"outputID": "00079310", "output_locID": "00079310-1", "name": "Bangkok", "focus_area": "1", "lat": "13.753980", "type": "PPLC", "awardID": "00062068", "lon": "100.501440", "precision": "1", "focus_area_descr": "Inclusive & Sustainable Growth"}, {"outputID": "00079310", "output_locID": "00079310-2", "name": "Changwat Kanchanaburi", "focus_area": "1", "lat": "14.633330", "type": "ADM1", "awardID": "00062068", "lon": "99.100000", "precision": "1", "focus_area_descr": "Inclusive & Sustainable Growth"}, {"outputID": "00079310", "output_locID": "00079310-3", "name": "Changwat Tak", "focus_area": "1", "lat": "16.583330", "type": "ADM1", "awardID": "00062068", "lon": "98.833330", "precision": "1", "focus_area_descr": "Inclusive & Sustainable Growth"}, {"outputID": "00079310", "output_locID": "00079310-4", "name": "Pathum Thani", "focus_area": "1", "lat": "14.013460", "type": "PPLA", "awardID": "00062068", "lon": "100.530490", "precision": "1", "focus_area_descr": "Inclusive & Sustainable Growth"}]}, {"title": "low emission capacity building (lecb)project in thailand", "id": "00066019", "subnational": [{"outputID": "00082296", "output_locID": "00082296-1", "name": "Kingdom of Thailand", "focus_area": "8", "lat": "15.500000", "type": "PCLI", "awardID": "00066019", "lon": "101.000000", "precision": "1", "focus_area_descr": "South-South"}]}, {"title": "thailand as an active global partner for development", "id": "00068725", "subnational": [{"outputID": "00083742", "output_locID": "00083742-1", "name": "Kingdom of Thailand", "focus_area": "8", "lat": "15.500000", "type": "PCLI", "awardID": "00068725", "lon": "101.000000", "precision": "1", "focus_area_descr": "South-South"}]}, {"title": "strengthening disaster management capacities in thailand", "id": "00069109", "subnational": [{"outputID": "00083873", "output_locID": "00083873-1", "name": "Kingdom of Thailand", "focus_area": "5", "lat": "15.500000", "type": "PCLI", "awardID": "00069109", "lon": "101.000000", "precision": "1", "focus_area_descr": "Climate Change & Disaster Resilience"}]}, {"title": "promoting human security and leadership academyprogramme", "id": "00069397", "subnational": [{"outputID": "00083997", "output_locID": "00083997-1", "name": "Changwat Trang", "focus_area": "2", "lat": "7.507220", "type": "ADM1", "awardID": "00069397", "lon": "99.598110", "precision": "1", "focus_area_descr": "Democratic Governance"}, {"outputID": "00083997", "output_locID": "00083997-2", "name": "Changwat Krabi", "focus_area": "2", "lat": "8.197930", "type": "ADM1", "awardID": "00069397", "lon": "99.008590", "precision": "1", "focus_area_descr": "Democratic Governance"}, {"outputID": "00083997", "output_locID": "00083997-3", "name": "Changwat Surat Thani", "focus_area": "2", "lat": "9.001100", "type": "ADM1", "awardID": "00069397", "lon": "99.039400", "precision": "1", "focus_area_descr": "Democratic Governance"}, {"outputID": "00083997", "output_locID": "00083997-4", "name": "Changwat Narathiwat", "focus_area": "2", "lat": "6.203360", "type": "ADM1", "awardID": "00069397", "lon": "101.720050", "precision": "1", "focus_area_descr": "Democratic Governance"}, {"outputID": "00083997", "output_locID": "00083997-5", "name": "Changwat Pattani", "focus_area": "2", "lat": "6.747220", "type": "ADM1", "awardID": "00069397", "lon": "101.375000", "precision": "1", "focus_area_descr": "Democratic Governance"}, {"outputID": "00083997", "output_locID": "00083997-6", "name": "Changwat Phatthalung", "focus_area": "2", "lat": "7.500000", "type": "ADM1", "awardID": "00069397", "lon": "100.083330", "precision": "1", "focus_area_descr": "Democratic Governance"}, {"outputID": "00083997", "output_locID": "00083997-7", "name": "Changwat Chumphon", "focus_area": "2", "lat": "10.400000", "type": "ADM1", "awardID": "00069397", "lon": "99.066670", "precision": "1", "focus_area_descr": "Democratic Governance"}, {"outputID": "00083997", "output_locID": "00083997-8", "name": "Changwat Nakhon Si Thammarat", "focus_area": "2", "lat": "8.391020", "type": "ADM1", "awardID": "00069397", "lon": "99.822030", "precision": "1", "focus_area_descr": "Democratic Governance"}, {"outputID": "00083997", "output_locID": "00083997-9", "name": "Satul", "focus_area": "2", "lat": "6.833330", "type": "ADM1", "awardID": "00069397", "lon": "100.000000", "precision": "1", "focus_area_descr": "Democratic Governance"}, {"outputID": "00083997", "output_locID": "00083997-10", "name": "Kingdom of Thailand", "focus_area": "2", "lat": "15.500000", "type": "PCLI", "awardID": "00069397", "lon": "101.000000", "precision": "1", "focus_area_descr": "Democratic Governance"}, {"outputID": "00083997", "output_locID": "00083997-11", "name": "Changwat Yala", "focus_area": "2", "lat": "6.333330", "type": "ADM1", "awardID": "00069397", "lon": "101.250000", "precision": "1", "focus_area_descr": "Democratic Governance"}, {"outputID": "00083997", "output_locID": "00083997-12", "name": "Changwat Phangnga", "focus_area": "2", "lat": "8.633330", "type": "ADM1", "awardID": "00069397", "lon": "98.416670", "precision": "1", "focus_area_descr": "Democratic Governance"}, {"outputID": "00083997", "output_locID": "00083997-13", "name": "Phuket Province", "focus_area": "2", "lat": "7.971520", "type": "ADM1", "awardID": "00069397", "lon": "98.350980", "precision": "1", "focus_area_descr": "Democratic Governance"}, {"outputID": "00083997", "output_locID": "00083997-14", "name": "Changwat Ranong", "focus_area": "2", "lat": "10.100000", "type": "ADM1", "awardID": "00069397", "lon": "98.750000", "precision": "1", "focus_area_descr": "Democratic Governance"}]}, {"title": "law reform and legal empowerment", "id": "00072673", "subnational": [{"outputID": "00085734", "output_locID": "00085734-1", "name": "Kingdom of Thailand", "focus_area": "2", "lat": "15.500000", "type": "PCLI", "awardID": "00072673", "lon": "101.000000", "precision": "1", "focus_area_descr": "Democratic Governance"}]}, {"title": "strengthening thailand\u2019s capacity to link climate policy", "id": "00072680", "subnational": [{"outputID": "00085748", "output_locID": "00085748-1", "name": "Kingdom of Thailand", "focus_area": "1", "lat": "15.500000", "type": "PCLI", "awardID": "00072680", "lon": "101.000000", "precision": "1", "focus_area_descr": "Inclusive & Sustainable Growth"}]}, {"title": "ppg: maximizing carbon sink capacity", "id": "00075449", "subnational": [{"outputID": "00087346", "output_locID": "00087346-1", "name": "Kingdom of Thailand", "focus_area": "1", "lat": "15.500000", "type": "PCLI", "awardID": "00075449", "lon": "101.000000", "precision": "1", "focus_area_descr": "Inclusive & Sustainable Growth"}]}, {"title": "ppg conserving habitats for globally important flora&fau", "id": "00076129", "subnational": []}, {"title": "ppg low carbon growth in cities through sustainabl", "id": "00078085", "subnational": []}, {"title": "advancing anti-corruption effort in thailand", "id": "00078586", "subnational": []}, {"title": "thailand's domestic preparation for post-2020 contributi", "id": "00079104", "subnational": []}, {"title": "supporting conflict transformation in thailand", "id": "00079404", "subnational": []}, {"title": "third national communication and biennial update report", "id": "00079406", "subnational": []}, {"title": "ppg: sustainable mgt model for lgos", "id": "00081692", "subnational": []}, {"title": "strengthening capac.& incentives for wildlife conser", "id": "00081732", "subnational": []}, {"title": "southern thailand empowerment and participation phase ii", "id": "00081751", "subnational": []}, {"title": "madrid project", "id": "00081867", "subnational": []}, {"title": "2015 advancing anti-corruption efforts in thailand", "id": "00088557", "subnational": []}, {"title": "pims 2968 cc ea: thailand second national communication", "id": "00041960", "subnational": [{"outputID": "00048011", "output_locID": "00048011-1", "name": "Kingdom of Thailand", "focus_area": "-", "lat": "15.500000", "type": "PCLI", "awardID": "00041960", "lon": "101.000000", "precision": "1", "focus_area_descr": "-"}]}, {"title": "un inter-agency project on human trafficking  phase iii", "id": "00045460", "subnational": [{"outputID": "00083770", "output_locID": "00083770-1", "name": "Bangkok", "focus_area": "2", "lat": "13.753980", "type": "PPLC", "awardID": "00045460", "lon": "100.501440", "precision": "1", "focus_area_descr": "Democratic Governance"}, {"outputID": "00059470", "output_locID": "00059470-1", "name": "Mekong River", "focus_area": "2", "lat": "10.297350", "type": "STM", "awardID": "00045460", "lon": "105.850870", "precision": "1", "focus_area_descr": "Democratic Governance"}, {"outputID": "00059474", "output_locID": "00059474-1", "name": "Kingdom of Thailand", "focus_area": "2", "lat": "15.500000", "type": "PCLI", "awardID": "00045460", "lon": "101.000000", "precision": "1", "focus_area_descr": "Democratic Governance"}, {"outputID": "00053709", "output_locID": "00053709-1", "name": "Bangkok", "focus_area": "2", "lat": "13.753980", "type": "PPLC", "awardID": "00045460", "lon": "100.501440", "precision": "1", "focus_area_descr": "Democratic Governance"}]}, {"title": "livelihoods and social cohesion in mhs", "id": "00050356", "subnational": [{"outputID": "00062176", "output_locID": "00062176-1", "name": "Changwat Mae Hong Son", "focus_area": "-", "lat": "18.750000", "type": "ADM1", "awardID": "00050356", "lon": "97.916670", "precision": "1", "focus_area_descr": "-"}, {"outputID": "00062176", "output_locID": "00062176-2", "name": "Changwat Mae Hong Son", "focus_area": "-", "lat": "18.750000", "type": "ADM1", "awardID": "00050356", "lon": "97.916670", "precision": "1", "focus_area_descr": "-"}]}, {"title": "capacity building to support thailand mine action centre", "id": "00051180", "subnational": [{"outputID": "00063583", "output_locID": "00063583-1", "name": "Bangkok", "focus_area": "-", "lat": "13.753980", "type": "PPLC", "awardID": "00051180", "lon": "100.501440", "precision": "1", "focus_area_descr": "-"}]}, {"title": "integrated one awp programme and policy support for cpap", "id": "00056640", "subnational": [{"outputID": "00069448", "output_locID": "00069448-1", "name": "Kingdom of Thailand", "focus_area": "2", "lat": "15.500000", "type": "PCLI", "awardID": "00056640", "lon": "101.000000", "precision": "1", "focus_area_descr": "Democratic Governance"}, {"outputID": "00070589", "output_locID": "00070589-1", "name": "Thailand", "focus_area": "-", "lat": "13.75398", "type": "PCL", "awardID": "00056640", "lon": "100.50144", "precision": "9", "focus_area_descr": "-"}, {"outputID": "00070590", "output_locID": "00070590-1", "name": "Thailand", "focus_area": "1", "lat": "13.75398", "type": "PCL", "awardID": "00056640", "lon": "100.50144", "precision": "9", "focus_area_descr": "Inclusive & Sustainable Growth"}]}, {"title": "legal empowerment partnership", "id": "00056871", "subnational": [{"outputID": "00069978", "output_locID": "00069978-1", "name": "Kingdom of Thailand", "focus_area": "-", "lat": "15.500000", "type": "PCLI", "awardID": "00056871", "lon": "101.000000", "precision": "1", "focus_area_descr": "-"}]}, {"title": "integrated livelihood in mhs", "id": "00059213", "subnational": [{"outputID": "00073993", "output_locID": "00073993-1", "name": "Changwat Mae Hong Son", "focus_area": "1", "lat": "18.750000", "type": "ADM1", "awardID": "00059213", "lon": "97.916670", "precision": "1", "focus_area_descr": "Inclusive & Sustainable Growth"}, {"outputID": "00073993", "output_locID": "00073993-2", "name": "Changwat Mae Hong Son", "focus_area": "1", "lat": "18.750000", "type": "ADM1", "awardID": "00059213", "lon": "97.916670", "precision": "1", "focus_area_descr": "Inclusive & Sustainable Growth"}]}, {"title": "supporting implementation of domestic violence act 2007", "id": "00059627", "subnational": [{"outputID": "00074644", "output_locID": "00074644-1", "name": "Kingdom of Thailand", "focus_area": "2", "lat": "15.500000", "type": "PCLI", "awardID": "00059627", "lon": "101.000000", "precision": "1", "focus_area_descr": "Democratic Governance"}]}, {"title": "pims 3771 cc fsp : sccf", "id": "00059765", "subnational": [{"outputID": "00074912", "output_locID": "00074912-1", "name": "Changwat Trang", "focus_area": "1", "lat": "7.507220", "type": "ADM1", "awardID": "00059765", "lon": "99.598110", "precision": "1", "focus_area_descr": "Inclusive & Sustainable Growth"}]}, {"title": "strengthening inclusive planning & economic decision-mak", "id": "00059930", "subnational": [{"outputID": "00075188", "output_locID": "00075188-1", "name": "Changwat Khon Kaen", "focus_area": "1", "lat": "16.430560", "type": "ADM1", "awardID": "00059930", "lon": "102.616670", "precision": "1", "focus_area_descr": "Inclusive & Sustainable Growth"}, {"outputID": "00075188", "output_locID": "00075188-2", "name": "Changwat Samut Sakhon", "focus_area": "1", "lat": "13.566670", "type": "ADM1", "awardID": "00059930", "lon": "100.216670", "precision": "1", "focus_area_descr": "Inclusive & Sustainable Growth"}, {"outputID": "00075188", "output_locID": "00075188-3", "name": "Changwat Samut Songkhram", "focus_area": "1", "lat": "13.400000", "type": "ADM1", "awardID": "00059930", "lon": "99.958330", "precision": "1", "focus_area_descr": "Inclusive & Sustainable Growth"}]}, {"title": "road to nat'l guidelineformsm hiv prevention in thailand", "id": "00060374", "subnational": [{"outputID": "00075993", "output_locID": "00075993-1", "name": "Kingdom of Thailand", "focus_area": "-", "lat": "15.500000", "type": "PCLI", "awardID": "00060374", "lon": "101.000000", "precision": "1", "focus_area_descr": "-"}]}, {"title": "sustaining thailand's democratic practice through improv", "id": "00061392", "subnational": [{"outputID": "00077752", "output_locID": "00077752-1", "name": "Kingdom of Thailand", "focus_area": "2", "lat": "15.500000", "type": "PCLI", "awardID": "00061392", "lon": "101.000000", "precision": "1", "focus_area_descr": "Democratic Governance"}]}, {"title": "thailand national human development report 2013", "id": "00068904", "subnational": [{"outputID": "00083799", "output_locID": "00083799-1", "name": "Kingdom of Thailand", "focus_area": "2", "lat": "15.500000", "type": "PCLI", "awardID": "00068904", "lon": "101.000000", "precision": "1", "focus_area_descr": "Democratic Governance"}]}, {"title": "60th anniversary of universal declaration of humanrights", "id": "00050148", "subnational": [{"outputID": "00061800", "output_locID": "00061800-1", "name": "Thailand", "focus_area": "-", "lat": "13.75398", "type": "PCL", "awardID": "00050148", "lon": "100.50144", "precision": "9", "focus_area_descr": "-"}]}, {"title": "initiation workplan", "id": "00067532", "subnational": [{"outputID": "00083248", "output_locID": "00083248-1", "name": "Thailand", "focus_area": "5", "lat": "13.75398", "type": "PCL", "awardID": "00067532", "lon": "100.50144", "precision": "9", "focus_area_descr": "Climate Change & Disaster Resilience"}, {"outputID": "00083249", "output_locID": "00083249-1", "name": "Thailand", "focus_area": "2", "lat": "13.75398", "type": "PCL", "awardID": "00067532", "lon": "100.50144", "precision": "9", "focus_area_descr": "Democratic Governance"}]}, {"title": "mdg monitoring and statistical strengthening", "id": "00045925", "subnational": [{"outputID": "00054626", "output_locID": "00054626-1", "name": "Trang", "focus_area": "-", "lat": "7.55633", "type": "ADM1", "awardID": "00045925", "lon": "99.61141", "precision": "4", "focus_area_descr": "-"}]}, {"title": "pims 3642 bd ppg: bedo", "id": "00058441", "subnational": [{"outputID": "00072602", "output_locID": "00072602-1", "name": "Thailand", "focus_area": "-", "lat": "13.75398", "type": "PCL", "awardID": "00058441", "lon": "100.50144", "precision": "9", "focus_area_descr": "-"}]}, {"title": "pims 4033 mfa fsp: cbfcm", "id": "00059548", "subnational": [{"outputID": "00074512", "output_locID": "00074512-1", "name": "Thailand", "focus_area": "-", "lat": "13.75398", "type": "PCL", "awardID": "00059548", "lon": "100.50144", "precision": "9", "focus_area_descr": "-"}]}, {"title": "un theme group fund - action against hiv/aids", "id": "00033648", "subnational": [{"outputID": "00035064", "output_locID": "00035064-1", "name": "Thailand", "focus_area": "-", "lat": "13.75398", "type": "PCL", "awardID": "00033648", "lon": "100.50144", "precision": "9", "focus_area_descr": "-"}]}, {"title": "a groundwork to zero: national guidelines for msm/tg", "id": "00064125", "subnational": []}, {"title": "development advisory services", "id": "00047052", "subnational": []}, {"title": "thailand 2011 flooding early recovery & coordination sup", "id": "00062632", "subnational": []}, {"title": "capacity assessment & capacity development for nso", "id": "00060513", "subnational": []}, {"title": "ipdp", "id": "00035826", "subnational": []}, {"title": "pims 3937 cc ppg: ee building (peecb)", "id": "00059342", "subnational": []}, {"title": "stigma&discrimination prevention&aids rights protection", "id": "00062160", "subnational": []}, {"title": "support to nbsap", "id": "00049174", "subnational": []}], "op_unit": "THA"}