<<<<<<< HEAD
{"op_unit":"TLS","projects":[{"id":"00014955","subnational":[{"lat":8.323,"lon":126.283,"precision":"4","scope":"3","type":"2"},{"lat":8.33,"lon":125.4,"precision":"4","scope":"3","type":"2"},{"lat":9.1849,"lon":124.1735,"precision":"4","scope":"3","type":"2"},{"lat":9.211,"lon":125.1635,"precision":"4","scope":"3","type":"2"}],"title":"Justice System Programme"},{"id":"00014960","subnational":[{"lat":8.3331,"lon":125.3425,"precision":"1","scope":"4","type":"1"},{"lat":8.3331,"lon":125.3425,"precision":"1","scope":"4","type":"1"}],"title":"Strengthening Parliamentary Democracy in Timor-Leste"},{"id":"00027126","subnational":[],"title":"Management Plan"},{"id":"00031537","subnational":[{"lat":8.33,"lon":125.4,"precision":"4","scope":"4","type":"1"}],"title":"Development Support Services"},{"id":"00035595","subnational":[{"lat":8.4143,"lon":126.4215,"precision":"3","scope":"3","type":"2"},{"lat":8.443,"lon":126.4613,"precision":"3","scope":"3","type":"2"},{"lat":8.4848,"lon":126.3436,"precision":"3","scope":"3","type":"2"}],"title":"Access Improvements to Markets in Eastern Region"},{"id":"00035718","subnational":[],"title":"Oecussi-Ambeno Community Activation Programme"},{"id":"00038748","subnational":[],"title":"Sustainable Land Management"},{"id":"00044493","subnational":[],"title":"Communication Support to Humanitarian Assistance"},{"id":"00045179","subnational":[{"lat":8.5,"lon":125.45,"precision":"9","scope":"4","type":"2"}],"title":"Support to the Timorese Electoral Cycle"},{"id":"00045435","subnational":[{"lat":8.5,"lon":125.45,"precision":"9","scope":"4","type":"2"}],"title":"Support to the Civil Service Reform in Timor-Leste"},{"id":"00045604","subnational":[{"lat":8.5,"lon":125.45,"precision":"9","scope":"4","type":"2"}],"title":"Local Governance Support Programme"},{"id":"00045750","subnational":[{"lat":8.5,"lon":125.45,"precision":"9","scope":"4","type":"2"}],"title":"Capacity Development of the PDHJ"},{"id":"00045848","subnational":[],"title":"Supporting  CSO in Promoting Citizen Participation"},{"id":"00046921","subnational":[{"lat":8.5,"lon":125.45,"precision":"9","scope":"4","type":"2"}],"title":"PIMS 2969 CC: Preparation of INC to UNFCCC"},{"id":"00048294","subnational":[{"lat":8.5,"lon":125.45,"precision":"9","scope":"4","type":"2"}],"title":"Monitoring the achievement of the MDGs."},{"id":"00048782","subnational":[{"lat":8.5,"lon":125.45,"precision":"9","scope":"4","type":"2"}],"title":"PIMS 4017: Nat. Adaptation Programme of Action for TL."},{"id":"00048941","subnational":[],"title":"Preparatory Assistance - Crisis Prevention and Recovery"},{"id":"00049194","subnational":[{"lat":8.5,"lon":125.45,"precision":"9","scope":"4","type":"2"},{"lat":8.5,"lon":125.45,"precision":"9","scope":"4","type":"2"},{"lat":8.5,"lon":125.45,"precision":"9","scope":"4","type":"2"}],"title":"Security Sector Development in Timor-Leste"},{"id":"00050186","subnational":[{"lat":8.5,"lon":125.45,"precision":"9","scope":"4","type":"2"}],"title":"Peace Building in Timor-Leste"},{"id":"00050199","subnational":[],"title":"Peace Building in Timor-Leste"},{"id":"00050224","subnational":[],"title":"National Biodiversity Startegy and Action Plan (NBSAP)"},{"id":"00050242","subnational":[{"lat":8.5,"lon":125.45,"precision":"9","scope":"4","type":"2"}],"title":"Inclusive Finance for Underserved Economy"},{"id":"00050544","subnational":[{"lat":8.5,"lon":125.45,"precision":"9","scope":"4","type":"2"}],"title":"Third National Human Development Report"},{"id":"00051193","subnational":[],"title":"Peace Building in Timor-Leste"},{"id":"00051342","subnational":[{"lat":8.5,"lon":125.45,"precision":"9","scope":"4","type":"2"}],"title":"Conditional Cash Transfer"},{"id":"00056576","subnational":[],"title":"Environmental Mainstreaming in Timor-Leste (EMTL)"},{"id":"00056605","subnational":[{"lat":8.5,"lon":125.45,"precision":"9","scope":"4","type":"2"}],"title":"Disaster Risk Management in Timor-Leste"},{"id":"00059335","subnational":[{"lat":8.4949,"lon":125.2316,"precision":"4","scope":"3","type":"2"},{"lat":9.1849,"lon":124.1735,"precision":"4","scope":"3","type":"2"}],"title":"Community Mobilization"},{"id":"00061728","subnational":[{"lat":8.5,"lon":125.45,"precision":"9","scope":"4","type":"2"}],"title":"Support to Anti-Corruption Initiatives in Timor Leste"},{"id":"00063018","subnational":[{"lat":8.5,"lon":125.45,"precision":"9","scope":"4","type":"2"}],"title":"Strengthening the Resilience of Small Rural Infrastructu"},{"id":"00065586","subnational":[{"lat":8.5,"lon":125.45,"precision":"9","scope":"4","type":"2"}],"title":"Mobilize Social Business to Accelerate Achievement of Ti"},{"id":"00065818","subnational":[],"title":"Promoting Sustainable Bio-Energy Production From Biomass"}]}
=======
{"op_unit":"TLS","projects":[{"id":"00014955","subnational":[{"lat":8.323,"lon":126.283,"precision":"4","scope":"3","type":"2"},{"lat":8.33,"lon":125.4,"precision":"4","scope":"3","type":"2"},{"lat":9.1849,"lon":124.1735,"precision":"4","scope":"3","type":"2"},{"lat":9.211,"lon":125.1635,"precision":"4","scope":"3","type":"2"}]},{"id":"00014960","subnational":[{"lat":8.3331,"lon":125.3425,"precision":"1","scope":"4","type":"1"},{"lat":8.3331,"lon":125.3425,"precision":"1","scope":"4","type":"1"}]},{"id":"00027126","subnational":[]},{"id":"00031537","subnational":[{"lat":8.33,"lon":125.4,"precision":"4","scope":"4","type":"1"}]},{"id":"00035595","subnational":[{"lat":8.4143,"lon":126.4215,"precision":"3","scope":"3","type":"2"},{"lat":8.443,"lon":126.4613,"precision":"3","scope":"3","type":"2"},{"lat":8.4848,"lon":126.3436,"precision":"3","scope":"3","type":"2"}]},{"id":"00035718","subnational":[]},{"id":"00038748","subnational":[]},{"id":"00044493","subnational":[]},{"id":"00045179","subnational":[{"lat":8.5,"lon":125.45,"precision":"9","scope":"4","type":"2"}]},{"id":"00045435","subnational":[{"lat":8.5,"lon":125.45,"precision":"9","scope":"4","type":"2"}]},{"id":"00045604","subnational":[{"lat":8.5,"lon":125.45,"precision":"9","scope":"4","type":"2"}]},{"id":"00045750","subnational":[{"lat":8.5,"lon":125.45,"precision":"9","scope":"4","type":"2"}]},{"id":"00045848","subnational":[]},{"id":"00046921","subnational":[{"lat":8.5,"lon":125.45,"precision":"9","scope":"4","type":"2"}]},{"id":"00048294","subnational":[{"lat":8.5,"lon":125.45,"precision":"9","scope":"4","type":"2"}]},{"id":"00048782","subnational":[{"lat":8.5,"lon":125.45,"precision":"9","scope":"4","type":"2"}]},{"id":"00048941","subnational":[]},{"id":"00049194","subnational":[{"lat":8.5,"lon":125.45,"precision":"9","scope":"4","type":"2"},{"lat":8.5,"lon":125.45,"precision":"9","scope":"4","type":"2"},{"lat":8.5,"lon":125.45,"precision":"9","scope":"4","type":"2"}]},{"id":"00050186","subnational":[{"lat":8.5,"lon":125.45,"precision":"9","scope":"4","type":"2"}]},{"id":"00050199","subnational":[]},{"id":"00050224","subnational":[]},{"id":"00050242","subnational":[{"lat":8.5,"lon":125.45,"precision":"9","scope":"4","type":"2"}]},{"id":"00050544","subnational":[{"lat":8.5,"lon":125.45,"precision":"9","scope":"4","type":"2"}]},{"id":"00051193","subnational":[]},{"id":"00051342","subnational":[{"lat":8.5,"lon":125.45,"precision":"9","scope":"4","type":"2"}]},{"id":"00056576","subnational":[]},{"id":"00056605","subnational":[{"lat":8.5,"lon":125.45,"precision":"9","scope":"4","type":"2"}]},{"id":"00059335","subnational":[{"lat":8.4949,"lon":125.2316,"precision":"4","scope":"3","type":"2"},{"lat":9.1849,"lon":124.1735,"precision":"4","scope":"3","type":"2"}]},{"id":"00061728","subnational":[{"lat":8.5,"lon":125.45,"precision":"9","scope":"4","type":"2"}]},{"id":"00063018","subnational":[{"lat":8.5,"lon":125.45,"precision":"9","scope":"4","type":"2"}]},{"id":"00065586","subnational":[{"lat":8.5,"lon":125.45,"precision":"9","scope":"4","type":"2"}]},{"id":"00065818","subnational":[]}]}
>>>>>>> 17333319183c99511330aeb2b2811e37cf46d8f8
