{"iso_num":"626","op_unit":"TLS","projects":[{"id":"00045750","subnational":[{"awardID":"00045750","lat":"-8.83333","lon":"125.75","name":"Timor Leste","precision":"9","type":"PCL"}],"title":"Capacity Development of the PDHJ"},{"id":"00059335","subnational":[{"awardID":"00059335","lat":"-8.83028","lon":"125.38778","name":"Ermera","precision":"4","type":"ADM1"}],"title":"Community Mobilization"},{"id":"00051342","subnational":[{"awardID":"00051342","lat":"-8.83333","lon":"125.75","name":"Timor Leste","precision":"9","type":"PCL"}],"title":"Conditional Cash Transfer"},{"id":"00031537","subnational":[{"awardID":"00031537","lat":"-8.55861","lon":"125.57361","name":"Dili","precision":"4","type":"PPLC"}],"title":"Development Support Services"},{"id":"00056605","subnational":[{"awardID":"00056605","lat":"-8.83333","lon":"125.75","name":"Timor Leste","precision":"9","type":"PCL"}],"title":"Disaster Risk Management in Timor-Leste"},{"id":"00072410","subnational":[],"title":"GEF 5108 LDCF PPG: Strengthening Community Resilience"},{"id":"00050242","subnational":[{"awardID":"00050242","lat":"-8.83333","lon":"125.75","name":"Timor Leste","precision":"9","type":"PCL"}],"title":"Inclusive Finance for Underserved Economy"},{"id":"00014955","subnational":[{"awardID":"00014955","lat":"-8.55861","lon":"125.57361","name":"Dili","precision":"4","type":"PPLC"},{"awardID":"00014955","lat":"-8.54167","lon":"126.475","name":"Baucau","precision":"4","type":"ADM1"},{"awardID":"00014955","lat":"-9.31286","lon":"125.25648","name":"Suai","precision":"4","type":"PPL"}],"title":"Justice System Programme"},{"id":"00045604","subnational":[{"awardID":"00045604","lat":"-8.83333","lon":"125.75","name":"Timor Leste","precision":"9","type":"PCL"}],"title":"Local Governance Support Programme"},{"id":"00065586","subnational":[{"awardID":"00065586","lat":"-8.83333","lon":"125.75","name":"Timor Leste","precision":"9","type":"PCL"}],"title":"Mobilize Social Business to Accelerate Achievement of Ti"},{"id":"00048294","subnational":[{"awardID":"00048294","lat":"-8.83333","lon":"125.75","name":"Timor Leste","precision":"9","type":"PCL"}],"title":"Monitoring the achievement of the MDGs."},{"id":"00050224","subnational":[{"awardID":"00050224","lat":"-8.83333","lon":"125.75","name":"Timor Leste","precision":"9","type":"PCL"}],"title":"National Biodiversity Startegy and Action Plan (NBSAP)"},{"id":"00050186","subnational":[{"awardID":"00050186","lat":"-8.83333","lon":"125.75","name":"Timor Leste","precision":"9","type":"PCL"}],"title":"Peace Building in Timor-Leste"},{"id":"00051193","subnational":[{"awardID":"00051193","lat":"-8.83333","lon":"125.75","name":"Timor Leste","precision":"9","type":"PCL"}],"title":"Peace Building in Timor-Leste"},{"id":"00046921","subnational":[{"awardID":"00046921","lat":"-8.83333","lon":"125.75","name":"Timor Leste","precision":"9","type":"PCL"}],"title":"PIMS 2969 CC: Preparation of INC to UNFCCC"},{"id":"00065818","subnational":[],"title":"Promoting Sustainable Bio-Energy Production From Biomass"},{"id":"00049194","subnational":[{"awardID":"00049194","lat":"-8.83333","lon":"125.75","name":"Timor Leste","precision":"9","type":"PCL"}],"title":"Security Sector Development in Timor-Leste"},{"id":"00014960","subnational":[{"awardID":"00014960","lat":"-8.55861","lon":"125.57361","name":"Timor Leste National Parliament","precision":"1","type":"PPLC"},{"awardID":"00014960","lat":"-8.55861","lon":"125.57361","name":"Timor Leste National Parliament","precision":"1","type":"PPLC"}],"title":"Strengthening Parliamentary Democracy in Timor-Leste"},{"id":"00063018","subnational":[{"awardID":"00063018","lat":"-8.83333","lon":"125.75","name":"Timor Leste","precision":"9","type":"PCL"}],"title":"Strengthening the Resilience of Small Rural Infrastructu"},{"id":"00061728","subnational":[{"awardID":"00061728","lat":"-8.83333","lon":"125.75","name":"Timor Leste","precision":"9","type":"PCL"}],"title":"Support to Anti-Corruption Initiatives in Timor Leste"},{"id":"00045435","subnational":[{"awardID":"00045435","lat":"-8.83333","lon":"125.75","name":"Timor Leste","precision":"9","type":"PCL"}],"title":"Support to the Civil Service Reform in Timor-Leste"},{"id":"00045179","subnational":[{"awardID":"00045179","lat":"-8.83333","lon":"125.75","name":"Timor Leste","precision":"9","type":"PCL"}],"title":"Support to the Timorese Electoral Cycle"},{"id":"00050544","subnational":[{"awardID":"00050544","lat":"-8.83333","lon":"125.75","name":"Timor Leste","precision":"9","type":"PCL"}],"title":"Third National Human Development Report"},{"id":"00072017","subnational":[],"title":"UNDP Capacity Building Support to PNTL"}]}