{"iso_num": null, "projects": [{"title": "justice system programme", "id": "00014955", "subnational": [{"outputID": "00088880", "output_locID": "00088880-1", "name": "Ermera", "focus_area": "2", "lat": "-8.830280", "type": "ADM1", "awardID": "00014955", "lon": "125.387780", "precision": "1", "focus_area_descr": "Democratic Governance"}, {"outputID": "00014955", "output_locID": "00014955-1", "name": "Ermera", "focus_area": "3", "lat": "-8.830280", "type": "ADM1", "awardID": "00014955", "lon": "125.387780", "precision": "1", "focus_area_descr": "Basic Services"}, {"outputID": "00014955", "output_locID": "00014955-2", "name": "Dili", "focus_area": "3", "lat": "-8.558610", "type": "PPLC", "awardID": "00014955", "lon": "125.573610", "precision": "1", "focus_area_descr": "Basic Services"}]}, {"title": "development support services", "id": "00031537", "subnational": [{"outputID": "00031666", "output_locID": "00031666-1", "name": "Dili", "focus_area": "14", "lat": "-8.558610", "type": "PPLC", "awardID": "00031537", "lon": "125.573610", "precision": "1", "focus_area_descr": "Organizational Results Area 7"}]}, {"title": "disaster risk management in timor-leste", "id": "00056605", "subnational": [{"outputID": "00073200", "output_locID": "00073200-1", "name": "Dili", "focus_area": "5", "lat": "-8.558610", "type": "PPLC", "awardID": "00056605", "lon": "125.573610", "precision": "1", "focus_area_descr": "Risk Reduction"}]}, {"title": "undp capacity building support to policia national da timor leste.", "id": "00072017", "subnational": [{"outputID": "00085256", "output_locID": "00085256-1", "name": "Dili", "focus_area": "12", "lat": "-8.558610", "type": "PPLC", "awardID": "00072017", "lon": "125.573610", "precision": "1", "focus_area_descr": "Organizational Results Area 5"}, {"outputID": "00098933", "output_locID": "00098933-1", "name": "Dili", "focus_area": "3", "lat": "-8.558610", "type": "PPLC", "awardID": "00072017", "lon": "125.573610", "precision": "1", "focus_area_descr": "Basic Services"}]}, {"title": "strengthening the resilience of small scale rural infrastructure and local government systems", "id": "00075260", "subnational": [{"outputID": "00087262", "output_locID": "00087262-1", "name": "Liqui\u00e7\u00e1", "focus_area": "1", "lat": "-8.650000", "type": "ADM1", "awardID": "00075260", "lon": "125.316670", "precision": "1", "focus_area_descr": "Inclusive Growth"}, {"outputID": "00087262", "output_locID": "00087262-2", "name": "Ermera", "focus_area": "1", "lat": "-8.830280", "type": "ADM1", "awardID": "00075260", "lon": "125.387780", "precision": "1", "focus_area_descr": "Inclusive Growth"}, {"outputID": "00087262", "output_locID": "00087262-3", "name": "Dili", "focus_area": "1", "lat": "-8.558610", "type": "PPLC", "awardID": "00075260", "lon": "125.573610", "precision": "1", "focus_area_descr": "Inclusive Growth"}, {"outputID": "00087262", "output_locID": "00087262-4", "name": "Baucau", "focus_area": "1", "lat": "-8.541670", "type": "ADM1", "awardID": "00075260", "lon": "126.475000", "precision": "1", "focus_area_descr": "Inclusive Growth"}]}, {"title": "promoting sustainable bio-energy production from biomass", "id": "00077146", "subnational": [{"outputID": "00088130", "output_locID": "00088130-1", "name": "Dili", "focus_area": "8", "lat": "-8.558610", "type": "PPLC", "awardID": "00077146", "lon": "125.573610", "precision": "1", "focus_area_descr": "Organizational Results Area 1"}]}, {"title": "strengthening community resilience to climate-induced disasters", "id": "00081757", "subnational": [{"outputID": "00090905", "output_locID": "00090905-1", "name": "Dili", "focus_area": "5", "lat": "-8.558610", "type": "PPLC", "awardID": "00081757", "lon": "125.573610", "precision": "1", "focus_area_descr": "Risk Reduction"}, {"outputID": "00090905", "output_locID": "00090905-2", "name": "Ainaro", "focus_area": "5", "lat": "-9.025000", "type": "ADM1", "awardID": "00081757", "lon": "125.525000", "precision": "1", "focus_area_descr": "Risk Reduction"}, {"outputID": "00090905", "output_locID": "00090905-3", "name": "Aileu", "focus_area": "5", "lat": "-8.691670", "type": "ADM1", "awardID": "00081757", "lon": "125.637500", "precision": "1", "focus_area_descr": "Risk Reduction"}]}, {"title": "second communication to the unfcc", "id": "00081761", "subnational": [{"outputID": "00090907", "output_locID": "00090907-1", "name": "Dili", "focus_area": "5", "lat": "-8.558610", "type": "PPLC", "awardID": "00081761", "lon": "125.573610", "precision": "1", "focus_area_descr": "Risk Reduction"}]}, {"title": "sub-national governance and development programme", "id": "00081807", "subnational": [{"outputID": "00090965", "output_locID": "00090965-1", "name": "Dili", "focus_area": "2", "lat": "-8.558610", "type": "PPLC", "awardID": "00081807", "lon": "125.573610", "precision": "1", "focus_area_descr": "Democratic Governance"}]}, {"title": "support to institutional development", "id": "00082979", "subnational": [{"outputID": "00091634", "output_locID": "00091634-1", "name": "Oecusse", "focus_area": "3", "lat": "-9.313610", "type": "ADM1", "awardID": "00082979", "lon": "124.293060", "precision": "1", "focus_area_descr": "Basic Services"}]}, {"title": "support to electoral cycle in timor-leste", "id": "00086475", "subnational": [{"outputID": "00093727", "output_locID": "00093727-1", "name": "D\u00edli", "focus_area": "3", "lat": "-8.550000", "type": "ADM1", "awardID": "00086475", "lon": "125.666670", "precision": "1", "focus_area_descr": "Basic Services"}]}, {"title": "timor-leste's youth wellbeing report", "id": "00089589", "subnational": [{"outputID": "00095716", "output_locID": "00095716-1", "name": "Dili", "focus_area": "1", "lat": "-8.558610", "type": "PPLC", "awardID": "00089589", "lon": "125.573610", "precision": "1", "focus_area_descr": "Inclusive Growth"}]}, {"title": "building shoreline resilience of timor-leste  to protect", "id": "00092621", "subnational": [{"outputID": "00097253", "output_locID": "00097253-1", "name": "D\u00edli", "focus_area": "1", "lat": "-8.550000", "type": "ADM1", "awardID": "00092621", "lon": "125.666670", "precision": "1", "focus_area_descr": "Inclusive Growth"}]}, {"title": "mobilize social business to accelerate achievement of timor-leste", "id": "00096561", "subnational": [{"outputID": "00100474", "output_locID": "00100474-1", "name": "Dili", "focus_area": "5", "lat": "-8.558610", "type": "PPLC", "awardID": "00096561", "lon": "125.573610", "precision": "1", "focus_area_descr": "Risk Reduction"}]}, {"title": "koica_support to anti corruption & decentralization", "id": "00096725", "subnational": []}, {"title": "cross cutting capacity development (cccd)", "id": "00096965", "subnational": [{"outputID": "00100851", "output_locID": "00100851-1", "name": "Dili", "focus_area": "1", "lat": "-8.558610", "type": "PPLC", "awardID": "00096965", "lon": "125.573610", "precision": "1", "focus_area_descr": "Inclusive Growth"}]}, {"title": "gcf readiness support for timor-leste", "id": "00098978", "subnational": [{"outputID": "00102204", "output_locID": "00102204-1", "name": "Dili", "focus_area": "1", "lat": "-8.558610", "type": "PPLC", "awardID": "00098978", "lon": "125.573610", "precision": "1", "focus_area_descr": "Inclusive Growth"}]}, {"title": "youth innovation and entrepreneurship", "id": "00109262", "subnational": []}, {"title": "community mobilization", "id": "00059335", "subnational": [{"outputID": "00074165", "output_locID": "00074165-1", "name": "Ermera", "focus_area": "1", "lat": "-8.830280", "type": "ADM1", "awardID": "00059335", "lon": "125.387780", "precision": "1", "focus_area_descr": "Inclusive Growth"}]}, {"title": "mobilize social business to accelerate achievement", "id": "00065586", "subnational": [{"outputID": "00082001", "output_locID": "00082001-1", "name": "Dili", "focus_area": "1", "lat": "-8.558610", "type": "PPLC", "awardID": "00065586", "lon": "125.573610", "precision": "1", "focus_area_descr": "Inclusive Growth"}, {"outputID": "00082001", "output_locID": "00082001-2", "name": "Dili", "focus_area": "1", "lat": "-8.558610", "type": "PPLC", "awardID": "00065586", "lon": "125.573610", "precision": "1", "focus_area_descr": "Inclusive Growth"}, {"outputID": "00082001", "output_locID": "00082001-3", "name": "Liqui\u00e7\u00e1", "focus_area": "1", "lat": "-8.583330", "type": "ADM2", "awardID": "00065586", "lon": "125.350000", "precision": "1", "focus_area_descr": "Inclusive Growth"}]}, {"title": "building shoreline resilience of timor leste to protect", "id": "00078602", "subnational": [{"outputID": "00088772", "output_locID": "00088772-1", "name": "Manatuto", "focus_area": "1", "lat": "-8.716670", "type": "ADM1", "awardID": "00078602", "lon": "125.950000", "precision": "1", "focus_area_descr": "Inclusive Growth"}, {"outputID": "00088772", "output_locID": "00088772-2", "name": "Liqui\u00e7\u00e1", "focus_area": "1", "lat": "-8.650000", "type": "ADM1", "awardID": "00078602", "lon": "125.316670", "precision": "1", "focus_area_descr": "Inclusive Growth"}, {"outputID": "00088772", "output_locID": "00088772-3", "name": "Dili", "focus_area": "1", "lat": "-8.558610", "type": "PPLC", "awardID": "00078602", "lon": "125.573610", "precision": "1", "focus_area_descr": "Inclusive Growth"}]}, {"title": "tl-resilience and social cohesion project, tl-rscp", "id": "00080251", "subnational": [{"outputID": "00090026", "output_locID": "00090026-1", "name": "Dili", "focus_area": "3", "lat": "-8.558610", "type": "PPLC", "awardID": "00080251", "lon": "125.573610", "precision": "1", "focus_area_descr": "Basic Services"}]}, {"title": "support for preparation of green climate fund (gcf) proj", "id": "00097675", "subnational": [{"outputID": "00101306", "output_locID": "00101306-1", "name": "D\u00edli", "focus_area": "1", "lat": "-8.550000", "type": "ADM1", "awardID": "00097675", "lon": "125.666670", "precision": "1", "focus_area_descr": "Inclusive Growth"}]}, {"title": "responding to el nino impact in timor leste", "id": "00097894", "subnational": [{"outputID": "00101442", "output_locID": "00101442-1", "name": "D\u00edli", "focus_area": "8", "lat": "-8.550000", "type": "ADM1", "awardID": "00097894", "lon": "125.666670", "precision": "1", "focus_area_descr": "Organizational Results Area 1"}]}, {"title": "local governance support programme", "id": "00045604", "subnational": [{"outputID": "00053898", "output_locID": "00053898-1", "name": "Dili", "focus_area": "3", "lat": "-8.558610", "type": "PPLC", "awardID": "00045604", "lon": "125.573610", "precision": "1", "focus_area_descr": "Basic Services"}]}, {"title": "security sector development in timor-leste", "id": "00049194", "subnational": [{"outputID": "00079620", "output_locID": "00079620-1", "name": "Dili", "focus_area": "3", "lat": "-8.558610", "type": "PPLC", "awardID": "00049194", "lon": "125.573610", "precision": "1", "focus_area_descr": "Basic Services"}]}, {"title": "peace building in timor-leste", "id": "00050186", "subnational": [{"outputID": "00073199", "output_locID": "00073199-1", "name": "Dili", "focus_area": "5", "lat": "-8.558610", "type": "PPLC", "awardID": "00050186", "lon": "125.573610", "precision": "1", "focus_area_descr": "Risk Reduction"}]}, {"title": "inclusive finance for underserved economy", "id": "00050242", "subnational": [{"outputID": "00061961", "output_locID": "00061961-1", "name": "Dili", "focus_area": "1", "lat": "-8.558610", "type": "PPLC", "awardID": "00050242", "lon": "125.573610", "precision": "1", "focus_area_descr": "Inclusive Growth"}]}, {"title": "conditional cash transfer", "id": "00051342", "subnational": [{"outputID": "00063879", "output_locID": "00063879-1", "name": "Dili", "focus_area": "1", "lat": "-8.558610", "type": "PPLC", "awardID": "00051342", "lon": "125.573610", "precision": "1", "focus_area_descr": "Inclusive Growth"}]}, {"title": "strengthening the resilience of small rural infrastructu", "id": "00063018", "subnational": [{"outputID": "00080317", "output_locID": "00080317-1", "name": "Liqui\u00e7\u00e1", "focus_area": "1", "lat": "-8.650000", "type": "ADM1", "awardID": "00063018", "lon": "125.316670", "precision": "1", "focus_area_descr": "Inclusive Growth"}, {"outputID": "00080317", "output_locID": "00080317-2", "name": "Ermera", "focus_area": "1", "lat": "-8.830280", "type": "ADM1", "awardID": "00063018", "lon": "125.387780", "precision": "1", "focus_area_descr": "Inclusive Growth"}, {"outputID": "00080317", "output_locID": "00080317-3", "name": "Baucau", "focus_area": "1", "lat": "-8.541670", "type": "ADM1", "awardID": "00063018", "lon": "126.475000", "precision": "1", "focus_area_descr": "Inclusive Growth"}]}, {"title": "strengthening parliamentary democracy in timor-leste", "id": "00014960", "subnational": []}, {"title": "support to the timorese electoral cycle", "id": "00045179", "subnational": []}, {"title": "capacity development of the pdhj", "id": "00045750", "subnational": []}, {"title": "pims 2969 cc: preparation of inc to unfccc", "id": "00046921", "subnational": []}, {"title": "support to peacebuilding & statebuilding in timor-leste", "id": "00075673", "subnational": []}, {"title": "access improvements to markets in eastern region", "id": "00035595", "subnational": []}, {"title": "support to the civil service reform in timor-leste", "id": "00045435", "subnational": []}, {"title": "third national human development report", "id": "00050544", "subnational": []}, {"title": "support to anti-corruption initiatives in timor leste", "id": "00061728", "subnational": []}, {"title": "promoting sustainable bio-energy production from biomass", "id": "00065818", "subnational": []}, {"title": "-gef 5108 ldcf ppg : strengthening community resilience", "id": "00072410", "subnational": []}, {"title": "monitoring the achievement of the mdgs.", "id": "00048294", "subnational": []}, {"title": "national biodiversity startegy and action plan (nbsap)", "id": "00050224", "subnational": []}, {"title": "peace building in timor-leste", "id": "00051193", "subnational": []}, {"title": "pims 4017: nat. adaptation programme of action for tl.", "id": "00048782", "subnational": []}, {"title": "communication support to humanitarian assistance", "id": "00044493", "subnational": []}, {"title": "environmental mainstreaming in timor-leste (emtl)", "id": "00056576", "subnational": []}, {"title": "management plan", "id": "00027126", "subnational": []}, {"title": "oecussi-ambeno community activation programme", "id": "00035718", "subnational": []}, {"title": "peace building in timor-leste", "id": "00050199", "subnational": []}, {"title": "preparatory assistance - crisis prevention and recovery", "id": "00048941", "subnational": []}, {"title": "supporting  cso in promoting citizen participation", "id": "00045848", "subnational": []}, {"title": "sustainable land management", "id": "00038748", "subnational": []}], "op_unit": "TLS"}