{"iso_num": null, "projects": [{"title": "to mdg monitoring and reporting project", "id": "00058256", "subnational": []}, {"title": "pm support to maf implementation", "id": "00075001", "subnational": [{"outputID": "00087120", "output_locID": "00087120-1", "name": "Nuku\u2018alofa", "focus_area": "", "lat": "-21.139380", "type": "PPLC", "awardID": "00075001", "lon": "-175.201800", "precision": "1", "focus_area_descr": "-"}, {"outputID": "00087176", "output_locID": "00087176-1", "name": "Republic of Vanuatu", "focus_area": "", "lat": "-16.000000", "type": "PCLI", "awardID": "00075001", "lon": "167.000000", "precision": "1", "focus_area_descr": "-"}]}, {"title": "ton cyclone ian er", "id": "00079054", "subnational": []}, {"title": "tonga support to parliament pa", "id": "00049527", "subnational": [{"outputID": "00060468", "output_locID": "00060468-1", "name": "Nuku\u2018alofa", "focus_area": "2", "lat": "-21.139380", "type": "PPLC", "awardID": "00049527", "lon": "-175.201800", "precision": "1", "focus_area_descr": "Democratic Governance"}]}, {"title": "to ridge to reef (r2r)", "id": "00077082", "subnational": []}, {"title": "tonga third national communication (tnc)", "id": "00060093", "subnational": [{"outputID": "00075481", "output_locID": "00075481-1", "name": "Nuku\u2018alofa", "focus_area": "1", "lat": "-21.139380", "type": "PPLC", "awardID": "00060093", "lon": "-175.201800", "precision": "1", "focus_area_descr": "Inclusive & Sustainable Growth"}]}, {"title": "to national capacity self- assessment", "id": "00025414", "subnational": [{"outputID": "00025414", "output_locID": "00025414-1", "name": "Kingdom of Tonga", "focus_area": "", "lat": "-20.000000", "type": "PCLI", "awardID": "00025414", "lon": "-175.000000", "precision": "1", "focus_area_descr": "-"}]}, {"title": "tonga sustainable land management (slm)", "id": "00038792", "subnational": [{"outputID": "00043217", "output_locID": "00043217-1", "name": "Tofua Island", "focus_area": "", "lat": "-19.743060", "type": "ISL", "awardID": "00038792", "lon": "-175.066850", "precision": "1", "focus_area_descr": "-"}, {"outputID": "00043217", "output_locID": "00043217-2", "name": "Kao Island", "focus_area": "", "lat": "-19.669940", "type": "ISL", "awardID": "00038792", "lon": "-175.014560", "precision": "1", "focus_area_descr": "-"}]}, {"title": "tonga second national communication", "id": "00044887", "subnational": []}, {"title": "tonga tsunami early recovery project", "id": "00058596", "subnational": []}], "op_unit": "TON"}