{"iso_num": null, "projects": [{"title": "gouvernance de l\u2019eau potable en milieu rural (tunisie)", "id": "00060762", "subnational": [{"outputID": "00076647", "output_locID": "00076647-1", "name": "Zaghouan", "focus_area": "1", "lat": "36.402910", "type": "PPLA", "awardID": "00060762", "lon": "10.142920", "precision": "1", "focus_area_descr": "Inclusive Growth"}, {"outputID": "00076647", "output_locID": "00076647-2", "name": "Bizerte", "focus_area": "1", "lat": "37.274420", "type": "PPLA", "awardID": "00060762", "lon": "9.873910", "precision": "1", "focus_area_descr": "Inclusive Growth"}, {"outputID": "00076647", "output_locID": "00076647-3", "name": "B\u00e9ja", "focus_area": "1", "lat": "36.725640", "type": "PPLA", "awardID": "00060762", "lon": "9.181690", "precision": "1", "focus_area_descr": "Inclusive Growth"}, {"outputID": "00076647", "output_locID": "00076647-4", "name": "Kasserine", "focus_area": "1", "lat": "35.167580", "type": "PPLA", "awardID": "00060762", "lon": "8.836510", "precision": "1", "focus_area_descr": "Inclusive Growth"}]}, {"title": "troisi\u00e8me communication nationale pims #4777 tcn", "id": "00061429", "subnational": [{"outputID": "00077802", "output_locID": "00077802-1", "name": "Tunis", "focus_area": "1", "lat": "36.818970", "type": "PPLC", "awardID": "00061429", "lon": "10.165790", "precision": "1", "focus_area_descr": "Inclusive Growth"}]}, {"title": "appui \u00e0 la r\u00e9forme du secteur s\u00e9curitaire en tunisie", "id": "00062538", "subnational": [{"outputID": "00080073", "output_locID": "00080073-1", "name": "Tunis", "focus_area": "3", "lat": "36.818970", "type": "PPLC", "awardID": "00062538", "lon": "10.165790", "precision": "1", "focus_area_descr": "Basic Services"}, {"outputID": "00100804", "output_locID": "00100804-1", "name": "Tunis", "focus_area": "3", "lat": "36.818970", "type": "PPLC", "awardID": "00062538", "lon": "10.165790", "precision": "1", "focus_area_descr": "Basic Services"}, {"outputID": "00100804", "output_locID": "00100804-2", "name": "Gouvernorat de Nabeul", "focus_area": "3", "lat": "36.666670", "type": "ADM1", "awardID": "00062538", "lon": "10.666670", "precision": "1", "focus_area_descr": "Basic Services"}, {"outputID": "00100804", "output_locID": "00100804-3", "name": "Gouvernorat de Jendouba", "focus_area": "3", "lat": "36.666670", "type": "ADM1", "awardID": "00062538", "lon": "8.750000", "precision": "1", "focus_area_descr": "Basic Services"}, {"outputID": "00100804", "output_locID": "00100804-4", "name": "Gouvernorat de Bizerte", "focus_area": "3", "lat": "37.083330", "type": "ADM1", "awardID": "00062538", "lon": "9.583330", "precision": "1", "focus_area_descr": "Basic Services"}, {"outputID": "00105850", "output_locID": "00105850-1", "name": "Tunis", "focus_area": "3", "lat": "36.818970", "type": "PPLC", "awardID": "00062538", "lon": "10.165790", "precision": "1", "focus_area_descr": "Basic Services"}, {"outputID": "00105850", "output_locID": "00105850-2", "name": "Gouvernorat de Sousse", "focus_area": "3", "lat": "35.916670", "type": "ADM1", "awardID": "00062538", "lon": "10.416670", "precision": "1", "focus_area_descr": "Basic Services"}, {"outputID": "00105850", "output_locID": "00105850-3", "name": "Gouvernorat de M\u00e9denine", "focus_area": "3", "lat": "33.333330", "type": "ADM1", "awardID": "00062538", "lon": "11.000000", "precision": "1", "focus_area_descr": "Basic Services"}, {"outputID": "00105850", "output_locID": "00105850-4", "name": "Gouvernorat de Bizerte", "focus_area": "3", "lat": "37.083330", "type": "ADM1", "awardID": "00062538", "lon": "9.583330", "precision": "1", "focus_area_descr": "Basic Services"}, {"outputID": "00107963", "output_locID": "00107963-1", "name": "El Marsa", "focus_area": "3", "lat": "36.834670", "type": "PPL", "awardID": "00062538", "lon": "11.094660", "precision": "1", "focus_area_descr": "Basic Services"}, {"outputID": "00088038", "output_locID": "00088038-1", "name": "Tunis", "focus_area": "3", "lat": "36.818970", "type": "PPLC", "awardID": "00062538", "lon": "10.165790", "precision": "1", "focus_area_descr": "Basic Services"}, {"outputID": "00088038", "output_locID": "00088038-2", "name": "Gouvernorat de Sidi Bouzid", "focus_area": "3", "lat": "34.833330", "type": "ADM1", "awardID": "00062538", "lon": "9.500000", "precision": "1", "focus_area_descr": "Basic Services"}, {"outputID": "00088038", "output_locID": "00088038-3", "name": "Gouvernorat de Sfax", "focus_area": "3", "lat": "34.750000", "type": "ADM1", "awardID": "00062538", "lon": "10.416670", "precision": "1", "focus_area_descr": "Basic Services"}, {"outputID": "00088038", "output_locID": "00088038-4", "name": "Gouvernorat de Nabeul", "focus_area": "3", "lat": "36.666670", "type": "ADM1", "awardID": "00062538", "lon": "10.666670", "precision": "1", "focus_area_descr": "Basic Services"}, {"outputID": "00088038", "output_locID": "00088038-5", "name": "Gouvernorat de Ben Arous", "focus_area": "3", "lat": "36.721270", "type": "ADM1", "awardID": "00062538", "lon": "10.323030", "precision": "1", "focus_area_descr": "Basic Services"}, {"outputID": "00095035", "output_locID": "00095035-1", "name": "Tunis", "focus_area": "3", "lat": "36.818970", "type": "PPLC", "awardID": "00062538", "lon": "10.165790", "precision": "1", "focus_area_descr": "Basic Services"}, {"outputID": "00095035", "output_locID": "00095035-2", "name": "Gouvernorat de M\u00e9denine", "focus_area": "3", "lat": "33.333330", "type": "ADM1", "awardID": "00062538", "lon": "11.000000", "precision": "1", "focus_area_descr": "Basic Services"}]}, {"title": "support to transitional justice in tunisia", "id": "00064022", "subnational": [{"outputID": "00080894", "output_locID": "00080894-1", "name": "Tunis", "focus_area": "3", "lat": "36.818970", "type": "PPLC", "awardID": "00064022", "lon": "10.165790", "precision": "1", "focus_area_descr": "Basic Services"}]}, {"title": "appui processus constitutionnel & dialogue national", "id": "00064278", "subnational": [{"outputID": "00081149", "output_locID": "00081149-1", "name": "Tunis", "focus_area": "2", "lat": "36.818970", "type": "PPLC", "awardID": "00064278", "lon": "10.165790", "precision": "1", "focus_area_descr": "Democratic Governance"}, {"outputID": "00084472", "output_locID": "00084472-1", "name": "Tunis", "focus_area": "2", "lat": "36.818970", "type": "PPLC", "awardID": "00064278", "lon": "10.165790", "precision": "1", "focus_area_descr": "Democratic Governance"}, {"outputID": "00084475", "output_locID": "00084475-1", "name": "Tunis", "focus_area": "2", "lat": "36.818970", "type": "PPLC", "awardID": "00064278", "lon": "10.165790", "precision": "1", "focus_area_descr": "Democratic Governance"}, {"outputID": "00084477", "output_locID": "00084477-1", "name": "Tunis", "focus_area": "2", "lat": "36.818970", "type": "PPLC", "awardID": "00064278", "lon": "10.165790", "precision": "1", "focus_area_descr": "Democratic Governance"}]}, {"title": "soutien au d\u00e9veloppement local int\u00e9gr\u00e9 et durable", "id": "00071493", "subnational": [{"outputID": "00084920", "output_locID": "00084920-1", "name": "Tunis", "focus_area": "2", "lat": "36.818970", "type": "PPLC", "awardID": "00071493", "lon": "10.165790", "precision": "1", "focus_area_descr": "Democratic Governance"}]}, {"title": "syst\u00e8me national d'int\u00e9grit\u00e9 en tunisie", "id": "00073417", "subnational": [{"outputID": "00086230", "output_locID": "00086230-1", "name": "Tunis", "focus_area": "2", "lat": "36.818970", "type": "PPLC", "awardID": "00073417", "lon": "10.165790", "precision": "1", "focus_area_descr": "Democratic Governance"}]}, {"title": "addressing coastal climate change vulnerabilities", "id": "00079688", "subnational": [{"outputID": "00089624", "output_locID": "00089624-1", "name": "Houmet Souk", "focus_area": "5", "lat": "33.848680", "type": "ADMD", "awardID": "00079688", "lon": "10.866190", "precision": "1", "focus_area_descr": "Risk Reduction"}, {"outputID": "00089624", "output_locID": "00089624-2", "name": "Jerba Midoun", "focus_area": "5", "lat": "33.779180", "type": "ADM2", "awardID": "00079688", "lon": "10.952150", "precision": "1", "focus_area_descr": "Risk Reduction"}, {"outputID": "00089624", "output_locID": "00089624-3", "name": "Jerba Ajim", "focus_area": "5", "lat": "33.765930", "type": "ADM2", "awardID": "00079688", "lon": "10.823750", "precision": "1", "focus_area_descr": "Risk Reduction"}, {"outputID": "00089624", "output_locID": "00089624-4", "name": "Ghar El Melh", "focus_area": "5", "lat": "37.170910", "type": "ADM2", "awardID": "00079688", "lon": "10.104010", "precision": "1", "focus_area_descr": "Risk Reduction"}, {"outputID": "00089624", "output_locID": "00089624-5", "name": "Kalaat El Andalous", "focus_area": "5", "lat": "37.026640", "type": "ADM2", "awardID": "00079688", "lon": "10.129480", "precision": "1", "focus_area_descr": "Risk Reduction"}]}, {"title": "justice transitionnelle (phase ii)", "id": "00080346", "subnational": [{"outputID": "00090892", "output_locID": "00090892-1", "name": "Gouvernorat de l\u2019Ariana", "focus_area": "2", "lat": "36.983330", "type": "ADM1", "awardID": "00080346", "lon": "10.116670", "precision": "1", "focus_area_descr": "Democratic Governance"}]}, {"title": "nama support for the tunisian solar plan", "id": "00081769", "subnational": [{"outputID": "00090941", "output_locID": "00090941-1", "name": "Gouvernorat de Tozeur", "focus_area": "1", "lat": "34.000000", "type": "ADM1", "awardID": "00081769", "lon": "8.083330", "precision": "1", "focus_area_descr": "Inclusive Growth"}, {"outputID": "00090941", "output_locID": "00090941-2", "name": "Gouvernorat de Gab\u00e8s", "focus_area": "1", "lat": "33.833330", "type": "ADM1", "awardID": "00081769", "lon": "9.750000", "precision": "1", "focus_area_descr": "Inclusive Growth"}]}, {"title": "tamkeen-renforcement des capacit\u00e9s de la soci\u00e9t\u00e9 civile", "id": "00083925", "subnational": [{"outputID": "00092161", "output_locID": "00092161-1", "name": "Djerba", "focus_area": "2", "lat": "33.876120", "type": "PPLX", "awardID": "00083925", "lon": "10.851750", "precision": "1", "focus_area_descr": "Democratic Governance"}]}, {"title": "d\u00e9veloppement local int\u00e9gr\u00e9 et durable", "id": "00086067", "subnational": [{"outputID": "00093468", "output_locID": "00093468-1", "name": "Gouvernorat de B\u00e9ja", "focus_area": "3", "lat": "36.666670", "type": "ADM1", "awardID": "00086067", "lon": "9.250000", "precision": "1", "focus_area_descr": "Basic Services"}, {"outputID": "00103418", "output_locID": "00103418-1", "name": "Gouvernorat de B\u00e9ja", "focus_area": "3", "lat": "36.666670", "type": "ADM1", "awardID": "00086067", "lon": "9.250000", "precision": "1", "focus_area_descr": "Basic Services"}, {"outputID": "00108382", "output_locID": "00108382-1", "name": "Gouvernorat de B\u00e9ja", "focus_area": "3", "lat": "36.666670", "type": "ADM1", "awardID": "00086067", "lon": "9.250000", "precision": "1", "focus_area_descr": "Basic Services"}]}, {"title": "droits de l'homme et acc\u00e8s \u00e0 la justice", "id": "00086068", "subnational": [{"outputID": "00105976", "output_locID": "00105976-1", "name": "Tunis", "focus_area": "2", "lat": "36.818970", "type": "PPLC", "awardID": "00086068", "lon": "10.165790", "precision": "1", "focus_area_descr": "Democratic Governance"}, {"outputID": "00108364", "output_locID": "00108364-1", "name": "Tunis", "focus_area": "2", "lat": "36.818970", "type": "PPLC", "awardID": "00086068", "lon": "10.165790", "precision": "1", "focus_area_descr": "Democratic Governance"}, {"outputID": "00093469", "output_locID": "00093469-1", "name": "Gouvernorat de Tunis", "focus_area": "2", "lat": "36.766670", "type": "ADM1", "awardID": "00086068", "lon": "10.133330", "precision": "1", "focus_area_descr": "Democratic Governance"}, {"outputID": "00103084", "output_locID": "00103084-1", "name": "Tunis", "focus_area": "2", "lat": "36.818970", "type": "PPLC", "awardID": "00086068", "lon": "10.165790", "precision": "1", "focus_area_descr": "Democratic Governance"}]}, {"title": "appui au parlement tunisien 2015-2019", "id": "00087365", "subnational": [{"outputID": "00094396", "output_locID": "00094396-1", "name": "Tunis", "focus_area": "2", "lat": "36.818970", "type": "PPLC", "awardID": "00087365", "lon": "10.165790", "precision": "1", "focus_area_descr": "Democratic Governance"}]}, {"title": "croissance inclusive et d\u00e9veloppement humain", "id": "00088698", "subnational": [{"outputID": "00095236", "output_locID": "00095236-1", "name": "Tunis", "focus_area": "1", "lat": "36.818970", "type": "PPLC", "awardID": "00088698", "lon": "10.165790", "precision": "1", "focus_area_descr": "Inclusive Growth"}]}, {"title": "tunisia electoral assistance programme", "id": "00088815", "subnational": [{"outputID": "00095315", "output_locID": "00095315-1", "name": "Tunis", "focus_area": "2", "lat": "36.818970", "type": "PPLC", "awardID": "00088815", "lon": "10.165790", "precision": "1", "focus_area_descr": "Democratic Governance"}]}, {"title": "ip-bonne gouvernance des \u00e9cosyst\u00e8mes fragiles & des rn", "id": "00091928", "subnational": [{"outputID": "00096886", "output_locID": "00096886-1", "name": "Tunis", "focus_area": "5", "lat": "36.818970", "type": "PPLC", "awardID": "00091928", "lon": "10.165790", "precision": "1", "focus_area_descr": "Risk Reduction"}]}, {"title": "enhanced entrepreneurship in southern tunisia", "id": "00091960", "subnational": [{"outputID": "00096897", "output_locID": "00096897-1", "name": "Gouvernorat de Tozeur", "focus_area": "1", "lat": "34.000000", "type": "ADM1", "awardID": "00091960", "lon": "8.083330", "precision": "1", "focus_area_descr": "Inclusive Growth"}, {"outputID": "00096897", "output_locID": "00096897-2", "name": "Tataouine", "focus_area": "1", "lat": "32.000000", "type": "ADM1", "awardID": "00091960", "lon": "10.000000", "precision": "1", "focus_area_descr": "Inclusive Growth"}, {"outputID": "00096897", "output_locID": "00096897-3", "name": "Kebili", "focus_area": "1", "lat": "33.500000", "type": "ADM1", "awardID": "00091960", "lon": "8.833330", "precision": "1", "focus_area_descr": "Inclusive Growth"}, {"outputID": "00096897", "output_locID": "00096897-4", "name": "Gouvernorat de M\u00e9denine", "focus_area": "1", "lat": "33.333330", "type": "ADM1", "awardID": "00091960", "lon": "11.000000", "precision": "1", "focus_area_descr": "Inclusive Growth"}, {"outputID": "00099759", "output_locID": "00099759-1", "name": "Gouvernorat de M\u00e9denine", "focus_area": "1", "lat": "33.333330", "type": "ADM1", "awardID": "00091960", "lon": "11.000000", "precision": "1", "focus_area_descr": "Inclusive Growth"}]}, {"title": "strengthening public accountability in tunisia", "id": "00096800", "subnational": [{"outputID": "00100707", "output_locID": "00100707-1", "name": "Tunis", "focus_area": "2", "lat": "36.818970", "type": "PPLC", "awardID": "00096800", "lon": "10.165790", "precision": "1", "focus_area_descr": "Democratic Governance"}, {"outputID": "00100707", "output_locID": "00100707-2", "name": "Gouvernorat de M\u00e9denine", "focus_area": "2", "lat": "33.333330", "type": "ADM1", "awardID": "00096800", "lon": "11.000000", "precision": "1", "focus_area_descr": "Democratic Governance"}]}, {"title": "renforcement de l\u2019engagement de la soci\u00e9t\u00e9 civile", "id": "00097630", "subnational": [{"outputID": "00101282", "output_locID": "00101282-1", "name": "Gouvernorat de Tunis", "focus_area": "2", "lat": "36.766670", "type": "ADM1", "awardID": "00097630", "lon": "10.133330", "precision": "1", "focus_area_descr": "Democratic Governance"}, {"outputID": "00101282", "output_locID": "00101282-2", "name": "Siliana", "focus_area": "2", "lat": "36.000000", "type": "ADM1", "awardID": "00097630", "lon": "9.333330", "precision": "1", "focus_area_descr": "Democratic Governance"}, {"outputID": "00101282", "output_locID": "00101282-3", "name": "Jendouba", "focus_area": "2", "lat": "36.485190", "type": "ADM2", "awardID": "00097630", "lon": "8.823250", "precision": "1", "focus_area_descr": "Democratic Governance"}, {"outputID": "00101282", "output_locID": "00101282-4", "name": "Gouvernorat de B\u00e9ja", "focus_area": "2", "lat": "36.666670", "type": "ADM1", "awardID": "00097630", "lon": "9.250000", "precision": "1", "focus_area_descr": "Democratic Governance"}, {"outputID": "00101282", "output_locID": "00101282-5", "name": "Kef", "focus_area": "2", "lat": "36.083330", "type": "ADM1", "awardID": "00097630", "lon": "8.750000", "precision": "1", "focus_area_descr": "Democratic Governance"}]}, {"title": "ip- market readiness proposal", "id": "00098464", "subnational": [{"outputID": "00101762", "output_locID": "00101762-1", "name": "Tunis", "focus_area": "5", "lat": "36.818970", "type": "PPLC", "awardID": "00098464", "lon": "10.165790", "precision": "1", "focus_area_descr": "Risk Reduction"}]}, {"title": "programme de renforcement des cap nat et locales en rrc", "id": "00098883", "subnational": [{"outputID": "00102078", "output_locID": "00102078-1", "name": "Tunis", "focus_area": "5", "lat": "36.818970", "type": "PPLC", "awardID": "00098883", "lon": "10.165790", "precision": "1", "focus_area_descr": "Risk Reduction"}]}, {"title": "programme genre", "id": "00098884", "subnational": [{"outputID": "00107359", "output_locID": "00107359-1", "name": "Tunis", "focus_area": "4", "lat": "36.818970", "type": "PPLC", "awardID": "00098884", "lon": "10.165790", "precision": "1", "focus_area_descr": "Gender Equality"}, {"outputID": "00102079", "output_locID": "00102079-1", "name": "Tunis", "focus_area": "4", "lat": "36.818970", "type": "PPLC", "awardID": "00098884", "lon": "10.165790", "precision": "1", "focus_area_descr": "Gender Equality"}]}, {"title": "pr\u00e9vention de l'extr\u00e9misme violent", "id": "00099940", "subnational": [{"outputID": "00103135", "output_locID": "00103135-1", "name": "Tunis", "focus_area": "5", "lat": "36.818970", "type": "PPLC", "awardID": "00099940", "lon": "10.165790", "precision": "1", "focus_area_descr": "Risk Reduction"}]}, {"title": "appui \u00e0 la mise en oeuvre et au suivi du cpd 2015-2019", "id": "00106465", "subnational": [{"outputID": "00107209", "output_locID": "00107209-1", "name": "Tunis", "focus_area": "-", "lat": "36.818970", "type": "PPLC", "awardID": "00106465", "lon": "10.165790", "precision": "1", "focus_area_descr": "-"}]}, {"title": "appui des odds en tunisie", "id": "00106700", "subnational": [{"outputID": "00107300", "output_locID": "00107300-1", "name": "Tunis", "focus_area": "1", "lat": "36.818970", "type": "PPLC", "awardID": "00106700", "lon": "10.165790", "precision": "1", "focus_area_descr": "Inclusive Growth"}]}, {"title": "appui au programme micro fin gef sgp", "id": "00049254", "subnational": [{"outputID": "00059937", "output_locID": "00059937-1", "name": "Tunis", "focus_area": "1", "lat": "36.818970", "type": "PPLC", "awardID": "00049254", "lon": "10.165790", "precision": "1", "focus_area_descr": "Inclusive Growth"}]}, {"title": "soutien au processus electoral en tunisie", "id": "00062358", "subnational": [{"outputID": "00079820", "output_locID": "00079820-1", "name": "Tunis", "focus_area": "2", "lat": "36.818970", "type": "PPLC", "awardID": "00062358", "lon": "10.165790", "precision": "1", "focus_area_descr": "Democratic Governance"}]}, {"title": "biodiversit\u00e9 2010-2020", "id": "00068614", "subnational": [{"outputID": "00083689", "output_locID": "00083689-1", "name": "Tunis", "focus_area": "1", "lat": "36.818970", "type": "PPLC", "awardID": "00068614", "lon": "10.165790", "precision": "1", "focus_area_descr": "Inclusive Growth"}]}, {"title": "accelerated job creation and enterpreneurship", "id": "00079787", "subnational": [{"outputID": "00089676", "output_locID": "00089676-1", "name": "Gouvernorat de M\u00e9denine", "focus_area": "1", "lat": "33.333330", "type": "ADM1", "awardID": "00079787", "lon": "11.000000", "precision": "1", "focus_area_descr": "Inclusive Growth"}, {"outputID": "00089676", "output_locID": "00089676-2", "name": "Tataouine", "focus_area": "1", "lat": "32.911430", "type": "PPL", "awardID": "00079787", "lon": "10.445140", "precision": "1", "focus_area_descr": "Inclusive Growth"}]}, {"title": "tunisia's first biennial update report", "id": "00081797", "subnational": [{"outputID": "00090958", "output_locID": "00090958-1", "name": "Tunis", "focus_area": "1", "lat": "36.818970", "type": "PPLC", "awardID": "00081797", "lon": "10.165790", "precision": "1", "focus_area_descr": "Inclusive Growth"}]}, {"title": "appui \u00e0 la mise en \u0153uvre des par lcd \u00e0 kasserine", "id": "00048974", "subnational": [{"outputID": "00059423", "output_locID": "00059423-1", "name": "Oued el Brek", "focus_area": "1", "lat": "36.153710", "type": "WAD", "awardID": "00048974", "lon": "10.425780", "precision": "1", "focus_area_descr": "Inclusive Growth"}, {"outputID": "00059423", "output_locID": "00059423-2", "name": "Kasserine", "focus_area": "1", "lat": "35.167580", "type": "PPLA", "awardID": "00048974", "lon": "8.836510", "precision": "1", "focus_area_descr": "Inclusive Growth"}]}, {"title": "appui plan quadriennal anme 2008 - 2011", "id": "00057352", "subnational": [{"outputID": "00070821", "output_locID": "00070821-1", "name": "Tunis", "focus_area": "1", "lat": "36.818970", "type": "PPLC", "awardID": "00057352", "lon": "10.165790", "precision": "1", "focus_area_descr": "Inclusive Growth"}]}, {"title": "consultation nationale / post 2015", "id": "00081062", "subnational": [{"outputID": "00091361", "output_locID": "00091361-1", "name": "Tunis", "focus_area": "16", "lat": "36.818970", "type": "PPLC", "awardID": "00081062", "lon": "10.165790", "precision": "1", "focus_area_descr": "Organizational Results Area 9"}]}, {"title": "appui \u00e0 la commune d'ain drahem -urban drr", "id": "00085712", "subnational": [{"outputID": "00093240", "output_locID": "00093240-1", "name": "Ain Draham", "focus_area": "5", "lat": "36.778730", "type": "PPL", "awardID": "00085712", "lon": "8.687350", "precision": "1", "focus_area_descr": "Risk Reduction"}]}, {"title": "court of accounts", "id": "00088185", "subnational": []}, {"title": "appui au ciede", "id": "00015045", "subnational": []}, {"title": "appui \u00e0 la cour des comptes.", "id": "00058295", "subnational": []}, {"title": "private sector led development of on-grid windpower_tuni", "id": "00058406", "subnational": []}, {"title": "appui au rel\u00e8vement \u00e9conomique et \u00e0 la coh\u00e9sion sociale", "id": "00061449", "subnational": []}, {"title": "tunisia\u2019s youth employment generation programme", "id": "00066148", "subnational": []}, {"title": "ip_cc vulnerabilities& risks incoastal area in tunisia", "id": "00070374", "subnational": []}, {"title": "planification, d\u00e9veloppement et omd", "id": "00071494", "subnational": []}, {"title": "nama support for the tunisian solar plan", "id": "00074449", "subnational": []}, {"title": "enabling activities for the preparation of tunisia's snc", "id": "00041154", "subnational": []}, {"title": "modernisation de l'administration publique - modap", "id": "00058253", "subnational": []}, {"title": "promotion d\u2019une citoyennet\u00e9 active en tunisie (pcat)", "id": "00061969", "subnational": []}, {"title": "vision partag\u00e9e syst\u00e8me efficace promotion int\u00e9grit\u00e9", "id": "00062409", "subnational": []}, {"title": "pims 851 bd fsp : date palm project", "id": "00015034", "subnational": []}, {"title": "strat\u00e9gie nationale&poa pour la substitution energ\u00e9tique", "id": "00048126", "subnational": []}, {"title": "convention tg hiv/aids - pr gfatm", "id": "00050193", "subnational": []}, {"title": "int\u00e9gration du genre et lutte contre la violence b/ genr", "id": "00050367", "subnational": []}, {"title": "mdg-f engaging tunisian youth to achieve the mdgs", "id": "00057338", "subnational": []}, {"title": "promoting resilient coastal development in tunisia_aap", "id": "00058399", "subnational": []}, {"title": "r\u00e9duction mortalit\u00e9 maternelle : renforcement des capaci", "id": "00059559", "subnational": []}, {"title": "promotion emploi & volontariat national", "id": "00071532", "subnational": []}, {"title": "experimental validation of building -pims 407 cc fsp", "id": "00015033", "subnational": []}, {"title": "tunisie 2030", "id": "00015037", "subnational": []}, {"title": "pims 2566 nc ea : ncsa tunisia", "id": "00036960", "subnational": []}, {"title": "actualisation de l'\u00e9tude & pan sur la diversit\u00e9 biologiq", "id": "00041038", "subnational": []}, {"title": "support to the process of creation of a marine and coast", "id": "00042890", "subnational": []}, {"title": "r\u00e9gionalisation des omd en tunisie", "id": "00045126", "subnational": []}, {"title": "renforcement capacit\u00e9s d\u2019analyse & suivi march\u00e9 emploi", "id": "00048243", "subnational": []}, {"title": "economic empowerment of women", "id": "00050427", "subnational": []}, {"title": "support to politic parties & women political participat\u00b0", "id": "00061772", "subnational": []}, {"title": "programme prep dev local medenine", "id": "00062293", "subnational": []}, {"title": "ap programme appui dialogue national & proces. constitut", "id": "00062542", "subnational": []}, {"title": "mobilisation des leaders religieux contre le vih/sida", "id": "00051110", "subnational": []}, {"title": "nat'l inventory on anthropogenic emissions", "id": "00025921", "subnational": []}, {"title": "nat'l inventory on anthropogenic emissions", "id": "00028430", "subnational": []}], "op_unit": "TUN"}