{"iso_num":"788","op_unit":"TUN","projects":[{"id":"00068614","subnational":[{"awardID":"00068614","lat":"36.81897","lon":"10.16579","name":"Tunis","precision":"3","type":"PPLC"}],"title":"Alignement du Plan d'Action Nationale BD PIMS 4851"},{"id":"00048974","subnational":[{"awardID":"00048974","lat":"35.16758","lon":"8.83651","name":"Kasserine","precision":"3","type":"PPLA"},{"awardID":"00048974","lat":"36.15371","lon":"10.42578","name":"El Brek","precision":"3","type":"PPL"}],"title":"Appui \u00e0 la mise en \u0153uvre des PAR LCD \u00e0 Kasserine"},{"id":"00062538","subnational":[{"awardID":"00062538","lat":"36.81897","lon":"10.16579","name":"Tunis","precision":"3","type":"PPLC"},{"awardID":"00062538","lat":"36.81897","lon":"10.16579","name":"Tunis","precision":"3","type":"PPLC"}],"title":"Appui \u00e0 la r\u00e9forme du secteur s\u00e9curitaire en Tunisie"},{"id":"00015045","subnational":[{"awardID":"00015045","lat":"36.81897","lon":"10.16579","name":"Tunis","precision":"3","type":"PPLC"}],"title":"Appui au CIEDE"},{"id":"00049254","subnational":[{"awardID":"00049254","lat":"34","lon":"9","name":"Tunisia","precision":"9","type":"PCL"}],"title":"Appui au Programme Micro Fin GEF SGP"},{"id":"00061449","subnational":[{"awardID":"00061449","lat":"36.81897","lon":"10.16579","name":"Tunis","precision":"3","type":"PPLC"}],"title":"Appui aux Communaut\u00e9s Frontali\u00e8res \u00e0 la Libye"},{"id":"00071493","subnational":[{"awardID":"00071493","lat":"34","lon":"9","name":"Tunisia","precision":"9","type":"PCL"}],"title":"Appui aux R\u00e9seaux Territoriaux et Th\u00e9matiques - ART"},{"id":"00071494","subnational":[{"awardID":"00071494","lat":"36.81897","lon":"10.16579","name":"Tunis","precision":"3","type":"PPLC"}],"title":"Appui capacit\u00e9 de planification gestion du d\u00e9veloppement"},{"id":"00057352","subnational":[{"awardID":"00057352","lat":"36.81897","lon":"10.16579","name":"Tunis","precision":"3","type":"PPLC"}],"title":"Appui Plan Quadriennal ANME 2008 - 2011"},{"id":"00064278","subnational":[{"awardID":"00064278","lat":"36.81897","lon":"10.16579","name":"Tunis","precision":"3","type":"PPLC"},{"awardID":"00064278","lat":"34","lon":"9","name":"Tunisia","precision":"9","type":"PCL"},{"awardID":"00064278","lat":"36.81897","lon":"10.16579","name":"Tunis","precision":"3","type":"PPLC"},{"awardID":"00064278","lat":"36.81897","lon":"10.16579","name":"Tunis","precision":"3","type":"PPLC"}],"title":"Appui processus constitutionnel & dialogue national"},{"id":"00050193","subnational":[{"awardID":"00050193","lat":"34","lon":"9","name":"Tunisia","precision":"9","type":"PCL"}],"title":"CONVENTION TG HIV/AIDS - PR GFATM"},{"id":"00041154","subnational":[{"awardID":"00041154","lat":"36.81897","lon":"10.16579","name":"Tunis","precision":"3","type":"PPLC"}],"title":"Enabling Activities for the preparation of Tunisia's SNC"},{"id":"00060762","subnational":[{"awardID":"00060762","lat":"36.72564","lon":"9.18169","name":"Beja","precision":"3","type":"PPLA"}],"title":"Gouvernance de l'eau potable en milieu rural (TUNISIE)"},{"id":"00050367","subnational":[{"awardID":"00050367","lat":"36.81897","lon":"10.16579","name":"Tunis","precision":"3","type":"PPLC"}],"title":"Int\u00e9gration du Genre et lutte contre la violence b/ genr"},{"id":"00070374","subnational":[{"awardID":"00070374","lat":"36.81897","lon":"10.16579","name":"Tunis","precision":"3","type":"PPLC"},{"awardID":"00070374","lat":"33.8","lon":"10.9","name":"Djerba","precision":"4","type":"RES"}],"title":"IP_CC vulnerabilities& risks incoastal area in Tunisia"},{"id":"00058295","subnational":[{"awardID":"00058295","lat":"36.81897","lon":"10.16579","name":"Tunis","precision":"3","type":"PPLC"}],"title":"La Cour des comptes: Outil de transparence & de confianc"},{"id":"00057338","subnational":[{"awardID":"00057338","lat":"36.81897","lon":"10.16579","name":"Tunis","precision":"3","type":"PPLC"}],"title":"MDG-F Engaging Tunisian Youth to achieve the MDGs"},{"id":"00058253","subnational":[{"awardID":"00058253","lat":"36.81897","lon":"10.16579","name":"Tunis","precision":"3","type":"PPLC"}],"title":"Modernisation de l'Administration Publique - MODAP"},{"id":"00074449","subnational":[{"awardID":"00074449","lat":"34","lon":"9","name":"Tunisia","precision":"9","type":"PCL"}],"title":"NAMA Support for the Tunisian Solar Plan"},{"id":"00015034","subnational":[{"awardID":"00015034","lat":"34","lon":"9","name":"Tunisia","precision":"9","type":"PCL"}],"title":"PIMS 851 BD FSP : DATE PALM PROJECT"},{"id":"00058406","subnational":[{"awardID":"00058406","lat":"36.81897","lon":"10.16579","name":"Tunis","precision":"3","type":"PPLC"}],"title":"Private Sector Led Development of On-grid WindPower_Tuni"},{"id":"00058399","subnational":[{"awardID":"00058399","lat":"36.81897","lon":"10.16579","name":"Tunis","precision":"3","type":"PPLC"},{"awardID":"00058399","lat":"36.81897","lon":"10.16579","name":"Tunis","precision":"3","type":"PPLC"}],"title":"Promoting Resilient Coastal Development in Tunisia_AAP"},{"id":"00061969","subnational":[{"awardID":"00061969","lat":"34","lon":"9","name":"Tunisia","precision":"9","type":"PCL"},{"awardID":"00061969","lat":"34","lon":"9","name":"Tunisia","precision":"9","type":"PCL"}],"title":"Promotion d'une citoyennet\u00e9 active en Tunisie (PCAT)"},{"id":"00071532","subnational":[{"awardID":"00071532","lat":"36.81897","lon":"10.16579","name":"Tunis","precision":"3","type":"PPLC"}],"title":"Promotion Emploi & Volontariat National"},{"id":"00062358","subnational":[{"awardID":"00062358","lat":"34","lon":"9","name":"Tunisia","precision":"9","type":"PCL"},{"awardID":"00062358","lat":"34","lon":"9","name":"Tunisia","precision":"9","type":"PCL"}],"title":"Soutien au Processus Electoral en Tunisie"},{"id":"00048126","subnational":[{"awardID":"00048126","lat":"36.81897","lon":"10.16579","name":"Tunis","precision":"3","type":"PPLC"}],"title":"Strat\u00e9gie Nationale&PoA pour la Substitution energ\u00e9tique"},{"id":"00042890","subnational":[{"awardID":"00042890","lat":"36.81897","lon":"10.16579","name":"Tunis","precision":"3","type":"PPLC"},{"awardID":"00042890","lat":"37.27442","lon":"9.87391","name":"Bizerte","precision":"3","type":"PPLA"}],"title":"Support to the process of creation of a marine and coast"},{"id":"00064022","subnational":[{"awardID":"00064022","lat":"34","lon":"9","name":"Tunisia","precision":"9","type":"PCL"}],"title":"Support to Transitional Justice in Tunisia"},{"id":"00073417","subnational":[{"awardID":"00073417","lat":"36.81897","lon":"10.16579","name":"Tunis","precision":"3","type":"PPLC"}],"title":"Sys National d'Int\u00e9grit\u00e9 en Tunisie"},{"id":"00061429","subnational":[{"awardID":"00061429","lat":"36.81897","lon":"10.16579","name":"Tunis","precision":"3","type":"PPLC"}],"title":"Troisi\u00e8me communication Nationale PIMS #4777 TCN"},{"id":"00066148","subnational":[{"awardID":"00066148","lat":"36.81897","lon":"10.16579","name":"Tunis","precision":"3","type":"PPLC"}],"title":"Tunisia's Youth Employment Generation Programme"},{"id":"00062409","subnational":[{"awardID":"00062409","lat":"36.81897","lon":"10.16579","name":"Tunis","precision":"3","type":"PPLC"},{"awardID":"00062409","lat":"36.81897","lon":"10.16579","name":"Tunis","precision":"3","type":"PPLC"}],"title":"Vision Partag\u00e9e Syst\u00e8me efficace Promotion Int\u00e9grit\u00e9"}]}