{"iso_num":"800","op_unit":"UGA","projects":[{"id":"00015078","subnational":[],"title":"INCOME GENERATION AND SUSTAINABLE LIVELIHOODS"},{"id":"00027131","subnational":[],"title":"Management Plan"},{"id":"00036601","subnational":[{"lat":1.1333,"lon":33.4647,"precision":"3","scope":"3","type":"2"},{"lat":1.22,"lon":34.8,"precision":"3","scope":"3","type":"2"},{"lat":1.3,"lon":33.57,"precision":"3","scope":"3","type":"2"},{"lat":1.4526,"lon":33.1332,"precision":"3","scope":"3","type":"2"},{"lat":1.475,"lon":33.3539,"precision":"3","scope":"3","type":"2"},{"lat":1.5517,"lon":34.251,"precision":"3","scope":"3","type":"2"},{"lat":2.5,"lon":33.4,"precision":"3","scope":"3","type":"2"}],"title":"Transition and Recovery Programme"},{"id":"00039067","subnational":[{"lat":1.1333,"lon":33.4647,"precision":"3","scope":"3","type":"2"},{"lat":1.22,"lon":34.8,"precision":"3","scope":"3","type":"2"},{"lat":1.3,"lon":33.57,"precision":"3","scope":"3","type":"2"},{"lat":1.4526,"lon":33.1332,"precision":"3","scope":"3","type":"2"},{"lat":1.475,"lon":33.3539,"precision":"3","scope":"3","type":"2"},{"lat":1.5517,"lon":34.251,"precision":"3","scope":"3","type":"2"},{"lat":2.5,"lon":33.4,"precision":"3","scope":"3","type":"2"},{"lat":3.0,"lon":32.3,"precision":"4","scope":"3","type":"2"}],"title":"Mine Action Programme"},{"id":"00041294","subnational":[],"title":"UGA05303 Secure Environment for Recovery and Development"},{"id":"00042004","subnational":[{"lat":2.1626,"lon":32.571,"precision":"3","scope":"3","type":"2"},{"lat":2.5,"lon":33.4,"precision":"3","scope":"3","type":"2"},{"lat":2.5121,"lon":32.2548,"precision":"3","scope":"3","type":"2"},{"lat":2.5721,"lon":32.48,"precision":"3","scope":"3","type":"2"},{"lat":3.0,"lon":32.0,"precision":"3","scope":"3","type":"2"},{"lat":3.2421,"lon":33.209,"precision":"3","scope":"3","type":"2"}],"title":"Sexual and Gender based violence Project"},{"id":"00042976","subnational":[],"title":"UGA06201 STRENG'NING -NATIONAL DISASTER RISK MGT"},{"id":"00043126","subnational":[{"lat":2.0,"lon":33.0,"precision":"9","scope":"4","type":"1"},{"lat":2.0,"lon":33.0,"precision":"9","scope":"4","type":"1"}],"title":"Deepening Democratic Processes3 (DDP 3)"},{"id":"00043128","subnational":[],"title":"Support to Transparency and Accountability Project"},{"id":"00043365","subnational":[],"title":"UGA06130 JUSTICE AND HUMAN RIGHTS"},{"id":"00043605","subnational":[],"title":"UNDP-Gulu Sub Office support"},{"id":"00043885","subnational":[{"lat":0.3758,"lon":30.3717,"precision":"3","scope":"3","type":"2"},{"lat":0.5548,"lon":31.157,"precision":"3","scope":"1","type":"1"},{"lat":0.5548,"lon":31.157,"precision":"3","scope":"3","type":"2"},{"lat":1.2559,"lon":31.218,"precision":"3","scope":"3","type":"2"},{"lat":1.4028,"lon":31.4254,"precision":"3","scope":"3","type":"2"}],"title":"UGA07200PIMS 449 BD FULL: Cons of Biod -Albrtne Rft Frst"},{"id":"00044388","subnational":[],"title":"UGA06208Prom.Sustainable Charcoal Prodn.-Lwro & Naksngla"},{"id":"00044414","subnational":[],"title":"UNDP-Lira Sub Office support"},{"id":"00044885","subnational":[{"lat":2.0,"lon":33.0,"precision":"9","scope":"4","type":"1"}],"title":"MDG Country Report"},{"id":"00045044","subnational":[{"lat":2.0,"lon":33.0,"precision":"9","scope":"4","type":"1"}],"title":"National Human Development Report"},{"id":"00045291","subnational":[],"title":"UGA06220 Dev Natn'l Slum upgrading Stratrgy"},{"id":"00046225","subnational":[],"title":"Support to UN Coordination office"},{"id":"00046746","subnational":[],"title":"UNDEF support to UCOBAC and FOWODE projects"},{"id":"00046813","subnational":[{"lat":0.3616,"lon":30.3854,"precision":"3","scope":"3","type":"2"},{"lat":1.3628,"lon":33.5743,"precision":"3","scope":"3","type":"2"},{"lat":1.373,"lon":34.113,"precision":"3","scope":"3","type":"2"}],"title":"EXTENDING WETLAND PROTECTED AREAS COMMUNITY CONSERVATION"},{"id":"00047941","subnational":[],"title":"Chemicals Management Approach"},{"id":"00049032","subnational":[],"title":"JOINT UN HIV/AIDS PROGRAMME"},{"id":"00049828","subnational":[],"title":"HIV/AIDS Mainstreaming"},{"id":"00050715","subnational":[],"title":"JUBA PEACE PROCESS"},{"id":"00051185","subnational":[],"title":"Youth Civil Society Empowerment - Uganda"},{"id":"00056999","subnational":[],"title":"National Urban Policy Development Support"},{"id":"00057000","subnational":[{"lat":0.1858,"lon":32.3455,"precision":"8","scope":"1","type":"1"}],"title":"Support to Programme Management Implementation"},{"id":"00057035","subnational":[],"title":"Preparatory Assistance to Ministry of Foreign Affairs"},{"id":"00058025","subnational":[{"lat":0.262,"lon":33.1211,"precision":"3","scope":"3","type":"2"},{"lat":0.3,"lon":30.36,"precision":"3","scope":"3","type":"2"},{"lat":0.3942,"lon":30.1629,"precision":"3","scope":"3","type":"2"},{"lat":1.1227,"lon":29.599,"precision":"3","scope":"3","type":"2"},{"lat":1.455,"lon":34.103,"precision":"3","scope":"3","type":"2"}],"title":"UNDP-JOINT HIV/AIDS PROGRAMME"},{"id":"00058042","subnational":[],"title":"UNAIDS-UGA-JOINT HIV/AIDS PROGRAMME"},{"id":"00058105","subnational":[{"lat":0.4912,"lon":32.365,"precision":"3","scope":"3","type":"2"},{"lat":1.232,"lon":32.2457,"precision":"3","scope":"3","type":"2"}],"title":"PIMS 3227ENABLING ENV. FOR SLM TO OVERCOME LAND DEGRAD'N"},{"id":"00058469","subnational":[{"lat":1.569,"lon":33.34,"precision":"3","scope":"3","type":"2"},{"lat":2.1459,"lon":32.5359,"precision":"3","scope":"3","type":"2"},{"lat":2.2252,"lon":32.302,"precision":"3","scope":"3","type":"2"}],"title":"Northern Uganda Early Recovery in-Lira & Oyam Districts"},{"id":"00059425","subnational":[],"title":"Promoting Civic &Political Participation of women& Youth"},{"id":"00059500","subnational":[],"title":"UN JOINT PROGRAMME ON VALUE CHAIN DEVELOPMENT IN UGANDA"},{"id":"00059780","subnational":[],"title":"UNDP Support to the UN Gender Joint Programme"},{"id":"00060230","subnational":[{"lat":0.53,"lon":34.2,"precision":"3","scope":"3","type":"2"},{"lat":1.057,"lon":34.1127,"precision":"3","scope":"3","type":"2"},{"lat":1.3,"lon":34.24,"precision":"3","scope":"3","type":"2"}],"title":"TERRITORIAL APPROACH TO CLIMATE CHANGE"},{"id":"00060542","subnational":[{"lat":2.0,"lon":33.0,"precision":"9","scope":"4","type":"1"}],"title":"Initiation Plan - Accountable Democratic Governance"},{"id":"00060547","subnational":[],"title":"PROJECT INITIATION PLAN GROWTH& POVERTY"},{"id":"00061407","subnational":[{"lat":1.4822,"lon":34.554,"precision":"3","scope":"2","type":"1"},{"lat":1.5425,"lon":34.3545,"precision":"3","scope":"2","type":"1"},{"lat":2.2253,"lon":34.106,"precision":"3","scope":"2","type":"1"},{"lat":2.382,"lon":34.3838,"precision":"3","scope":"2","type":"1"},{"lat":2.45,"lon":33.45,"precision":"3","scope":"2","type":"1"},{"lat":3.0,"lon":34.6,"precision":"3","scope":"2","type":"1"},{"lat":3.35,"lon":34.0,"precision":"3","scope":"2","type":"1"}],"title":"Youth Empowerment in Karamoja"},{"id":"00061431","subnational":[],"title":"RELOCATION -NEW PREMISES"},{"id":"00061509","subnational":[],"title":"Peace Building Fund UNDP"},{"id":"00061683","subnational":[],"title":"National Climate Change Capacity Building Programme"},{"id":"00061769","subnational":[],"title":"Gender Budget Project for Northern Uganda"},{"id":"00061861","subnational":[{"lat":0.1858,"lon":32.3455,"precision":"3","scope":"4","type":"1"}],"title":"Peace Building Through Justice for all and Human Rights"},{"id":"00062107","subnational":[{"lat":3.5258,"lon":33.5228,"precision":"4","scope":"1","type":"2"}],"title":"Conserve Threatened Savana Woodland in Kidepo landscape"},{"id":"00062240","subnational":[{"lat":2.0,"lon":33.0,"precision":"9","scope":"4","type":"1"}],"title":"DIASPORA RESOURCE MOBILIZATION"},{"id":"00062241","subnational":[{"lat":2.0,"lon":33.0,"precision":"9","scope":"4","type":"1"}],"title":"INSTITUTIONAL FRAMEWORKS-SERVICE DELIVERY"},{"id":"00062243","subnational":[{"lat":2.0,"lon":33.0,"precision":"9","scope":"4","type":"1"}],"title":"Strengthening Oversight functions"},{"id":"00062245","subnational":[],"title":"Support for Development of Inclusive Markets in Tourism"},{"id":"00062246","subnational":[{"lat":2.0,"lon":33.0,"precision":"9","scope":"4","type":"1"}],"title":"Development of inclusive markets in Agriculture&Trade"},{"id":"00062247","subnational":[{"lat":2.0,"lon":33.0,"precision":"9","scope":"4","type":"1"}],"title":"Improving policies and strategies for environment"},{"id":"00062248","subnational":[],"title":"Strengthening Sustainable Environment"},{"id":"00062527","subnational":[],"title":"PROMOTING CHEMICAL SAFETY FOR CHILDREN AT WORK"},{"id":"00063035","subnational":[{"lat":2.0,"lon":33.0,"precision":"9","scope":"4","type":"1"}],"title":"Ecosystem Based Adaptation in Mountain Ecosystems"},{"id":"00063036","subnational":[],"title":"Improved Charcoal production technologies&SLM practices"},{"id":"00063265","subnational":[{"lat":2.0,"lon":33.0,"precision":"9","scope":"4","type":"1"}],"title":"CAPACITY FOR EVIDENCE BASED ANALYTICAL STUDIES"},{"id":"00063267","subnational":[],"title":"CAPACITY FOR AID EFFECTIVENESS"},{"id":"00064569","subnational":[],"title":"DEVELOPMENT EFFECTIVENESS-UGANDA"},{"id":"00064827","subnational":[],"title":"Policies/Regulations for Markets in Tourism"},{"id":"00067513","subnational":[],"title":"PID-Strengthening Ug. Disaster Preparedness & Mgt Cap"},{"id":"00070364","subnational":[],"title":"National Capacities for Mediation, Dialogue&Negotiation"},{"id":"00070394","subnational":[],"title":"National Development Plan (2015-2020) Initiation"}]}