{"iso_num":"800","op_unit":"UGA","projects":[{"id":"00063267","subnational":[{"awardID":"00063267","focus_area":"2","focus_area_descr":"Democratic governance","lat":"2","lon":"33","name":"Uganda","outputID":"00080490","output_locID":"00080490-1","precision":"9","type":"PCL"}],"title":"CAPACITY FOR AID EFFECTIVENESS"},{"id":"00063265","subnational":[{"awardID":"00063265","focus_area":"1","focus_area_descr":"Poverty reduction & MDG achievement","lat":"2","lon":"33","name":"Uganda","outputID":"00080489","output_locID":"00080489-1","precision":"9","type":"PCL"}],"title":"CAPACITY FOR EVIDENCE BASED ANALYTICAL STUDIES"},{"id":"00047941","subnational":[{"awardID":"00047941","focus_area":"4","focus_area_descr":"Environment & sustainable development","lat":"0.31628","lon":"32.58219","name":"Kampala","outputID":"00057870","output_locID":"00057870-1","precision":"8","type":"PPLC"}],"title":"Chemicals Management Approach"},{"id":"00064569","subnational":[{"awardID":"00064569","focus_area":"2","focus_area_descr":"Democratic governance","lat":"0.31628","lon":"32.58219","name":"Kampala","outputID":"00081301","output_locID":"00081301-1","precision":"3","type":"PPLC"}],"title":"DEVELOPMENT EFFECTIVENESS-UGANDA"},{"id":"00062246","subnational":[{"awardID":"00062246","focus_area":"1","focus_area_descr":"Poverty reduction & MDG achievement","lat":"2","lon":"33","name":"Uganda","outputID":"00079650","output_locID":"00079650-1","precision":"9","type":"PCL"}],"title":"Development of inclusive markets in Agriculture&Trade"},{"id":"00062240","subnational":[{"awardID":"00062240","focus_area":"2","focus_area_descr":"Democratic governance","lat":"2","lon":"33","name":"Uganda","outputID":"00079644","output_locID":"00079644-1","precision":"9","type":"PCL"}],"title":"DIASPORA RESOURCE MOBILIZATION"},{"id":"00063035","subnational":[{"awardID":"00063035","focus_area":"4","focus_area_descr":"Environment & sustainable development","lat":"2","lon":"33","name":"Uganda","outputID":"00080337","output_locID":"00080337-1","precision":"9","type":"PCL"}],"title":"Ecosystem Based Adaptation in Mountain Ecosystems"},{"id":"00046813","subnational":[{"awardID":"00046813","focus_area":"4","focus_area_descr":"Environment & sustainable development","lat":"1.60778","lon":"33.96194","name":"Bisina","outputID":"00055951","output_locID":"00055951-1","precision":"4","type":"RES"},{"awardID":"00046813","focus_area":"4","focus_area_descr":"Environment & sustainable development","lat":"1.625","lon":"34.19167","name":"Opeta","outputID":"00055951","output_locID":"00055951-2","precision":"4","type":"RES"}],"title":"EXTENDING WETLAND PROTECTED AREAS COMMUNITY CONSERVATION"},{"id":"00061769","subnational":[{"awardID":"00061769","focus_area":"2","focus_area_descr":"Democratic governance","lat":"2","lon":"33","name":"Uganda","outputID":"00078523","output_locID":"00078523-1","precision":"9","type":"PCL"}],"title":"Gender Budget Project for Northern Uganda"},{"id":"00063036","subnational":[{"awardID":"00063036","focus_area":"4","focus_area_descr":"Environment & sustainable development","lat":"2","lon":"33","name":"Uganda","outputID":"00080338","output_locID":"00080338-1","precision":"9","type":"PCL"}],"title":"Improved Charcoal production &sustainable land managemen"},{"id":"00062247","subnational":[{"awardID":"00062247","focus_area":"4","focus_area_descr":"Environment & sustainable development","lat":"2","lon":"33","name":"Uganda","outputID":"00079652","output_locID":"00079652-1","precision":"9","type":"PCL"}],"title":"Improving policies and strategies for environment"},{"id":"00062241","subnational":[{"awardID":"00062241","focus_area":"2","focus_area_descr":"Democratic governance","lat":"2","lon":"33","name":"Uganda","outputID":"00079645","output_locID":"00079645-1","precision":"9","type":"PCL"}],"title":"INSTITUTIONAL FRAMEWORKS-SERVICE DELIVERY"},{"id":"00072558","subnational":[{"awardID":"00072558","focus_area":"4","focus_area_descr":"Environment & sustainable development","lat":"3.71798","lon":"33.74979","name":"Kidepo National Park","outputID":"00085611","output_locID":"00085611-1","precision":"3","type":"PPL"}],"title":"Kidepo Conservation project"},{"id":"00073876","subnational":[{"awardID":"00073876","focus_area":"1","focus_area_descr":"Poverty reduction & MDG achievement","lat":"3","lon":"32.5","name":"Acholi","outputID":"00084738","output_locID":"00084738-1","precision":"4","type":"ADM1"},{"awardID":"00073876","focus_area":"1","focus_area_descr":"Poverty reduction & MDG achievement","lat":"3","lon":"32.5","name":"Acholi","outputID":"00086488","output_locID":"00086488-1","precision":"4","type":"ADM1"}],"title":"Local Development and Social Cohesion in Northern Uganda"},{"id":"00061683","subnational":[{"awardID":"00061683","focus_area":"4","focus_area_descr":"Environment & sustainable development","lat":"2","lon":"33","name":"Uganda","outputID":"00078274","output_locID":"00078274-1","precision":"9","type":"PCL"}],"title":"Low Emission Capacity Building project"},{"id":"00027131","subnational":[{"awardID":"00027131","focus_area":"2","focus_area_descr":"Democratic governance","lat":"0.31628","lon":"32.58219","name":"Kampala","outputID":"00027575","output_locID":"00027575-1","precision":"3","type":"PPLC"}],"title":"Management Plan"},{"id":"00044885","subnational":[{"awardID":"00044885","focus_area":"2","focus_area_descr":"Democratic governance","lat":"2","lon":"33","name":"Uganda","outputID":"00052927","output_locID":"00052927-1","precision":"9","type":"PCL"}],"title":"MDG Country Report"},{"id":"00039067","subnational":[{"awardID":"00039067","focus_area":"3","focus_area_descr":"Crisis prevention & recovery","lat":"2.08333","lon":"33.66667","name":"Amuria","outputID":"00043631","output_locID":"00043631-1","precision":"3","type":"ADM2"},{"awardID":"00039067","focus_area":"3","focus_area_descr":"Crisis prevention & recovery","lat":"1.36667","lon":"34.13333","name":"Bukedea","outputID":"00043631","output_locID":"00043631-2","precision":"3","type":"ADM2"},{"awardID":"00039067","focus_area":"3","focus_area_descr":"Crisis prevention & recovery","lat":"1.75732","lon":"33.22576","name":"Kaberamaido","outputID":"00043631","output_locID":"00043631-3","precision":"3","type":"ADM2"},{"awardID":"00039067","focus_area":"3","focus_area_descr":"Crisis prevention & recovery","lat":"1.92157","lon":"34.04753","name":"Katakwi","outputID":"00043631","output_locID":"00043631-4","precision":"3","type":"ADM2"},{"awardID":"00039067","focus_area":"3","focus_area_descr":"Crisis prevention & recovery","lat":"1.5","lon":"33.95","name":"Kumi","outputID":"00043631","output_locID":"00043631-5","precision":"3","type":"ADM2"},{"awardID":"00039067","focus_area":"3","focus_area_descr":"Crisis prevention & recovery","lat":"1.145","lon":"33.70944","name":"Pallisa","outputID":"00043631","output_locID":"00043631-6","precision":"3","type":"PPLA2"},{"awardID":"00039067","focus_area":"3","focus_area_descr":"Crisis prevention & recovery","lat":"1.71464","lon":"33.61113","name":"Soroti","outputID":"00043631","output_locID":"00043631-7","precision":"3","type":"PPLA2"},{"awardID":"00039067","focus_area":"3","focus_area_descr":"Crisis prevention & recovery","lat":"3","lon":"32.5","name":"Acholi","outputID":"00043631","output_locID":"00043631-8","precision":"4","type":"ADM1"},{"awardID":"00039067","focus_area":"3","focus_area_descr":"Crisis prevention & recovery","lat":"2.77457","lon":"32.29899","name":"Gulu","outputID":"00082883","output_locID":"00082883-1","precision":"3","type":"PPLA"}],"title":"Mine Action Programme"},{"id":"00070364","subnational":[{"awardID":"00070364","focus_area":"2","focus_area_descr":"Democratic governance","lat":"0.31628","lon":"32.58219","name":"Kampala","outputID":"00084398","output_locID":"00084398-1","precision":"3","type":"PPLC"}],"title":"National Capacities for Mediation, Dialogue&Negotiation"},{"id":"00070394","subnational":[{"awardID":"00070394","focus_area":"1","focus_area_descr":"Poverty reduction & MDG achievement","lat":"2","lon":"33","name":"Uganda","outputID":"00084410","output_locID":"00084410-1","precision":"9","type":"PCL"}],"title":"National Development Plan (2015-2020) Initiation"},{"id":"00060230","subnational":[{"awardID":"00060230","focus_area":"4","focus_area_descr":"Environment & sustainable development","lat":"1.05","lon":"34.4","name":"Bududa","outputID":"00075753","output_locID":"00075753-1","precision":"3","type":"ADM2"},{"awardID":"00060230","focus_area":"4","focus_area_descr":"Environment & sustainable development","lat":"0.88333","lon":"34.33333","name":"Manafwa","outputID":"00075753","output_locID":"00075753-2","precision":"3","type":"ADM2"},{"awardID":"00060230","focus_area":"4","focus_area_descr":"Environment & sustainable development","lat":"1.08209","lon":"34.17503","name":"Mbale","outputID":"00075753","output_locID":"00075753-3","precision":"3","type":"PPLA2"}],"title":"NATURAL AND ENERGY RESOURCE MANAGEMENT"},{"id":"00058469","subnational":[{"awardID":"00058469","focus_area":"1","focus_area_descr":"Poverty reduction & MDG achievement","lat":"1.93607","lon":"33.06137","name":"Dokolo","outputID":"00072643","output_locID":"00072643-1","precision":"3","type":"ADM2"},{"awardID":"00058469","focus_area":"1","focus_area_descr":"Poverty reduction & MDG achievement","lat":"2.2499","lon":"32.89985","name":"Lira","outputID":"00072643","output_locID":"00072643-2","precision":"3","type":"PPLA2"},{"awardID":"00058469","focus_area":"1","focus_area_descr":"Poverty reduction & MDG achievement","lat":"2.38129","lon":"32.50072","name":"Oyam","outputID":"00072643","output_locID":"00072643-3","precision":"3","type":"ADM2"}],"title":"Northern Uganda Early Recovery in-Lira & Oyam Districts"},{"id":"00062243","subnational":[{"awardID":"00062243","focus_area":"2","focus_area_descr":"Democratic governance","lat":"2","lon":"33","name":"Uganda","outputID":"00079647","output_locID":"00079647-1","precision":"9","type":"PCL"},{"awardID":"00062243","focus_area":"2","focus_area_descr":"Democratic governance","lat":"0.31628","lon":"32.58219","name":"Kampala","outputID":"00085364","output_locID":"00085364-1","precision":"3","type":"PPLC"}],"title":"OVERSIGHT FUNCTIONS FOR SERVICE DELIVERY"},{"id":"00061509","subnational":[{"awardID":"00061509","focus_area":"1","focus_area_descr":"Poverty reduction & MDG achievement","lat":"3","lon":"32.5","name":"Acholi Sub region","outputID":"00077934","output_locID":"00077934-1","precision":"4","type":"ADM1"}],"title":"Peace Building Fund UNDP"},{"id":"00061861","subnational":[{"awardID":"00061861","focus_area":"3","focus_area_descr":"Crisis prevention & recovery","lat":"0.31628","lon":"32.58219","name":"Kampala","outputID":"00078872","output_locID":"00078872-1","precision":"3","type":"PPLC"}],"title":"Peace Building Through Justice for all and Human Rights"},{"id":"00062107","subnational":[{"awardID":"00062107","focus_area":"4","focus_area_descr":"Environment & sustainable development","lat":"3.88278","lon":"33.87444","name":"Kidepo National Park","outputID":"00079404","output_locID":"00079404-1","precision":"4","type":"RES"}],"title":"PID for Kidepo Conservation project"},{"id":"00062248","subnational":[{"awardID":"00062248","focus_area":"4","focus_area_descr":"Environment & sustainable development","lat":"2","lon":"33","name":"Uganda","outputID":"00079653","output_locID":"00079653-1","precision":"9","type":"PCL"}],"title":"Pilot Initiatives projects-Environment"},{"id":"00058105","subnational":[{"awardID":"00058105","focus_area":"4","focus_area_descr":"Environment & sustainable development","lat":"0.82","lon":"32.614","name":"Luwero","outputID":"00072031","output_locID":"00072031-1","precision":"3","type":"ADM2"},{"awardID":"00058105","focus_area":"4","focus_area_descr":"Environment & sustainable development","lat":"1.38903","lon":"32.41608","name":"Nakasongola","outputID":"00072031","output_locID":"00072031-2","precision":"3","type":"ADM2"}],"title":"PIMS 3227ENABLING ENV. FOR SLM TO OVERCOME LAND DEGRAD'N"},{"id":"00064827","subnational":[{"awardID":"00064827","focus_area":"1","focus_area_descr":"Poverty reduction & MDG achievement","lat":"0.31628","lon":"32.58219","name":"Kampala","outputID":"00081477","output_locID":"00081477-1","precision":"3","type":"PPLC"}],"title":"Policies/Regulations for Markets in Tourism"},{"id":"00071034","subnational":[{"awardID":"00071034","focus_area":"1","focus_area_descr":"Poverty reduction & MDG achievement","lat":"3","lon":"32.5","name":"Acholi","outputID":"00085966","output_locID":"00085966-1","precision":"4","type":"ADM1"}],"title":"Poverty Reduction for communities affected by War"},{"id":"00060547","subnational":[{"awardID":"00060547","focus_area":"1","focus_area_descr":"Poverty reduction & MDG achievement","lat":"2","lon":"33","name":"Uganda","outputID":"00076289","output_locID":"00076289-1","precision":"9","type":"PCL"}],"title":"PROJECT INITIATION PLAN GROWTH& POVERTY"},{"id":"00062527","subnational":[{"awardID":"00062527","focus_area":"4","focus_area_descr":"Environment & sustainable development","lat":"2","lon":"33","name":"Uganda","outputID":"00080060","output_locID":"00080060-1","precision":"9","type":"PCL"}],"title":"PROMOTING CHEMICAL SAFETY FOR CHILDREN AT WORK"},{"id":"00059425","subnational":[{"awardID":"00059425","focus_area":"2","focus_area_descr":"Democratic governance","lat":"2","lon":"33","name":"Uganda","outputID":"00074299","output_locID":"00074299-1","precision":"9","type":"PCL"}],"title":"Promoting Civic &Political Participation of women& Youth"},{"id":"00072037","subnational":[{"awardID":"00072037","focus_area":"1","focus_area_descr":"Poverty reduction & MDG achievement","lat":"2","lon":"33","name":"Uganda","outputID":"00085278","output_locID":"00085278-1","precision":"9","type":"PCL"}],"title":"Pulse Lab/RC Coordination"},{"id":"00042004","subnational":[{"awardID":"00042004","focus_area":"3","focus_area_descr":"Crisis prevention & recovery","lat":"2.08333","lon":"33.66667","name":"Amuria","outputID":"00048065","output_locID":"00048065-1","precision":"3","type":"ADM2"},{"awardID":"00042004","focus_area":"3","focus_area_descr":"Crisis prevention & recovery","lat":"3","lon":"32","name":"Amuru","outputID":"00048065","output_locID":"00048065-2","precision":"3","type":"ADM2"},{"awardID":"00042004","focus_area":"3","focus_area_descr":"Crisis prevention & recovery","lat":"2.77457","lon":"32.29899","name":"Gulu","outputID":"00048065","output_locID":"00048065-3","precision":"3","type":"PPLA"},{"awardID":"00042004","focus_area":"3","focus_area_descr":"Crisis prevention & recovery","lat":"3.27833","lon":"32.88667","name":"Kitgum","outputID":"00048065","output_locID":"00048065-4","precision":"3","type":"PPLA2"},{"awardID":"00042004","focus_area":"3","focus_area_descr":"Crisis prevention & recovery","lat":"2.2499","lon":"32.89985","name":"Lira","outputID":"00048065","output_locID":"00048065-5","precision":"3","type":"PPLA2"},{"awardID":"00042004","focus_area":"3","focus_area_descr":"Crisis prevention & recovery","lat":"2.956","lon":"32.8","name":"Pader","outputID":"00048065","output_locID":"00048065-6","precision":"3","type":"ADM2"}],"title":"Sexual and Gender based violence Project"},{"id":"00067513","subnational":[{"awardID":"00067513","focus_area":"4","focus_area_descr":"Environment & sustainable development","lat":"1.92157","lon":"34.04753","name":"Katakwi","outputID":"00083238","output_locID":"00083238-1","precision":"3","type":"ADM2"},{"awardID":"00067513","focus_area":"4","focus_area_descr":"Environment & sustainable development","lat":"3","lon":"32.5","name":"Acholi","outputID":"00086868","output_locID":"00086868-1","precision":"4","type":"ADM1"}],"title":"Strengthening Ug. Disaster Preparedness & Mgt Cap"},{"id":"00062245","subnational":[{"awardID":"00062245","focus_area":"1","focus_area_descr":"Poverty reduction & MDG achievement","lat":"2","lon":"33","name":"Uganda","outputID":"00079649","output_locID":"00079649-1","precision":"9","type":"PCL"}],"title":"Support for Development of Inclusive Markets in Tourism"},{"id":"00046225","subnational":[{"awardID":"00046225","focus_area":"2","focus_area_descr":"Democratic governance","lat":"0.31628","lon":"32.58219","name":"Kampala","outputID":"00054925","output_locID":"00054925-1","precision":"8","type":"PPLC"},{"awardID":"00046225","focus_area":"1","focus_area_descr":"Poverty reduction & MDG achievement","lat":"0.31628","lon":"32.58219","name":"Kampala","outputID":"00085736","output_locID":"00085736-1","precision":"8","type":"PPLC"}],"title":"Support to UN Coordination office"},{"id":"00036601","subnational":[{"awardID":"00036601","focus_area":"3","focus_area_descr":"Crisis prevention & recovery","lat":"1.71464","lon":"33.61113","name":"Soroti","outputID":"00057715","output_locID":"00057715-1","precision":"3","type":"PPLA2"},{"awardID":"00036601","focus_area":"3","focus_area_descr":"Crisis prevention & recovery","lat":"2.75","lon":"33.75","name":"Abim","outputID":"00081058","output_locID":"00081058-1","precision":"3","type":"ADM2"}],"title":"Transition and Recovery Programme"},{"id":"00036517","subnational":[{"awardID":"00036517","focus_area":"1","focus_area_descr":"Poverty reduction & MDG achievement","lat":"0.31628","lon":"32.58219","name":"Kampala","outputID":"00039763","output_locID":"00039763-1","precision":"3","type":"PPLC"}],"title":"UGA04204 Enterprise Uganda"},{"id":"00037719","subnational":[{"awardID":"00037719","focus_area":"-","focus_area_descr":"-","lat":"2","lon":"33","name":"Uganda","outputID":"00041321","output_locID":"00041321-1","precision":"9","type":"PCL"}],"title":"UGA05200 Enterprise Uganda (Prom.of Business Linkges)"},{"id":"00041294","subnational":[{"awardID":"00041294","focus_area":"3","focus_area_descr":"Crisis prevention & recovery","lat":"2.75","lon":"33.75","name":"Abim","outputID":"00047028","output_locID":"00047028-1","precision":"3","type":"ADM2"}],"title":"UGA05303 Secure Environment for Recovery and Development"},{"id":"00043365","subnational":[{"awardID":"00043365","focus_area":"-","focus_area_descr":"-","lat":"2","lon":"33","name":"Uganda","outputID":"00050568","output_locID":"00050568-1","precision":"9","type":"PCL"}],"title":"UGA06130 JUSTICE AND HUMAN RIGHTS"},{"id":"00042976","subnational":[{"awardID":"00042976","focus_area":"-","focus_area_descr":"-","lat":"2","lon":"33","name":"Uganda","outputID":"00049937","output_locID":"00049937-1","precision":"9","type":"PCL"}],"title":"UGA06201 STRENG'NING -NATIONAL DISASTER RISK MGT"},{"id":"00044388","subnational":[{"awardID":"00044388","focus_area":"-","focus_area_descr":"-","lat":"1.38903","lon":"32.41608","name":"Nakasongola","outputID":"00052174","output_locID":"00052174-1","precision":"3","type":"ADM2"}],"title":"UGA06208Prom.Sustainable Charcoal Prodn.-Lwro & Naksngla"},{"id":"00045291","subnational":[{"awardID":"00045291","focus_area":"-","focus_area_descr":"-","lat":"2","lon":"33","name":"Uganda","outputID":"00053465","output_locID":"00053465-1","precision":"9","type":"PCL"}],"title":"UGA06220 Dev Natn'l Slum upgrading Stratrgy"},{"id":"00043885","subnational":[{"awardID":"00043885","focus_area":"4","focus_area_descr":"Environment & sustainable development","lat":"1.43314","lon":"31.35241","name":"Hoima","outputID":"00051397","output_locID":"00051397-1","precision":"3","type":"PPLA2"},{"awardID":"00043885","focus_area":"4","focus_area_descr":"Environment & sustainable development","lat":"0.93015","lon":"31.03261","name":"Kibaale","outputID":"00051397","output_locID":"00051397-2","precision":"3","type":"ADM2"},{"awardID":"00043885","focus_area":"4","focus_area_descr":"Environment & sustainable development","lat":"0.93015","lon":"31.03261","name":"Kibaale","outputID":"00051397","output_locID":"00051397-3","precision":"3","type":"ADM2"},{"awardID":"00043885","focus_area":"4","focus_area_descr":"Environment & sustainable development","lat":"0.65696","lon":"30.6599","name":"Kyenjojo","outputID":"00051397","output_locID":"00051397-4","precision":"3","type":"ADM2"},{"awardID":"00043885","focus_area":"4","focus_area_descr":"Environment & sustainable development","lat":"1.67444","lon":"31.715","name":"Masindi","outputID":"00051397","output_locID":"00051397-5","precision":"3","type":"PPLA2"}],"title":"UGA07200PIMS 449 BD FULL: Cons of Biod -Albrtne Rft Frst"},{"id":"00059780","subnational":[{"awardID":"00059780","focus_area":"2","focus_area_descr":"Democratic governance","lat":"2","lon":"33","name":"Uganda","outputID":"00074930","output_locID":"00074930-1","precision":"9","type":"PCL"}],"title":"UNDP Support to the UN Gender Joint Programme"},{"id":"00058025","subnational":[{"awardID":"00058025","focus_area":"-","focus_area_descr":"-","lat":"0.66174","lon":"30.2748","name":"Fort Portal","outputID":"00071910","output_locID":"00071910-1","precision":"3","type":"PPLA2"},{"awardID":"00058025","focus_area":"-","focus_area_descr":"-","lat":"0.43902","lon":"33.20317","name":"Jinja","outputID":"00071910","output_locID":"00071910-2","precision":"3","type":"PPLA"},{"awardID":"00058025","focus_area":"-","focus_area_descr":"-","lat":"-1.20774","lon":"29.98588","name":"Kabale","outputID":"00071910","output_locID":"00071910-3","precision":"3","type":"ADM2"},{"awardID":"00058025","focus_area":"-","focus_area_descr":"-","lat":"1.08209","lon":"34.17503","name":"Mbale","outputID":"00071910","output_locID":"00071910-4","precision":"3","type":"PPLA2"},{"awardID":"00058025","focus_area":"-","focus_area_descr":"-","lat":"-0.60467","lon":"30.64851","name":"Mbarara","outputID":"00071910","output_locID":"00071910-5","precision":"3","type":"PPLA"}],"title":"UNDP-JOINT HIV/AIDS PROGRAMME"},{"id":"00051185","subnational":[{"awardID":"00051185","focus_area":"2","focus_area_descr":"Democratic governance","lat":"2","lon":"33","name":"Uganda","outputID":"00063592","output_locID":"00063592-1","precision":"9","type":"PCL"}],"title":"Youth Civil Society Empowerment - Uganda"},{"id":"00061407","subnational":[{"awardID":"00061407","focus_area":"2","focus_area_descr":"Democratic governance","lat":"2.75","lon":"33.75","name":"Abim","outputID":"00077771","output_locID":"00077771-1","precision":"3","type":"ADM2"},{"awardID":"00061407","focus_area":"2","focus_area_descr":"Democratic governance","lat":"1.80626","lon":"34.9278","name":"Amudat","outputID":"00077771","output_locID":"00077771-2","precision":"3","type":"ADM2"},{"awardID":"00061407","focus_area":"2","focus_area_descr":"Democratic governance","lat":"3.58333","lon":"34","name":"Kaabong","outputID":"00077771","output_locID":"00077771-3","precision":"3","type":"ADM2"},{"awardID":"00061407","focus_area":"2","focus_area_descr":"Democratic governance","lat":"3","lon":"34.1","name":"Kotido","outputID":"00077771","output_locID":"00077771-4","precision":"3","type":"ADM2"},{"awardID":"00061407","focus_area":"2","focus_area_descr":"Democratic governance","lat":"2.6389","lon":"34.64395","name":"Moroto","outputID":"00077771","output_locID":"00077771-5","precision":"3","type":"ADM2"},{"awardID":"00061407","focus_area":"2","focus_area_descr":"Democratic governance","lat":"1.90718","lon":"34.59601","name":"Nakapiripirit","outputID":"00077771","output_locID":"00077771-6","precision":"3","type":"ADM2"},{"awardID":"00061407","focus_area":"2","focus_area_descr":"Democratic governance","lat":"2.38153","lon":"34.16834","name":"Napak","outputID":"00077771","output_locID":"00077771-7","precision":"3","type":"ADM2"}],"title":"Youth Empowerment in Karamoja"},{"id":"00043126","subnational":[{"awardID":"00043126","focus_area":"-","focus_area_descr":"-","lat":"2","lon":"33","name":"Uganda","outputID":"00050139","output_locID":"00050139-1","precision":"9","type":"PCL"}],"title":"Deepening Democratic Processes3 (DDP 3)"},{"id":"00049828","subnational":[],"title":"HIV/AIDS Mainstreaming"},{"id":"00015078","subnational":[],"title":"INCOME GENERATION AND SUSTAINABLE LIVELIHOODS"},{"id":"00060542","subnational":[{"awardID":"00060542","focus_area":"-","focus_area_descr":"-","lat":"2","lon":"33","name":"Uganda","outputID":"00076281","output_locID":"00076281-1","precision":"9","type":"PCL"}],"title":"Initiation Plan - Accountable Democratic Governance"},{"id":"00049032","subnational":[],"title":"JOINT UN HIV/AIDS PROGRAMME"},{"id":"00050715","subnational":[],"title":"JUBA PEACE PROCESS"},{"id":"00045044","subnational":[{"awardID":"00045044","focus_area":"-","focus_area_descr":"-","lat":"2","lon":"33","name":"Uganda","outputID":"00053144","output_locID":"00053144-1","precision":"9","type":"PCL"}],"title":"National Human Development Report"},{"id":"00056999","subnational":[],"title":"National Urban Policy Development Support"},{"id":"00057035","subnational":[],"title":"Preparatory Assistance to Ministry of Foreign Affairs"},{"id":"00061431","subnational":[],"title":"RELOCATION -NEW PREMISES"},{"id":"00057000","subnational":[{"awardID":"00057000","focus_area":"-","focus_area_descr":"-","lat":"0.31628","lon":"32.58219","name":"Kampala","outputID":"00070210","output_locID":"00070210-1","precision":"8","type":"PPLC"}],"title":"Support to Programme Management Implementation"},{"id":"00043128","subnational":[],"title":"Support to Transparency and Accountability Project"},{"id":"00043023","subnational":[],"title":"UGA06110 DEEPENING DEMOCRATIC PROCESS"},{"id":"00059500","subnational":[],"title":"UN JOINT PROGRAMME ON VALUE CHAIN DEVELOPMENT IN UGANDA"},{"id":"00058042","subnational":[],"title":"UNAIDS-UGA-JOINT HIV/AIDS PROGRAMME"},{"id":"00043605","subnational":[],"title":"UNDP-Gulu Sub Office support"},{"id":"00044414","subnational":[],"title":"UNDP-Lira Sub Office support"},{"id":"00043126","subnational":[{"awardID":"00043126","focus_area":"-","focus_area_descr":"-","lat":"2","lon":"33","name":"Uganda","outputID":"00050139","output_locID":"00050139-1","precision":"9","type":"PCL"}],"title":"Deepening Democratic Processes3 (DDP 3)"},{"id":"00060542","subnational":[{"awardID":"00060542","focus_area":"-","focus_area_descr":"-","lat":"2","lon":"33","name":"Uganda","outputID":"00076281","output_locID":"00076281-1","precision":"9","type":"PCL"}],"title":"Initiation Plan - Accountable Democratic Governance"},{"id":"00045044","subnational":[{"awardID":"00045044","focus_area":"-","focus_area_descr":"-","lat":"2","lon":"33","name":"Uganda","outputID":"00053144","output_locID":"00053144-1","precision":"9","type":"PCL"}],"title":"National Human Development Report"},{"id":"00057000","subnational":[{"awardID":"00057000","focus_area":"-","focus_area_descr":"-","lat":"0.31628","lon":"32.58219","name":"Kampala","outputID":"00070210","output_locID":"00070210-1","precision":"8","type":"PPLC"}],"title":"Support to Programme Management Implementation"},{"id":"00046746","subnational":[],"title":"UNDEF support to UCOBAC and FOWODE projects"}]}