{"iso_num": null, "projects": [{"title": "extending wetland protected areas community conservation", "id": "00046813", "subnational": [{"outputID": "00055951", "output_locID": "00055951-1", "name": "Lake Bisina", "focus_area": "5", "lat": "1.607780", "type": "LK", "awardID": "00046813", "lon": "33.961940", "precision": "1", "focus_area_descr": "Climate Change & Disaster Resilience"}, {"outputID": "00055951", "output_locID": "00055951-2", "name": "Lake Opeta", "focus_area": "5", "lat": "1.625000", "type": "LK", "awardID": "00046813", "lon": "34.191670", "precision": "1", "focus_area_descr": "Climate Change & Disaster Resilience"}]}, {"title": "support to un coordination office", "id": "00046225", "subnational": [{"outputID": "00085736", "output_locID": "00085736-1", "name": "Kampala", "focus_area": "6", "lat": "0.316280", "type": "PPLC", "awardID": "00046225", "lon": "32.582190", "precision": "1", "focus_area_descr": "Crisis Prevention & Recovery"}, {"outputID": "00054925", "output_locID": "00054925-1", "name": "Kampala", "focus_area": "2", "lat": "0.31628", "type": "PPLC", "awardID": "00046225", "lon": "32.58219", "precision": "8", "focus_area_descr": "Democratic Governance"}]}, {"title": "chemicals management approach", "id": "00047941", "subnational": [{"outputID": "00057870", "output_locID": "00057870-1", "name": "Kampala", "focus_area": "5", "lat": "0.316280", "type": "PPLC", "awardID": "00047941", "lon": "32.582190", "precision": "1", "focus_area_descr": "Climate Change & Disaster Resilience"}]}, {"title": "improved charcoal production &sustainable land managemen", "id": "00063036", "subnational": [{"outputID": "00080338", "output_locID": "00080338-1", "name": "Republic of Uganda", "focus_area": "1", "lat": "1.250000", "type": "PCLI", "awardID": "00063036", "lon": "32.500000", "precision": "1", "focus_area_descr": "Inclusive & Sustainable Growth"}]}, {"title": "support for development of inclusive markets in tourism", "id": "00062245", "subnational": [{"outputID": "00079649", "output_locID": "00079649-1", "name": "Republic of Uganda", "focus_area": "1", "lat": "1.250000", "type": "PCLI", "awardID": "00062245", "lon": "32.500000", "precision": "1", "focus_area_descr": "Inclusive & Sustainable Growth"}]}, {"title": "development of inclusive markets in agriculture&trade", "id": "00062246", "subnational": [{"outputID": "00079650", "output_locID": "00079650-1", "name": "Republic of Uganda", "focus_area": "1", "lat": "1.250000", "type": "PCLI", "awardID": "00062246", "lon": "32.500000", "precision": "1", "focus_area_descr": "Inclusive & Sustainable Growth"}]}, {"title": "pilot initiatives projects-environment", "id": "00062248", "subnational": [{"outputID": "00079653", "output_locID": "00079653-1", "name": "Republic of Uganda", "focus_area": "1", "lat": "1.250000", "type": "PCLI", "awardID": "00062248", "lon": "32.500000", "precision": "1", "focus_area_descr": "Inclusive & Sustainable Growth"}]}, {"title": "improving policies and strategies for environment", "id": "00062247", "subnational": [{"outputID": "00079652", "output_locID": "00079652-1", "name": "Republic of Uganda", "focus_area": "2", "lat": "1.250000", "type": "PCLI", "awardID": "00062247", "lon": "32.500000", "precision": "1", "focus_area_descr": "Democratic Governance"}]}, {"title": "diaspora resource mobilization", "id": "00062240", "subnational": [{"outputID": "00079644", "output_locID": "00079644-1", "name": "Republic of Uganda", "focus_area": "7", "lat": "1.250000", "type": "PCLI", "awardID": "00062240", "lon": "32.500000", "precision": "1", "focus_area_descr": "Development Impact & Effectiveness"}]}, {"title": "institutional frameworks-service delivery", "id": "00062241", "subnational": [{"outputID": "00079645", "output_locID": "00079645-1", "name": "Republic of Uganda", "focus_area": "3", "lat": "1.250000", "type": "PCLI", "awardID": "00062241", "lon": "32.500000", "precision": "1", "focus_area_descr": "Responsive Institutions"}]}, {"title": "oversight functions for service delivery", "id": "00062243", "subnational": [{"outputID": "00079647", "output_locID": "00079647-1", "name": "Republic of Uganda", "focus_area": "2", "lat": "1.250000", "type": "PCLI", "awardID": "00062243", "lon": "32.500000", "precision": "1", "focus_area_descr": "Democratic Governance"}, {"outputID": "00085364", "output_locID": "00085364-1", "name": "Kampala", "focus_area": "2", "lat": "0.31628", "type": "PPLC", "awardID": "00062243", "lon": "32.58219", "precision": "3", "focus_area_descr": "Democratic Governance"}]}, {"title": "capacity for aid effectiveness", "id": "00063267", "subnational": [{"outputID": "00080490", "output_locID": "00080490-1", "name": "Republic of Uganda", "focus_area": "7", "lat": "1.250000", "type": "PCLI", "awardID": "00063267", "lon": "32.500000", "precision": "1", "focus_area_descr": "Development Impact & Effectiveness"}]}, {"title": "capacity for evidence based analytical studies", "id": "00063265", "subnational": [{"outputID": "00080489", "output_locID": "00080489-1", "name": "Republic of Uganda", "focus_area": "1", "lat": "1.250000", "type": "PCLI", "awardID": "00063265", "lon": "32.500000", "precision": "1", "focus_area_descr": "Inclusive & Sustainable Growth"}]}, {"title": "low emission capacity building project", "id": "00061683", "subnational": [{"outputID": "00078274", "output_locID": "00078274-1", "name": "Republic of Uganda", "focus_area": "1", "lat": "1.250000", "type": "PCLI", "awardID": "00061683", "lon": "32.500000", "precision": "1", "focus_area_descr": "Inclusive & Sustainable Growth"}]}, {"title": "ecosystem based adaptation in mountain ecosystems", "id": "00063035", "subnational": [{"outputID": "00080337", "output_locID": "00080337-1", "name": "Republic of Uganda", "focus_area": "8", "lat": "1.250000", "type": "PCLI", "awardID": "00063035", "lon": "32.500000", "precision": "1", "focus_area_descr": "South-South"}]}, {"title": "policies/regulations for markets in tourism", "id": "00064827", "subnational": [{"outputID": "00081477", "output_locID": "00081477-1", "name": "Kampala", "focus_area": "1", "lat": "0.316280", "type": "PPLC", "awardID": "00064827", "lon": "32.582190", "precision": "1", "focus_area_descr": "Inclusive & Sustainable Growth"}]}, {"title": "undp-joint hiv/aids programme", "id": "00058025", "subnational": [{"outputID": "00071910", "output_locID": "00071910-1", "name": "Fort Portal", "focus_area": "3", "lat": "0.661740", "type": "PPLA2", "awardID": "00058025", "lon": "30.274800", "precision": "1", "focus_area_descr": "Responsive Institutions"}, {"outputID": "00071910", "output_locID": "00071910-2", "name": "Jinja", "focus_area": "3", "lat": "0.439020", "type": "PPLA", "awardID": "00058025", "lon": "33.203170", "precision": "1", "focus_area_descr": "Responsive Institutions"}, {"outputID": "00071910", "output_locID": "00071910-3", "name": "Kabale District", "focus_area": "3", "lat": "-1.207740", "type": "ADM2", "awardID": "00058025", "lon": "29.985880", "precision": "1", "focus_area_descr": "Responsive Institutions"}, {"outputID": "00071910", "output_locID": "00071910-4", "name": "Mbale", "focus_area": "3", "lat": "1.082090", "type": "PPLA2", "awardID": "00058025", "lon": "34.175030", "precision": "1", "focus_area_descr": "Responsive Institutions"}, {"outputID": "00071910", "output_locID": "00071910-5", "name": "Mbarara", "focus_area": "3", "lat": "-0.604670", "type": "PPLA", "awardID": "00058025", "lon": "30.648510", "precision": "1", "focus_area_descr": "Responsive Institutions"}]}, {"title": "pims 3227enabling env. for slm to overcome land degrad'n", "id": "00058105", "subnational": [{"outputID": "00072031", "output_locID": "00072031-1", "name": "Luwero District", "focus_area": "1", "lat": "0.820000", "type": "ADM2", "awardID": "00058105", "lon": "32.614000", "precision": "1", "focus_area_descr": "Inclusive & Sustainable Growth"}, {"outputID": "00072031", "output_locID": "00072031-2", "name": "Nakasongola District", "focus_area": "1", "lat": "1.389030", "type": "ADM2", "awardID": "00058105", "lon": "32.416080", "precision": "1", "focus_area_descr": "Inclusive & Sustainable Growth"}]}, {"title": "natural and energy resource management", "id": "00060230", "subnational": [{"outputID": "00075753", "output_locID": "00075753-1", "name": "Bududa District", "focus_area": "1", "lat": "1.050000", "type": "ADM2", "awardID": "00060230", "lon": "34.400000", "precision": "1", "focus_area_descr": "Inclusive & Sustainable Growth"}, {"outputID": "00075753", "output_locID": "00075753-2", "name": "Manafwa District", "focus_area": "1", "lat": "0.883330", "type": "ADM2", "awardID": "00060230", "lon": "34.333330", "precision": "1", "focus_area_descr": "Inclusive & Sustainable Growth"}, {"outputID": "00075753", "output_locID": "00075753-3", "name": "Mbale", "focus_area": "1", "lat": "1.082090", "type": "PPLA2", "awardID": "00060230", "lon": "34.175030", "precision": "1", "focus_area_descr": "Inclusive & Sustainable Growth"}]}, {"title": "northern uganda early recovery in-lira & oyam districts", "id": "00058469", "subnational": [{"outputID": "00072643", "output_locID": "00072643-1", "name": "Dokolo District", "focus_area": "1", "lat": "1.936070", "type": "ADM2", "awardID": "00058469", "lon": "33.061370", "precision": "1", "focus_area_descr": "Inclusive & Sustainable Growth"}, {"outputID": "00072643", "output_locID": "00072643-2", "name": "Lira", "focus_area": "1", "lat": "2.249900", "type": "PPLA2", "awardID": "00058469", "lon": "32.899850", "precision": "1", "focus_area_descr": "Inclusive & Sustainable Growth"}, {"outputID": "00072643", "output_locID": "00072643-3", "name": "Oyam District", "focus_area": "1", "lat": "2.381290", "type": "ADM2", "awardID": "00058469", "lon": "32.500720", "precision": "1", "focus_area_descr": "Inclusive & Sustainable Growth"}]}, {"title": "enhancing adoption of climate smart agriculturein uganda", "id": "00080345", "subnational": []}, {"title": "improved livelihoods and resilience in mt elgon", "id": "00082107", "subnational": []}, {"title": "strengthening ug. disaster preparedness & mgt cap", "id": "00067513", "subnational": [{"outputID": "00086868", "output_locID": "00086868-1", "name": "Aswa County", "focus_area": "5", "lat": "3.000000", "type": "ADM3", "awardID": "00067513", "lon": "32.500000", "precision": "1", "focus_area_descr": "Climate Change & Disaster Resilience"}, {"outputID": "00083238", "output_locID": "00083238-1", "name": "Katakwi", "focus_area": "5", "lat": "1.92157", "type": "ADM2", "awardID": "00067513", "lon": "34.04753", "precision": "3", "focus_area_descr": "Climate Change & Disaster Resilience"}]}, {"title": "early warning system", "id": "00076999", "subnational": []}, {"title": "improved charcoal production technologies", "id": "00074620", "subnational": []}, {"title": "pulse lab/rc coordination", "id": "00072037", "subnational": [{"outputID": "00085278", "output_locID": "00085278-1", "name": "Republic of Uganda", "focus_area": "7", "lat": "1.250000", "type": "PCLI", "awardID": "00072037", "lon": "32.500000", "precision": "1", "focus_area_descr": "Development Impact & Effectiveness"}]}, {"title": "kidepo conservation project", "id": "00072558", "subnational": [{"outputID": "00085611", "output_locID": "00085611-1", "name": "Kidepo National Park", "focus_area": "5", "lat": "3.809190", "type": "PRK", "awardID": "00072558", "lon": "33.631870", "precision": "1", "focus_area_descr": "Climate Change & Disaster Resilience"}, {"outputID": "00085611", "output_locID": "00085611-2", "name": "Kidepo National Park", "focus_area": "5", "lat": "3.809190", "type": "PRK", "awardID": "00072558", "lon": "33.631870", "precision": "1", "focus_area_descr": "Climate Change & Disaster Resilience"}]}, {"title": "national development plan (2015-2020)", "id": "00070394", "subnational": [{"outputID": "00084410", "output_locID": "00084410-1", "name": "Republic of Uganda", "focus_area": "7", "lat": "1.250000", "type": "PCLI", "awardID": "00070394", "lon": "32.500000", "precision": "1", "focus_area_descr": "Development Impact & Effectiveness"}]}, {"title": "national capacities for mediation, dialogue&negotiation", "id": "00070364", "subnational": [{"outputID": "00084398", "output_locID": "00084398-1", "name": "Kampala", "focus_area": "2", "lat": "0.31628", "type": "PPLC", "awardID": "00070364", "lon": "32.58219", "precision": "3", "focus_area_descr": "Democratic Governance"}]}, {"title": "local development and social cohesion in northern uganda", "id": "00073876", "subnational": [{"outputID": "00086488", "output_locID": "00086488-1", "name": "Aswa County", "focus_area": "1", "lat": "3.000000", "type": "ADM3", "awardID": "00073876", "lon": "32.500000", "precision": "1", "focus_area_descr": "Inclusive & Sustainable Growth"}, {"outputID": "00084738", "output_locID": "00084738-1", "name": "Acholi", "focus_area": "1", "lat": "3", "type": "ADM1", "awardID": "00073876", "lon": "32.5", "precision": "4", "focus_area_descr": "Inclusive & Sustainable Growth"}]}, {"title": "development effectiveness-uganda", "id": "00064569", "subnational": [{"outputID": "00081301", "output_locID": "00081301-1", "name": "Kampala", "focus_area": "2", "lat": "0.31628", "type": "PPLC", "awardID": "00064569", "lon": "32.58219", "precision": "3", "focus_area_descr": "Democratic Governance"}]}, {"title": "gender budget project for northern uganda", "id": "00061769", "subnational": [{"outputID": "00078523", "output_locID": "00078523-1", "name": "Uganda", "focus_area": "2", "lat": "2", "type": "PCL", "awardID": "00061769", "lon": "33", "precision": "9", "focus_area_descr": "Democratic Governance"}]}, {"title": "management plan", "id": "00027131", "subnational": [{"outputID": "00027575", "output_locID": "00027575-1", "name": "Kampala", "focus_area": "2", "lat": "0.31628", "type": "PPLC", "awardID": "00027131", "lon": "32.58219", "precision": "3", "focus_area_descr": "Democratic Governance"}]}, {"title": "mdg country report", "id": "00044885", "subnational": [{"outputID": "00052927", "output_locID": "00052927-1", "name": "Uganda", "focus_area": "2", "lat": "2", "type": "PCL", "awardID": "00044885", "lon": "33", "precision": "9", "focus_area_descr": "Democratic Governance"}]}, {"title": "mine action programme", "id": "00039067", "subnational": [{"outputID": "00043631", "output_locID": "00043631-1", "name": "Amuria", "focus_area": "6", "lat": "2.08333", "type": "ADM2", "awardID": "00039067", "lon": "33.66667", "precision": "3", "focus_area_descr": "Crisis Prevention & Recovery"}, {"outputID": "00043631", "output_locID": "00043631-2", "name": "Bukedea", "focus_area": "6", "lat": "1.36667", "type": "ADM2", "awardID": "00039067", "lon": "34.13333", "precision": "3", "focus_area_descr": "Crisis Prevention & Recovery"}, {"outputID": "00043631", "output_locID": "00043631-3", "name": "Kaberamaido", "focus_area": "6", "lat": "1.75732", "type": "ADM2", "awardID": "00039067", "lon": "33.22576", "precision": "3", "focus_area_descr": "Crisis Prevention & Recovery"}, {"outputID": "00043631", "output_locID": "00043631-4", "name": "Katakwi", "focus_area": "6", "lat": "1.92157", "type": "ADM2", "awardID": "00039067", "lon": "34.04753", "precision": "3", "focus_area_descr": "Crisis Prevention & Recovery"}, {"outputID": "00043631", "output_locID": "00043631-5", "name": "Kumi", "focus_area": "6", "lat": "1.5", "type": "ADM2", "awardID": "00039067", "lon": "33.95", "precision": "3", "focus_area_descr": "Crisis Prevention & Recovery"}, {"outputID": "00043631", "output_locID": "00043631-6", "name": "Pallisa", "focus_area": "6", "lat": "1.145", "type": "PPLA2", "awardID": "00039067", "lon": "33.70944", "precision": "3", "focus_area_descr": "Crisis Prevention & Recovery"}, {"outputID": "00043631", "output_locID": "00043631-7", "name": "Soroti", "focus_area": "6", "lat": "1.71464", "type": "PPLA2", "awardID": "00039067", "lon": "33.61113", "precision": "3", "focus_area_descr": "Crisis Prevention & Recovery"}, {"outputID": "00043631", "output_locID": "00043631-8", "name": "Acholi", "focus_area": "6", "lat": "3", "type": "ADM1", "awardID": "00039067", "lon": "32.5", "precision": "4", "focus_area_descr": "Crisis Prevention & Recovery"}, {"outputID": "00082883", "output_locID": "00082883-1", "name": "Gulu", "focus_area": "6", "lat": "2.77457", "type": "PPLA", "awardID": "00039067", "lon": "32.29899", "precision": "3", "focus_area_descr": "Crisis Prevention & Recovery"}]}, {"title": "peace building fund undp", "id": "00061509", "subnational": [{"outputID": "00077934", "output_locID": "00077934-1", "name": "Acholi Sub region", "focus_area": "1", "lat": "3", "type": "ADM1", "awardID": "00061509", "lon": "32.5", "precision": "4", "focus_area_descr": "Inclusive & Sustainable Growth"}]}, {"title": "peace building through justice for all and human rights", "id": "00061861", "subnational": [{"outputID": "00078872", "output_locID": "00078872-1", "name": "Kampala", "focus_area": "6", "lat": "0.31628", "type": "PPLC", "awardID": "00061861", "lon": "32.58219", "precision": "3", "focus_area_descr": "Crisis Prevention & Recovery"}]}, {"title": "pid for kidepo conservation project", "id": "00062107", "subnational": [{"outputID": "00079404", "output_locID": "00079404-1", "name": "Kidepo National Park", "focus_area": "5", "lat": "3.88278", "type": "RES", "awardID": "00062107", "lon": "33.87444", "precision": "4", "focus_area_descr": "Climate Change & Disaster Resilience"}]}, {"title": "poverty reduction for communities affected by war", "id": "00071034", "subnational": [{"outputID": "00085966", "output_locID": "00085966-1", "name": "Acholi", "focus_area": "1", "lat": "3", "type": "ADM1", "awardID": "00071034", "lon": "32.5", "precision": "4", "focus_area_descr": "Inclusive & Sustainable Growth"}]}, {"title": "project initiation plan growth& poverty", "id": "00060547", "subnational": [{"outputID": "00076289", "output_locID": "00076289-1", "name": "Uganda", "focus_area": "1", "lat": "2", "type": "PCL", "awardID": "00060547", "lon": "33", "precision": "9", "focus_area_descr": "Inclusive & Sustainable Growth"}]}, {"title": "promoting chemical safety for children at work", "id": "00062527", "subnational": [{"outputID": "00080060", "output_locID": "00080060-1", "name": "Uganda", "focus_area": "5", "lat": "2", "type": "PCL", "awardID": "00062527", "lon": "33", "precision": "9", "focus_area_descr": "Climate Change & Disaster Resilience"}]}, {"title": "promoting civic &political participation of women& youth", "id": "00059425", "subnational": [{"outputID": "00074299", "output_locID": "00074299-1", "name": "Uganda", "focus_area": "2", "lat": "2", "type": "PCL", "awardID": "00059425", "lon": "33", "precision": "9", "focus_area_descr": "Democratic Governance"}]}, {"title": "sexual and gender based violence project", "id": "00042004", "subnational": [{"outputID": "00048065", "output_locID": "00048065-1", "name": "Amuria", "focus_area": "6", "lat": "2.08333", "type": "ADM2", "awardID": "00042004", "lon": "33.66667", "precision": "3", "focus_area_descr": "Crisis Prevention & Recovery"}, {"outputID": "00048065", "output_locID": "00048065-2", "name": "Amuru", "focus_area": "6", "lat": "3", "type": "ADM2", "awardID": "00042004", "lon": "32", "precision": "3", "focus_area_descr": "Crisis Prevention & Recovery"}, {"outputID": "00048065", "output_locID": "00048065-3", "name": "Gulu", "focus_area": "6", "lat": "2.77457", "type": "PPLA", "awardID": "00042004", "lon": "32.29899", "precision": "3", "focus_area_descr": "Crisis Prevention & Recovery"}, {"outputID": "00048065", "output_locID": "00048065-4", "name": "Kitgum", "focus_area": "6", "lat": "3.27833", "type": "PPLA2", "awardID": "00042004", "lon": "32.88667", "precision": "3", "focus_area_descr": "Crisis Prevention & Recovery"}, {"outputID": "00048065", "output_locID": "00048065-5", "name": "Lira", "focus_area": "6", "lat": "2.2499", "type": "PPLA2", "awardID": "00042004", "lon": "32.89985", "precision": "3", "focus_area_descr": "Crisis Prevention & Recovery"}, {"outputID": "00048065", "output_locID": "00048065-6", "name": "Pader", "focus_area": "6", "lat": "2.956", "type": "ADM2", "awardID": "00042004", "lon": "32.8", "precision": "3", "focus_area_descr": "Crisis Prevention & Recovery"}]}, {"title": "transition and recovery programme", "id": "00036601", "subnational": [{"outputID": "00057715", "output_locID": "00057715-1", "name": "Soroti", "focus_area": "6", "lat": "1.71464", "type": "PPLA2", "awardID": "00036601", "lon": "33.61113", "precision": "3", "focus_area_descr": "Crisis Prevention & Recovery"}, {"outputID": "00081058", "output_locID": "00081058-1", "name": "Abim", "focus_area": "6", "lat": "2.75", "type": "ADM2", "awardID": "00036601", "lon": "33.75", "precision": "3", "focus_area_descr": "Crisis Prevention & Recovery"}]}, {"title": "uga04204 enterprise uganda", "id": "00036517", "subnational": [{"outputID": "00039763", "output_locID": "00039763-1", "name": "Kampala", "focus_area": "1", "lat": "0.31628", "type": "PPLC", "awardID": "00036517", "lon": "32.58219", "precision": "3", "focus_area_descr": "Inclusive & Sustainable Growth"}]}, {"title": "uga05200 enterprise uganda (prom.of business linkges)", "id": "00037719", "subnational": [{"outputID": "00041321", "output_locID": "00041321-1", "name": "Uganda", "focus_area": "-", "lat": "2", "type": "PCL", "awardID": "00037719", "lon": "33", "precision": "9", "focus_area_descr": "-"}]}, {"title": "uga05303 secure environment for recovery and development", "id": "00041294", "subnational": [{"outputID": "00047028", "output_locID": "00047028-1", "name": "Abim", "focus_area": "6", "lat": "2.75", "type": "ADM2", "awardID": "00041294", "lon": "33.75", "precision": "3", "focus_area_descr": "Crisis Prevention & Recovery"}]}, {"title": "uga06130 justice and human rights", "id": "00043365", "subnational": [{"outputID": "00050568", "output_locID": "00050568-1", "name": "Uganda", "focus_area": "-", "lat": "2", "type": "PCL", "awardID": "00043365", "lon": "33", "precision": "9", "focus_area_descr": "-"}]}, {"title": "uga06201 streng'ning -national disaster risk mgt", "id": "00042976", "subnational": [{"outputID": "00049937", "output_locID": "00049937-1", "name": "Uganda", "focus_area": "-", "lat": "2", "type": "PCL", "awardID": "00042976", "lon": "33", "precision": "9", "focus_area_descr": "-"}]}, {"title": "uga06208prom.sustainable charcoal prodn.-lwro & naksngla", "id": "00044388", "subnational": [{"outputID": "00052174", "output_locID": "00052174-1", "name": "Nakasongola", "focus_area": "-", "lat": "1.38903", "type": "ADM2", "awardID": "00044388", "lon": "32.41608", "precision": "3", "focus_area_descr": "-"}]}, {"title": "uga06220 dev natn'l slum upgrading stratrgy", "id": "00045291", "subnational": [{"outputID": "00053465", "output_locID": "00053465-1", "name": "Uganda", "focus_area": "-", "lat": "2", "type": "PCL", "awardID": "00045291", "lon": "33", "precision": "9", "focus_area_descr": "-"}]}, {"title": "uga07200pims 449 bd full: cons of biod -albrtne rft frst", "id": "00043885", "subnational": [{"outputID": "00051397", "output_locID": "00051397-1", "name": "Hoima", "focus_area": "5", "lat": "1.43314", "type": "PPLA2", "awardID": "00043885", "lon": "31.35241", "precision": "3", "focus_area_descr": "Climate Change & Disaster Resilience"}, {"outputID": "00051397", "output_locID": "00051397-2", "name": "Kibaale", "focus_area": "5", "lat": "0.93015", "type": "ADM2", "awardID": "00043885", "lon": "31.03261", "precision": "3", "focus_area_descr": "Climate Change & Disaster Resilience"}, {"outputID": "00051397", "output_locID": "00051397-3", "name": "Kibaale", "focus_area": "5", "lat": "0.93015", "type": "ADM2", "awardID": "00043885", "lon": "31.03261", "precision": "3", "focus_area_descr": "Climate Change & Disaster Resilience"}, {"outputID": "00051397", "output_locID": "00051397-4", "name": "Kyenjojo", "focus_area": "5", "lat": "0.65696", "type": "ADM2", "awardID": "00043885", "lon": "30.6599", "precision": "3", "focus_area_descr": "Climate Change & Disaster Resilience"}, {"outputID": "00051397", "output_locID": "00051397-5", "name": "Masindi", "focus_area": "5", "lat": "1.67444", "type": "PPLA2", "awardID": "00043885", "lon": "31.715", "precision": "3", "focus_area_descr": "Climate Change & Disaster Resilience"}]}, {"title": "undp support to the un gender joint programme", "id": "00059780", "subnational": [{"outputID": "00074930", "output_locID": "00074930-1", "name": "Uganda", "focus_area": "2", "lat": "2", "type": "PCL", "awardID": "00059780", "lon": "33", "precision": "9", "focus_area_descr": "Democratic Governance"}]}, {"title": "youth civil society empowerment - uganda", "id": "00051185", "subnational": [{"outputID": "00063592", "output_locID": "00063592-1", "name": "Uganda", "focus_area": "2", "lat": "2", "type": "PCL", "awardID": "00051185", "lon": "33", "precision": "9", "focus_area_descr": "Democratic Governance"}]}, {"title": "youth empowerment in karamoja", "id": "00061407", "subnational": [{"outputID": "00077771", "output_locID": "00077771-1", "name": "Abim", "focus_area": "2", "lat": "2.75", "type": "ADM2", "awardID": "00061407", "lon": "33.75", "precision": "3", "focus_area_descr": "Democratic Governance"}, {"outputID": "00077771", "output_locID": "00077771-2", "name": "Amudat", "focus_area": "2", "lat": "1.80626", "type": "ADM2", "awardID": "00061407", "lon": "34.9278", "precision": "3", "focus_area_descr": "Democratic Governance"}, {"outputID": "00077771", "output_locID": "00077771-3", "name": "Kaabong", "focus_area": "2", "lat": "3.58333", "type": "ADM2", "awardID": "00061407", "lon": "34", "precision": "3", "focus_area_descr": "Democratic Governance"}, {"outputID": "00077771", "output_locID": "00077771-4", "name": "Kotido", "focus_area": "2", "lat": "3", "type": "ADM2", "awardID": "00061407", "lon": "34.1", "precision": "3", "focus_area_descr": "Democratic Governance"}, {"outputID": "00077771", "output_locID": "00077771-5", "name": "Moroto", "focus_area": "2", "lat": "2.6389", "type": "ADM2", "awardID": "00061407", "lon": "34.64395", "precision": "3", "focus_area_descr": "Democratic Governance"}, {"outputID": "00077771", "output_locID": "00077771-6", "name": "Nakapiripirit", "focus_area": "2", "lat": "1.90718", "type": "ADM2", "awardID": "00061407", "lon": "34.59601", "precision": "3", "focus_area_descr": "Democratic Governance"}, {"outputID": "00077771", "output_locID": "00077771-7", "name": "Napak", "focus_area": "2", "lat": "2.38153", "type": "ADM2", "awardID": "00061407", "lon": "34.16834", "precision": "3", "focus_area_descr": "Democratic Governance"}]}, {"title": "deepening democratic processes3 (ddp 3)", "id": "00043126", "subnational": []}, {"title": "hiv/aids mainstreaming", "id": "00049828", "subnational": []}, {"title": "income generation and sustainable livelihoods", "id": "00015078", "subnational": []}, {"title": "initiation plan - accountable democratic governance", "id": "00060542", "subnational": []}, {"title": "joint un hiv/aids programme", "id": "00049032", "subnational": []}, {"title": "juba peace process", "id": "00050715", "subnational": []}, {"title": "national human development report", "id": "00045044", "subnational": []}, {"title": "national urban policy development support", "id": "00056999", "subnational": []}, {"title": "preparatory assistance to ministry of foreign affairs", "id": "00057035", "subnational": []}, {"title": "relocation -new premises", "id": "00061431", "subnational": []}, {"title": "support to programme management implementation", "id": "00057000", "subnational": []}, {"title": "support to transparency and accountability project", "id": "00043128", "subnational": []}, {"title": "uga06110 deepening democratic process", "id": "00043023", "subnational": []}, {"title": "un joint programme on value chain development in uganda", "id": "00059500", "subnational": []}, {"title": "unaids-uga-joint hiv/aids programme", "id": "00058042", "subnational": []}, {"title": "undp-gulu sub office support", "id": "00043605", "subnational": []}, {"title": "undp-lira sub office support", "id": "00044414", "subnational": []}, {"title": "undef support to ucobac and fowode projects", "id": "00046746", "subnational": []}], "op_unit": "UGA"}