{"iso_num":"800","op_unit":"UGA","projects":[{"id":"00063267","subnational":[{"awardID":"00063267","lat":"2","lon":"33","name":"Uganda","precision":"9","type":"PCL"}],"title":"CAPACITY FOR AID EFFECTIVENESS"},{"id":"00063265","subnational":[{"awardID":"00063265","lat":"2","lon":"33","name":"Uganda","precision":"9","type":"PCL"}],"title":"CAPACITY FOR EVIDENCE BASED ANALYTICAL STUDIES"},{"id":"00047941","subnational":[],"title":"Chemicals Management Approach"},{"id":"00062107","subnational":[{"awardID":"00062107","lat":"3.88278","lon":"33.87444","name":"Kidepo National Park","precision":"4","type":"RES"}],"title":"Conserve Threatened Savana Woodland in Kidepo landscape"},{"id":"00064569","subnational":[],"title":"DEVELOPMENT EFFECTIVENESS-UGANDA"},{"id":"00062246","subnational":[{"awardID":"00062246","lat":"2","lon":"33","name":"Uganda","precision":"9","type":"PCL"}],"title":"Development of inclusive markets in Agriculture&Trade"},{"id":"00062240","subnational":[{"awardID":"00062240","lat":"2","lon":"33","name":"Uganda","precision":"9","type":"PCL"}],"title":"DIASPORA RESOURCE MOBILIZATION"},{"id":"00063035","subnational":[{"awardID":"00063035","lat":"2","lon":"33","name":"Uganda","precision":"9","type":"PCL"}],"title":"Ecosystem Based Adaptation in Mountain Ecosystems"},{"id":"00046813","subnational":[{"awardID":"00046813","lat":"1.625","lon":"34.19167","name":"Opeta","precision":"3","type":"RES"},{"awardID":"00046813","lat":"1.60778","lon":"33.96194","name":"Bisina","precision":"3","type":"RES"}],"title":"EXTENDING WETLAND PROTECTED AREAS COMMUNITY CONSERVATION"},{"id":"00061769","subnational":[{"awardID":"00061769","lat":"2","lon":"33","name":"Uganda","precision":"9","type":"PCL"}],"title":"Gender Budget Project for Northern Uganda"},{"id":"00063036","subnational":[],"title":"Improved Charcoal production &sustainable land managemen"},{"id":"00062247","subnational":[{"awardID":"00062247","lat":"2","lon":"33","name":"Uganda","precision":"9","type":"PCL"}],"title":"Improving policies and strategies for environment"},{"id":"00062241","subnational":[{"awardID":"00062241","lat":"2","lon":"33","name":"Uganda","precision":"9","type":"PCL"}],"title":"INSTITUTIONAL FRAMEWORKS-SERVICE DELIVERY"},{"id":"00073876","subnational":[],"title":"Local Development and Social Cohesion in Northern Uganda"},{"id":"00061683","subnational":[{"awardID":"00061683","lat":"2","lon":"33","name":"Uganda","precision":"9","type":"PCL"}],"title":"Low Emission Capacity Building project"},{"id":"00027131","subnational":[],"title":"Management Plan"},{"id":"00044885","subnational":[{"awardID":"00044885","lat":"2","lon":"33","name":"Uganda","precision":"9","type":"PCL"}],"title":"MDG Country Report"},{"id":"00039067","subnational":[{"awardID":"00039067","lat":"2.08333","lon":"33.66667","name":"Amuria","precision":"3","type":"ADM2"},{"awardID":"00039067","lat":"1.71464","lon":"33.61113","name":"Soroti","precision":"3","type":"PPLA2"},{"awardID":"00039067","lat":"1.5","lon":"33.95","name":"Kumi","precision":"3","type":"ADM2"},{"awardID":"00039067","lat":"1.92157","lon":"34.04753","name":"Katakwi","precision":"3","type":"ADM2"},{"awardID":"00039067","lat":"1.145","lon":"33.70944","name":"Pallisa","precision":"3","type":"PPLA2"},{"awardID":"00039067","lat":"1.36667","lon":"34.13333","name":"Bukedea","precision":"3","type":"ADM2"},{"awardID":"00039067","lat":"1.75732","lon":"33.22576","name":"Kaberamaido","precision":"3","type":"ADM2"},{"awardID":"00039067","lat":"3","lon":"32.5","name":"Acholi","precision":"4","type":"ADM1"}],"title":"Mine Action Programme"},{"id":"00070364","subnational":[],"title":"National Capacities for Mediation, Dialogue&Negotiation"},{"id":"00070394","subnational":[],"title":"National Development Plan (2015-2020) Initiation"},{"id":"00060230","subnational":[{"awardID":"00060230","lat":"1.08209","lon":"34.17503","name":"Mbale","precision":"3","type":"PPLA2"},{"awardID":"00060230","lat":"0.88333","lon":"34.33333","name":"Manafwa","precision":"3","type":"ADM2"},{"awardID":"00060230","lat":"1.05","lon":"34.4","name":"Bududa","precision":"3","type":"ADM2"}],"title":"NATURAL AND ENERGY RESOURCE MANAGEMENT"},{"id":"00058469","subnational":[{"awardID":"00058469","lat":"2.2499","lon":"32.89985","name":"Lira","precision":"3","type":"PPLA2"},{"awardID":"00058469","lat":"2.38129","lon":"32.50072","name":"Oyam","precision":"3","type":"ADM2"},{"awardID":"00058469","lat":"1.93607","lon":"33.06137","name":"Dokolo","precision":"3","type":"ADM2"}],"title":"Northern Uganda Early Recovery in-Lira & Oyam Districts"},{"id":"00062243","subnational":[{"awardID":"00062243","lat":"2","lon":"33","name":"Uganda","precision":"9","type":"PCL"}],"title":"OVERSIGHT FUNCTIONS FOR SERVICE DELIVERY"},{"id":"00061509","subnational":[{"awardID":"00061509","lat":"2","lon":"33","name":"Uganda","precision":"9","type":"PCL"}],"title":"Peace Building Fund UNDP"},{"id":"00061861","subnational":[{"awardID":"00061861","lat":"0.31628","lon":"32.58219","name":"Kampala","precision":"3","type":"PPLC"}],"title":"Peace Building Through Justice for all and Human Rights"},{"id":"00058105","subnational":[{"awardID":"00058105","lat":"0.82","lon":"32.614","name":"Luwero","precision":"3","type":"ADM2"},{"awardID":"00058105","lat":"1.38903","lon":"32.41608","name":"Nakasongola","precision":"3","type":"ADM2"}],"title":"PIMS 3227ENABLING ENV. FOR SLM TO OVERCOME LAND DEGRAD'N"},{"id":"00064827","subnational":[],"title":"Policies/Regulations for Markets in Tourism"},{"id":"00071034","subnational":[],"title":"Poverty Reduction for communities affected by War"},{"id":"00060547","subnational":[{"awardID":"00060547","lat":"2","lon":"33","name":"Uganda","precision":"9","type":"PCL"}],"title":"PROJECT INITIATION PLAN GROWTH& POVERTY"},{"id":"00062527","subnational":[{"awardID":"00062527","lat":"2","lon":"33","name":"Uganda","precision":"9","type":"PCL"}],"title":"PROMOTING CHEMICAL SAFETY FOR CHILDREN AT WORK"},{"id":"00059425","subnational":[{"awardID":"00059425","lat":"2","lon":"33","name":"Uganda","precision":"9","type":"PCL"}],"title":"Promoting Civic &Political Participation of women& Youth"},{"id":"00072037","subnational":[],"title":"Pulse Lab/RC Coordination"},{"id":"00042004","subnational":[{"awardID":"00042004","lat":"2.08333","lon":"33.66667","name":"Amuria","precision":"3","type":"ADM2"},{"awardID":"00042004","lat":"2.2499","lon":"32.89985","name":"Lira","precision":"3","type":"PPLA2"},{"awardID":"00042004","lat":"2.956","lon":"32.8","name":"Pader","precision":"3","type":"ADM2"},{"awardID":"00042004","lat":"3.27833","lon":"32.88667","name":"Kitgum","precision":"3","type":"PPLA2"},{"awardID":"00042004","lat":"3","lon":"32","name":"Amuru","precision":"3","type":"ADM2"},{"awardID":"00042004","lat":"2.77457","lon":"32.29899","name":"Gulu","precision":"3","type":"PPLA"}],"title":"Sexual and Gender based violence Project"},{"id":"00062248","subnational":[{"awardID":"00062248","lat":"2","lon":"33","name":"Uganda","precision":"9","type":"PCL"}],"title":"Strengthening Sustainable Environment"},{"id":"00067513","subnational":[],"title":"Strengthening Ug. Disaster Preparedness & Mgt Cap"},{"id":"00062245","subnational":[{"awardID":"00062245","lat":"2","lon":"33","name":"Uganda","precision":"9","type":"PCL"}],"title":"Support for Development of Inclusive Markets in Tourism"},{"id":"00046225","subnational":[],"title":"Support to UN Coordination office"},{"id":"00036601","subnational":[],"title":"Transition and Recovery Programme"},{"id":"00036517","subnational":[],"title":"UGA04204 Enterprise Uganda"},{"id":"00041294","subnational":[],"title":"UGA05303 Secure Environment for Recovery and Development"},{"id":"00043365","subnational":[],"title":"UGA06130 JUSTICE AND HUMAN RIGHTS"},{"id":"00042976","subnational":[],"title":"UGA06201 STRENG'NING -NATIONAL DISASTER RISK MGT"},{"id":"00044388","subnational":[],"title":"UGA06208Prom.Sustainable Charcoal Prodn.-Lwro & Naksngla"},{"id":"00045291","subnational":[],"title":"UGA06220 Dev Natn'l Slum upgrading Stratrgy"},{"id":"00043885","subnational":[{"awardID":"00043885","lat":"0.93015","lon":"31.03261","name":"Kibaale","precision":"3","type":"ADM2"},{"awardID":"00043885","lat":"0.65696","lon":"30.6599","name":"Kyenjojo","precision":"3","type":"ADM2"},{"awardID":"00043885","lat":"0.93015","lon":"31.03261","name":"Kibaale","precision":"3","type":"ADM2"},{"awardID":"00043885","lat":"1.43314","lon":"31.35241","name":"Hoima","precision":"3","type":"PPLA2"},{"awardID":"00043885","lat":"1.67444","lon":"31.715","name":"Masindi","precision":"3","type":"PPLA2"}],"title":"UGA07200PIMS 449 BD FULL: Cons of Biod -Albrtne Rft Frst"},{"id":"00059780","subnational":[{"awardID":"00059780","lat":"2","lon":"33","name":"Uganda","precision":"9","type":"PCL"}],"title":"UNDP Support to the UN Gender Joint Programme"},{"id":"00058025","subnational":[{"awardID":"00058025","lat":"-1.20774","lon":"29.98588","name":"Kabale","precision":"3","type":"ADM2"},{"awardID":"00058025","lat":"-0.60467","lon":"30.64851","name":"Mbarara","precision":"3","type":"PPLA"},{"awardID":"00058025","lat":"0.66174","lon":"30.2748","name":"Fort Portal","precision":"3","type":"PPLA2"},{"awardID":"00058025","lat":"0.43902","lon":"33.20317","name":"Jinja","precision":"3","type":"PPLA"},{"awardID":"00058025","lat":"1.08209","lon":"34.17503","name":"Mbale","precision":"3","type":"PPLA2"}],"title":"UNDP-JOINT HIV/AIDS PROGRAMME"},{"id":"00051185","subnational":[{"awardID":"00051185","lat":"2","lon":"33","name":"Uganda","precision":"9","type":"PCL"}],"title":"Youth Civil Society Empowerment - Uganda"},{"id":"00061407","subnational":[{"awardID":"00061407","lat":"2.75","lon":"33.75","name":"Abim","precision":"3","type":"ADM2"},{"awardID":"00061407","lat":"1.80626","lon":"34.9278","name":"Amudat","precision":"3","type":"ADM2"},{"awardID":"00061407","lat":"3.58333","lon":"34","name":"Kaabong","precision":"3","type":"ADM2"},{"awardID":"00061407","lat":"3","lon":"34.1","name":"Kotido","precision":"3","type":"ADM2"},{"awardID":"00061407","lat":"2.6389","lon":"34.64395","name":"Moroto","precision":"3","type":"ADM2"},{"awardID":"00061407","lat":"1.90718","lon":"34.59601","name":"Nakapiripirit","precision":"3","type":"ADM2"},{"awardID":"00061407","lat":"2.38153","lon":"34.16834","name":"Napak","precision":"3","type":"ADM2"}],"title":"Youth Empowerment in Karamoja"}]}