{"iso_num": null, "projects": [{"title": "low emission capacity building project", "id": "00061683", "subnational": [{"outputID": "00078274", "output_locID": "00078274-1", "name": "Kampala", "focus_area": "1", "lat": "0.316280", "type": "PPLC", "awardID": "00061683", "lon": "32.582190", "precision": "1", "focus_area_descr": "Inclusive Growth"}, {"outputID": "00100062", "output_locID": "00100062-1", "name": "Kampala", "focus_area": "1", "lat": "0.316280", "type": "PPLC", "awardID": "00061683", "lon": "32.582190", "precision": "1", "focus_area_descr": "Inclusive Growth"}, {"outputID": "00106127", "output_locID": "00106127-1", "name": "Kampala", "focus_area": "1", "lat": "0.316280", "type": "PPLC", "awardID": "00061683", "lon": "32.582190", "precision": "1", "focus_area_descr": "Inclusive Growth"}]}, {"title": "ecosystem based adaptation in mountain ecosystems", "id": "00063035", "subnational": [{"outputID": "00080337", "output_locID": "00080337-1", "name": "Kampala", "focus_area": "5", "lat": "0.316280", "type": "PPLC", "awardID": "00063035", "lon": "32.582190", "precision": "1", "focus_area_descr": "Risk Reduction"}]}, {"title": "development effectiveness-uganda", "id": "00064569", "subnational": [{"outputID": "00081301", "output_locID": "00081301-1", "name": "Kampala", "focus_area": "9", "lat": "0.316280", "type": "PPLC", "awardID": "00064569", "lon": "32.582190", "precision": "1", "focus_area_descr": "Organizational Results Area 2"}]}, {"title": "national capacities for mediation, dialogue&negotiation", "id": "00070364", "subnational": [{"outputID": "00090708", "output_locID": "00090708-1", "name": "Kampala", "focus_area": "2", "lat": "0.316280", "type": "PPLC", "awardID": "00070364", "lon": "32.582190", "precision": "1", "focus_area_descr": "Democratic Governance"}]}, {"title": "pulse lab/rc coordination", "id": "00072037", "subnational": [{"outputID": "00085278", "output_locID": "00085278-1", "name": "Kampala", "focus_area": "7", "lat": "0.316280", "type": "PPLC", "awardID": "00072037", "lon": "32.582190", "precision": "1", "focus_area_descr": "Thought Leadership"}]}, {"title": "kidepo conservation project", "id": "00072558", "subnational": [{"outputID": "00085611", "output_locID": "00085611-1", "name": "Kidepo National Park", "focus_area": "5", "lat": "3.809190", "type": "PRK", "awardID": "00072558", "lon": "33.631870", "precision": "1", "focus_area_descr": "Risk Reduction"}]}, {"title": "local development and social cohesion in northern uganda", "id": "00073876", "subnational": [{"outputID": "00086488", "output_locID": "00086488-1", "name": "Aswa County", "focus_area": "1", "lat": "3.000000", "type": "ADM3", "awardID": "00073876", "lon": "32.500000", "precision": "1", "focus_area_descr": "Inclusive Growth"}, {"outputID": "00084738", "output_locID": "00084738-1", "name": "Aswa County", "focus_area": "1", "lat": "3.000000", "type": "ADM3", "awardID": "00073876", "lon": "32.500000", "precision": "1", "focus_area_descr": "Inclusive Growth"}]}, {"title": "improved charcoal production technologies", "id": "00074620", "subnational": [{"outputID": "00086931", "output_locID": "00086931-1", "name": "Kampala", "focus_area": "1", "lat": "0.316280", "type": "PPLC", "awardID": "00074620", "lon": "32.582190", "precision": "1", "focus_area_descr": "Inclusive Growth"}]}, {"title": "early warning system", "id": "00076999", "subnational": [{"outputID": "00088073", "output_locID": "00088073-1", "name": "Kampala", "focus_area": "5", "lat": "0.316280", "type": "PPLC", "awardID": "00076999", "lon": "32.582190", "precision": "1", "focus_area_descr": "Risk Reduction"}]}, {"title": "integrated landscape management for improved livelihoods", "id": "00088957", "subnational": [{"outputID": "00095404", "output_locID": "00095404-1", "name": "Kampala", "focus_area": "1", "lat": "0.316280", "type": "PPLC", "awardID": "00088957", "lon": "32.582190", "precision": "1", "focus_area_descr": "Inclusive Growth"}]}, {"title": "un-redd national programme in uganda", "id": "00089380", "subnational": [{"outputID": "00095648", "output_locID": "00095648-1", "name": "Kampala", "focus_area": "5", "lat": "0.316280", "type": "PPLC", "awardID": "00089380", "lon": "32.582190", "precision": "1", "focus_area_descr": "Risk Reduction"}]}, {"title": "ppg sustain. and resilience for food security-karamoja", "id": "00090335", "subnational": [{"outputID": "00096149", "output_locID": "00096149-1", "name": "Kampala", "focus_area": "1", "lat": "0.316280", "type": "PPLC", "awardID": "00090335", "lon": "32.582190", "precision": "1", "focus_area_descr": "Inclusive Growth"}]}, {"title": "peace and security for systems resilience", "id": "00092215", "subnational": [{"outputID": "00097030", "output_locID": "00097030-1", "name": "Kampala", "focus_area": "5", "lat": "0.316280", "type": "PPLC", "awardID": "00092215", "lon": "32.582190", "precision": "1", "focus_area_descr": "Risk Reduction"}, {"outputID": "00101608", "output_locID": "00101608-1", "name": "Moyo District", "focus_area": "5", "lat": "3.650000", "type": "ADM2", "awardID": "00092215", "lon": "31.720000", "precision": "1", "focus_area_descr": "Risk Reduction"}, {"outputID": "00101608", "output_locID": "00101608-2", "name": "Yumbe District", "focus_area": "5", "lat": "3.523540", "type": "ADM2", "awardID": "00092215", "lon": "31.282430", "precision": "1", "focus_area_descr": "Risk Reduction"}]}, {"title": "institutional effectiveness programme", "id": "00092241", "subnational": [{"outputID": "00097040", "output_locID": "00097040-1", "name": "Kampala", "focus_area": "2", "lat": "0.316280", "type": "PPLC", "awardID": "00092241", "lon": "32.582190", "precision": "1", "focus_area_descr": "Democratic Governance"}, {"outputID": "00103193", "output_locID": "00103193-1", "name": "Kampala", "focus_area": "2", "lat": "0.316280", "type": "PPLC", "awardID": "00092241", "lon": "32.582190", "precision": "1", "focus_area_descr": "Democratic Governance"}, {"outputID": "00105911", "output_locID": "00105911-1", "name": "Kampala", "focus_area": "2", "lat": "0.316280", "type": "PPLC", "awardID": "00092241", "lon": "32.582190", "precision": "1", "focus_area_descr": "Democratic Governance"}]}, {"title": "climate change resilience and drr", "id": "00092244", "subnational": [{"outputID": "00097049", "output_locID": "00097049-1", "name": "Kampala", "focus_area": "5", "lat": "0.316280", "type": "PPLC", "awardID": "00092244", "lon": "32.582190", "precision": "1", "focus_area_descr": "Risk Reduction"}]}, {"title": "rule of law and constitutional democracy (rlcd)", "id": "00092245", "subnational": [{"outputID": "00097050", "output_locID": "00097050-1", "name": "Kampala", "focus_area": "2", "lat": "0.316280", "type": "PPLC", "awardID": "00092245", "lon": "32.582190", "precision": "1", "focus_area_descr": "Democratic Governance"}, {"outputID": "00097050", "output_locID": "00097050-2", "name": "Gulu District", "focus_area": "2", "lat": "2.856040", "type": "ADM2", "awardID": "00092245", "lon": "32.430010", "precision": "1", "focus_area_descr": "Democratic Governance"}, {"outputID": "00097050", "output_locID": "00097050-3", "name": "Soroti", "focus_area": "2", "lat": "1.701960", "type": "ADM4", "awardID": "00092245", "lon": "33.638230", "precision": "1", "focus_area_descr": "Democratic Governance"}]}, {"title": "inclusive green growth", "id": "00092356", "subnational": [{"outputID": "00097104", "output_locID": "00097104-1", "name": "Kampala", "focus_area": "1", "lat": "0.316280", "type": "PPLC", "awardID": "00092356", "lon": "32.582190", "precision": "1", "focus_area_descr": "Inclusive Growth"}, {"outputID": "00104667", "output_locID": "00104667-1", "name": "Moyo District", "focus_area": "1", "lat": "3.650000", "type": "ADM2", "awardID": "00092356", "lon": "31.720000", "precision": "1", "focus_area_descr": "Inclusive Growth"}, {"outputID": "00104667", "output_locID": "00104667-2", "name": "Isingiro District", "focus_area": "1", "lat": "-0.833540", "type": "ADM2", "awardID": "00092356", "lon": "30.871750", "precision": "1", "focus_area_descr": "Inclusive Growth"}, {"outputID": "00104667", "output_locID": "00104667-3", "name": "Yumbe Town Council", "focus_area": "1", "lat": "3.470760", "type": "ADM4", "awardID": "00092356", "lon": "31.250610", "precision": "1", "focus_area_descr": "Inclusive Growth"}]}, {"title": "capacity for rio convention implementation-pims9335", "id": "00101752", "subnational": [{"outputID": "00104050", "output_locID": "00104050-1", "name": "Kampala", "focus_area": "1", "lat": "0.316280", "type": "PPLC", "awardID": "00101752", "lon": "32.582190", "precision": "1", "focus_area_descr": "Inclusive Growth"}]}, {"title": "building resilient communities, wetland ecosystems and", "id": "00104372", "subnational": [{"outputID": "00105972", "output_locID": "00105972-1", "name": "Kampala", "focus_area": "1", "lat": "0.316280", "type": "PPLC", "awardID": "00104372", "lon": "32.582190", "precision": "1", "focus_area_descr": "Inclusive Growth"}]}, {"title": "management plan", "id": "00027131", "subnational": [{"outputID": "00027575", "output_locID": "00027575-1", "name": "Kampala", "focus_area": "9", "lat": "0.316280", "type": "PPLC", "awardID": "00027131", "lon": "32.582190", "precision": "1", "focus_area_descr": "Organizational Results Area 2"}]}, {"title": "uga06110 deepening democratic process", "id": "00043023", "subnational": [{"outputID": "00051577", "output_locID": "00051577-1", "name": "Kampala", "focus_area": "-", "lat": "0.316280", "type": "PPLC", "awardID": "00043023", "lon": "32.582190", "precision": "1", "focus_area_descr": "-"}]}, {"title": "youth civil society empowerment - uganda", "id": "00051185", "subnational": [{"outputID": "00063592", "output_locID": "00063592-1", "name": "Kampala", "focus_area": "3", "lat": "0.316280", "type": "PPLC", "awardID": "00051185", "lon": "32.582190", "precision": "1", "focus_area_descr": "Basic Services"}]}, {"title": "unaids-uga-joint hiv/aids programme", "id": "00058042", "subnational": [{"outputID": "00071931", "output_locID": "00071931-1", "name": "Kampala", "focus_area": "14", "lat": "0.316280", "type": "PPLC", "awardID": "00058042", "lon": "32.582190", "precision": "1", "focus_area_descr": "Organizational Results Area 7"}]}, {"title": "undp support to the un gender joint programme", "id": "00059780", "subnational": [{"outputID": "00074930", "output_locID": "00074930-1", "name": "Kampala", "focus_area": "4", "lat": "0.316280", "type": "PPLC", "awardID": "00059780", "lon": "32.582190", "precision": "1", "focus_area_descr": "Gender Equality"}]}, {"title": "oversight functions for service delivery", "id": "00062243", "subnational": [{"outputID": "00079647", "output_locID": "00079647-1", "name": "Kampala", "focus_area": "2", "lat": "0.316280", "type": "PPLC", "awardID": "00062243", "lon": "32.582190", "precision": "1", "focus_area_descr": "Democratic Governance"}, {"outputID": "00085364", "output_locID": "00085364-1", "name": "Kampala", "focus_area": "3", "lat": "0.316280", "type": "PPLC", "awardID": "00062243", "lon": "32.582190", "precision": "1", "focus_area_descr": "Basic Services"}]}, {"title": "support for development of inclusive markets in tourism", "id": "00062245", "subnational": [{"outputID": "00079649", "output_locID": "00079649-1", "name": "Kampala", "focus_area": "1", "lat": "0.316280", "type": "PPLC", "awardID": "00062245", "lon": "32.582190", "precision": "1", "focus_area_descr": "Inclusive Growth"}]}, {"title": "improving policies and strategies for environment", "id": "00062247", "subnational": [{"outputID": "00079652", "output_locID": "00079652-1", "name": "Kampala", "focus_area": "2", "lat": "0.316280", "type": "PPLC", "awardID": "00062247", "lon": "32.582190", "precision": "1", "focus_area_descr": "Democratic Governance"}]}, {"title": "capacity for evidence based analytical studies", "id": "00063265", "subnational": [{"outputID": "00080489", "output_locID": "00080489-1", "name": "Kampala", "focus_area": "1", "lat": "0.316280", "type": "PPLC", "awardID": "00063265", "lon": "32.582190", "precision": "1", "focus_area_descr": "Inclusive Growth"}]}, {"title": "capacity for aid effectiveness", "id": "00063267", "subnational": [{"outputID": "00080490", "output_locID": "00080490-1", "name": "Kampala", "focus_area": "7", "lat": "0.316280", "type": "PPLC", "awardID": "00063267", "lon": "32.582190", "precision": "1", "focus_area_descr": "Thought Leadership"}, {"outputID": "00080490", "output_locID": "00080490-2", "name": "Kampala", "focus_area": "7", "lat": "0.316280", "type": "PPLC", "awardID": "00063267", "lon": "32.582190", "precision": "1", "focus_area_descr": "Thought Leadership"}]}, {"title": "policies/regulations for markets in tourism", "id": "00064827", "subnational": [{"outputID": "00081477", "output_locID": "00081477-1", "name": "Kampala", "focus_area": "1", "lat": "0.316280", "type": "PPLC", "awardID": "00064827", "lon": "32.582190", "precision": "1", "focus_area_descr": "Inclusive Growth"}]}, {"title": "strengthening ug. disaster preparedness & mgt cap", "id": "00067513", "subnational": [{"outputID": "00086868", "output_locID": "00086868-1", "name": "Aswa County", "focus_area": "5", "lat": "3.000000", "type": "ADM3", "awardID": "00067513", "lon": "32.500000", "precision": "1", "focus_area_descr": "Risk Reduction"}]}, {"title": "enhancing adoption of climate smart agriculturein uganda", "id": "00080345", "subnational": [{"outputID": "00090071", "output_locID": "00090071-1", "name": "Kampala", "focus_area": "5", "lat": "0.316280", "type": "PPLC", "awardID": "00080345", "lon": "32.582190", "precision": "1", "focus_area_descr": "Risk Reduction"}]}, {"title": "nama on integrated waste management and biogas in uganda", "id": "00090860", "subnational": [{"outputID": "00096429", "output_locID": "00096429-1", "name": "Kampala", "focus_area": "5", "lat": "0.316280", "type": "PPLC", "awardID": "00090860", "lon": "32.582190", "precision": "1", "focus_area_descr": "Risk Reduction"}]}, {"title": "ppg implementation of rio convention", "id": "00094359", "subnational": [{"outputID": "00098469", "output_locID": "00098469-1", "name": "Kampala", "focus_area": "5", "lat": "0.316280", "type": "PPLC", "awardID": "00094359", "lon": "32.582190", "precision": "1", "focus_area_descr": "Risk Reduction"}]}, {"title": "undp-joint hiv/aids programme", "id": "00058025", "subnational": [{"outputID": "00071910", "output_locID": "00071910-1", "name": "Mbarara", "focus_area": "3", "lat": "-0.604670", "type": "PPLA", "awardID": "00058025", "lon": "30.648510", "precision": "1", "focus_area_descr": "Basic Services"}, {"outputID": "00071910", "output_locID": "00071910-2", "name": "Mbale", "focus_area": "3", "lat": "1.082090", "type": "PPLA2", "awardID": "00058025", "lon": "34.175030", "precision": "1", "focus_area_descr": "Basic Services"}, {"outputID": "00071910", "output_locID": "00071910-3", "name": "Jinja", "focus_area": "3", "lat": "0.439020", "type": "PPLA", "awardID": "00058025", "lon": "33.203170", "precision": "1", "focus_area_descr": "Basic Services"}, {"outputID": "00071910", "output_locID": "00071910-4", "name": "Fort Portal", "focus_area": "3", "lat": "0.661740", "type": "PPLA2", "awardID": "00058025", "lon": "30.274800", "precision": "1", "focus_area_descr": "Basic Services"}, {"outputID": "00071910", "output_locID": "00071910-5", "name": "Kabale District", "focus_area": "3", "lat": "-1.207740", "type": "ADM2", "awardID": "00058025", "lon": "29.985880", "precision": "1", "focus_area_descr": "Basic Services"}]}, {"title": "pims 3227enabling env. for slm to overcome land degrad'n", "id": "00058105", "subnational": [{"outputID": "00072031", "output_locID": "00072031-1", "name": "Luwero District", "focus_area": "1", "lat": "0.820000", "type": "ADM2", "awardID": "00058105", "lon": "32.614000", "precision": "1", "focus_area_descr": "Inclusive Growth"}, {"outputID": "00072031", "output_locID": "00072031-2", "name": "Nakasongola District", "focus_area": "1", "lat": "1.389030", "type": "ADM2", "awardID": "00058105", "lon": "32.416080", "precision": "1", "focus_area_descr": "Inclusive Growth"}]}, {"title": "promoting civic &political participation of women& youth", "id": "00059425", "subnational": [{"outputID": "00074299", "output_locID": "00074299-1", "name": "Kampala", "focus_area": "2", "lat": "0.316280", "type": "PPLC", "awardID": "00059425", "lon": "32.582190", "precision": "1", "focus_area_descr": "Democratic Governance"}]}, {"title": "peace building fund undp", "id": "00061509", "subnational": [{"outputID": "00077934", "output_locID": "00077934-1", "name": "Aswa County", "focus_area": "1", "lat": "3.000000", "type": "ADM3", "awardID": "00061509", "lon": "32.500000", "precision": "1", "focus_area_descr": "Inclusive Growth"}]}, {"title": "peace building through justice for all and human rights", "id": "00061861", "subnational": [{"outputID": "00078872", "output_locID": "00078872-1", "name": "Kampala", "focus_area": "3", "lat": "0.316280", "type": "PPLC", "awardID": "00061861", "lon": "32.582190", "precision": "1", "focus_area_descr": "Basic Services"}]}, {"title": "diaspora resource mobilization", "id": "00062240", "subnational": [{"outputID": "00079644", "output_locID": "00079644-1", "name": "Kampala", "focus_area": "7", "lat": "0.316280", "type": "PPLC", "awardID": "00062240", "lon": "32.582190", "precision": "1", "focus_area_descr": "Thought Leadership"}]}, {"title": "institutional frameworks-service delivery", "id": "00062241", "subnational": [{"outputID": "00079645", "output_locID": "00079645-1", "name": "Kampala", "focus_area": "3", "lat": "0.316280", "type": "PPLC", "awardID": "00062241", "lon": "32.582190", "precision": "1", "focus_area_descr": "Basic Services"}, {"outputID": "00079645", "output_locID": "00079645-2", "name": "Kampala", "focus_area": "3", "lat": "0.316280", "type": "PPLC", "awardID": "00062241", "lon": "32.582190", "precision": "1", "focus_area_descr": "Basic Services"}]}, {"title": "promoting chemical safety for children at work", "id": "00062527", "subnational": [{"outputID": "00080060", "output_locID": "00080060-1", "name": "Kampala", "focus_area": "5", "lat": "0.316280", "type": "PPLC", "awardID": "00062527", "lon": "32.582190", "precision": "1", "focus_area_descr": "Risk Reduction"}]}, {"title": "national development plan (2015-2020)", "id": "00070394", "subnational": [{"outputID": "00084410", "output_locID": "00084410-1", "name": "Kampala", "focus_area": "7", "lat": "0.316280", "type": "PPLC", "awardID": "00070394", "lon": "32.582190", "precision": "1", "focus_area_descr": "Thought Leadership"}]}, {"title": "support to un coordination office", "id": "00046225", "subnational": []}, {"title": "chemicals management approach", "id": "00047941", "subnational": []}, {"title": "northern uganda early recovery in-lira & oyam districts", "id": "00058469", "subnational": []}, {"title": "natural and energy resource management", "id": "00060230", "subnational": []}, {"title": "development of inclusive markets in agriculture&trade", "id": "00062246", "subnational": []}, {"title": "pilot initiatives projects-environment", "id": "00062248", "subnational": []}, {"title": "improved livelihoods and resilience in mt elgon", "id": "00082107", "subnational": []}, {"title": "extending wetland protected areas community conservation", "id": "00046813", "subnational": []}, {"title": "youth empowerment in karamoja", "id": "00061407", "subnational": []}, {"title": "gender budget project for northern uganda", "id": "00061769", "subnational": []}, {"title": "improved charcoal production &sustainable land managemen", "id": "00063036", "subnational": []}, {"title": "poverty reduction for communities affected by war", "id": "00071034", "subnational": []}, {"title": "uga04204 enterprise uganda", "id": "00036517", "subnational": []}, {"title": "transition and recovery programme", "id": "00036601", "subnational": []}, {"title": "mine action programme", "id": "00039067", "subnational": []}, {"title": "uga05303 secure environment for recovery and development", "id": "00041294", "subnational": []}, {"title": "mdg country report", "id": "00044885", "subnational": []}, {"title": "project initiation plan growth& poverty", "id": "00060547", "subnational": []}, {"title": "pid for kidepo conservation project", "id": "00062107", "subnational": []}, {"title": "deepening democratic processes3 (ddp 3)", "id": "00043126", "subnational": []}, {"title": "uga07200pims 449 bd full: cons of biod -albrtne rft frst", "id": "00043885", "subnational": []}, {"title": "national human development report", "id": "00045044", "subnational": []}, {"title": "support to programme management implementation", "id": "00057000", "subnational": []}, {"title": "initiation plan - accountable democratic governance", "id": "00060542", "subnational": []}, {"title": "hiv/aids mainstreaming", "id": "00049828", "subnational": []}, {"title": "income generation and sustainable livelihoods", "id": "00015078", "subnational": []}, {"title": "joint un hiv/aids programme", "id": "00049032", "subnational": []}, {"title": "juba peace process", "id": "00050715", "subnational": []}, {"title": "national urban policy development support", "id": "00056999", "subnational": []}, {"title": "preparatory assistance to ministry of foreign affairs", "id": "00057035", "subnational": []}, {"title": "relocation -new premises", "id": "00061431", "subnational": []}, {"title": "sexual and gender based violence project", "id": "00042004", "subnational": []}, {"title": "support to transparency and accountability project", "id": "00043128", "subnational": []}, {"title": "un joint programme on value chain development in uganda", "id": "00059500", "subnational": []}, {"title": "undp-gulu sub office support", "id": "00043605", "subnational": []}, {"title": "undp-lira sub office support", "id": "00044414", "subnational": []}], "op_unit": "UGA"}