{"budget":[1657627.0],"document_name":[["Prodoc nouveau Penraf.pdf"],["http://www.undp.org/content/dam/undp/documents/projects/MLI/00013615/Prodoc nouveau Penraf.pdf"]],"end":"2014-12-31","expenditure":[597622.0],"fiscal_year":["2013","2012","2011","2010"],"iati_op_id":"ML","inst_descr":"","inst_id":"","inst_type_id":"","operating_unit":"Mali","operating_unit_email":"registry.ml@undp.org","operating_unit_id":"MLI","operating_unit_website":"http://www.ml.undp.org/","outputs":[{"award_id":"00013615","budget":[150795.0,340612.0,1166220.0,null],"crs":"41010","crs_descr":"Environmental policy and administrative management","donor_id":["00012","00167"],"donor_name":["Voluntary Contributions","GOVERNMENT OF MALI"],"donor_short":["UNDP","MLI"],"expenditure":[108355.0,174633.0,192606.0,122028.0],"fiscal_year":["2013","2012","2011","2010"],"focus_area":"4","focus_area_descr":"Environment & sustainable development","gender_descr":"Gender Equality","gender_id":"1","output_descr":"Le projet vise \u00e0 mettre en place une strat\u00e9gie de promotion des ENR, r\u00e9duire la pression sur le couvert v\u00e9g\u00e9tal et l'environnement, et augmenter les revenus en particulier des femmes.","output_id":"00013615","output_title":"PENRAF"}],"project_descr":"Promotion des Energie Nouvelles Et Renouvelables  pour L'avancement de la Femme","project_id":"00013615","project_title":"PENRAF","region_id":"RBA","start":"2004-01-01","subnational":[{"awardID":"00013615","focus_area":"4","focus_area_descr":"Environment & sustainable development","lat":"16.27167","lon":"-0.04472","name":"Gao","outputID":"00013615","output_locID":"00013615-1","precision":"3","type":"PPLA"},{"awardID":"00013615","focus_area":"4","focus_area_descr":"Environment & sustainable development","lat":"18.44111","lon":"1.40778","name":"Kidal","outputID":"00013615","output_locID":"00013615-2","precision":"3","type":"PPLA"},{"awardID":"00013615","focus_area":"4","focus_area_descr":"Environment & sustainable development","lat":"12.86273","lon":"-7.55985","name":"Koulikoro","outputID":"00013615","output_locID":"00013615-3","precision":"3","type":"PPLA"},{"awardID":"00013615","focus_area":"4","focus_area_descr":"Environment & sustainable development","lat":"14.4843","lon":"-4.18296","name":"Mopti","outputID":"00013615","output_locID":"00013615-4","precision":"3","type":"PPLA"},{"awardID":"00013615","focus_area":"4","focus_area_descr":"Environment & sustainable development","lat":"14.44693","lon":"-11.44448","name":"Regions de Kayes","outputID":"00013615","output_locID":"00013615-5","precision":"3","type":"PPLA"},{"awardID":"00013615","focus_area":"4","focus_area_descr":"Environment & sustainable development","lat":"13.4317","lon":"-6.2157","name":"Segou","outputID":"00013615","output_locID":"00013615-6","precision":"3","type":"PPLA"},{"awardID":"00013615","focus_area":"4","focus_area_descr":"Environment & sustainable development","lat":"11.31755","lon":"-5.66654","name":"Sikasso","outputID":"00013615","output_locID":"00013615-7","precision":"3","type":"PPLA"},{"awardID":"00013615","focus_area":"4","focus_area_descr":"Environment & sustainable development","lat":"18.54778","lon":"-2.33417","name":"Tombouctou","outputID":"00013615","output_locID":"00013615-8","precision":"4","type":"ADM1"}]}