{"budget":[180146.0],"document_name":[["Project Document BR signed_2003-2006.pdf"],["http://www.undp.org/content/dam/undp/documents/projects/ROU/00014599/Project Document BR signed_2003-2006.pdf"]],"end":"2013-12-31","expenditure":[77512.0],"fiscal_year":["2013","2012","2011","2010"],"iati_op_id":"RO","inst_descr":"GOVERNMENT","inst_id":"02631","inst_type_id":"10","operating_unit":"Romania","operating_unit_email":"office.ro@undp.org","operating_unit_id":"ROU","operating_unit_website":"http://www.undp.ro/","outputs":[{"award_id":"00014599","budget":[3163.0,50866.0,126117.0,null],"crs":"41010","crs_descr":"Environmental policy and administrative management","donor_id":["00012","00587","01256","01278"],"donor_name":["Voluntary Contributions","ROM-ALBA IULIA MUNICIPALITY","ROM-OTHER LOCAL AUTHORITIES","ROM-MINISTRY OF CULTURE & RELI"],"donor_short":["UNDP","AIM","LOCA"],"expenditure":[11.0,37757.0,22531.0,17213.0],"fiscal_year":["2013","2012","2011","2010"],"focus_area":"4","focus_area_descr":"Environment & sustainable development","gender_descr":"Gender Equality","gender_id":"1","output_descr":"The project aims to generate an economic sustainable development through a process of urban revitalization of neglected or degraded historical city centres while initiating employment and social inclusion and job creation for vulnerable groups or youth unemployed in the target areas.","output_id":"00014599","output_title":"Beautiful Romania"}],"project_descr":"Generate an economic sustainable development through a process of urban revitalization of neglected or degraded historical city centres while initiating employment, social inclusion and job creation for vulnerable groups or youth unemployed","project_id":"00014599","project_title":"Beautiful Romania","region_id":"RBEC","start":"2001-06-01","subnational":[{"awardID":"00014599","focus_area":"4","focus_area_descr":"Environment & sustainable development","lat":"46.06667","lon":"23.58333","name":"Alba Iulia, Romania","outputID":"00014599","output_locID":"00014599-1","precision":"3","type":"PPLA"},{"awardID":"00014599","focus_area":"4","focus_area_descr":"Environment & sustainable development","lat":"47.13316","lon":"24.50011","name":"Bistrita, Romania","outputID":"00014599","output_locID":"00014599-2","precision":"3","type":"PPLA"},{"awardID":"00014599","focus_area":"4","focus_area_descr":"Environment & sustainable development","lat":"45.26667","lon":"27.98333","name":"Braila, Romania","outputID":"00014599","output_locID":"00014599-3","precision":"3","type":"PPLA"},{"awardID":"00014599","focus_area":"4","focus_area_descr":"Environment & sustainable development","lat":"45.64861","lon":"25.60613","name":"Brasov, Romania","outputID":"00014599","output_locID":"00014599-4","precision":"3","type":"PPLA"},{"awardID":"00014599","focus_area":"4","focus_area_descr":"Environment & sustainable development","lat":"44.43225","lon":"26.10626","name":"Bucuresti, Romania","outputID":"00014599","output_locID":"00014599-5","precision":"3","type":"PPLC"},{"awardID":"00014599","focus_area":"4","focus_area_descr":"Environment & sustainable development","lat":"44.31667","lon":"23.8","name":"Craiova, Romania","outputID":"00014599","output_locID":"00014599-6","precision":"3","type":"PPLA"},{"awardID":"00014599","focus_area":"4","focus_area_descr":"Environment & sustainable development","lat":"46.16667","lon":"24.35","name":"Medias, Romania","outputID":"00014599","output_locID":"00014599-7","precision":"3","type":"PPLA2"},{"awardID":"00014599","focus_area":"4","focus_area_descr":"Environment & sustainable development","lat":"46.35","lon":"25.8","name":"Miercurea Ciuc, Romania","outputID":"00014599","output_locID":"00014599-8","precision":"3","type":"PPL"},{"awardID":"00014599","focus_area":"4","focus_area_descr":"Environment & sustainable development","lat":"45.8","lon":"24.15","name":"Sibiu, Romania","outputID":"00014599","output_locID":"00014599-9","precision":"3","type":"PPLA"},{"awardID":"00014599","focus_area":"4","focus_area_descr":"Environment & sustainable development","lat":"46.22816","lon":"24.77927","name":"Sighisoara, Romania","outputID":"00014599","output_locID":"00014599-10","precision":"3","type":"ADM2"},{"awardID":"00014599","focus_area":"4","focus_area_descr":"Environment & sustainable development","lat":"45.15608","lon":"29.65197","name":"Sulina, Romania","outputID":"00014599","output_locID":"00014599-11","precision":"3","type":"ADM2"},{"awardID":"00014599","focus_area":"4","focus_area_descr":"Environment & sustainable development","lat":"44.92543","lon":"25.4567","name":"Targoviste","outputID":"00014599","output_locID":"00014599-12","precision":"3","type":"PPLA"}]}