{"project_descr": "Promotion des Energie Nouvelles Et Renouvelables  pour L'avancement de la Femme", "fiscal_year": [2014, 2010, 2011, 2012, 2013], "end": "2014-12-31", "region_id": "RBA", "operating_unit_email": "registry.ml@undp.org", "inst_id": "", "outputs": [{"output_id": "00013615", "crs": "41010", "donor_id": ["00012", "00167"], "focus_area": "4", "gender_descr": "Gender Equality", "output_title": "PENRAF", "budget": [0.0, 1166220.0, 340612.0, 150795.0, 209224.0], "fiscal_year": [2010, 2011, 2012, 2013, 2014], "gender_id": "1", "donor_name": ["Voluntary Contributions", "GOVERNMENT OF MALI"], "award_id": "00013615", "output_descr": "La phase actuelle a pour objectif de consolider les acquis dans le domaine de la promotion des ENR pour l'avancement des femmes dans les r\u00e9gions de Koulikoro S\u00e9gou Sikasso avec extension dans la r\u00e9gion de Mopti selon une approche participative.", "donor_short": ["UNDP", "MLI"], "expenditure": [122028.0, 192606.0, 174633.0, 115051.0, 188094.0], "crs_descr": "Environmental policy and administrative management", "focus_area_descr": "Environment & sustainable development"}], "subnational": [{"outputID": "00013615", "output_locID": "00013615-1", "name": "Gao", "focus_area": "4", "lat": "16.27167", "type": "PPLA", "awardID": "00013615", "lon": "-0.04472", "precision": "3", "focus_area_descr": "Environment & sustainable development"}, {"outputID": "00013615", "output_locID": "00013615-2", "name": "Kidal", "focus_area": "4", "lat": "18.44111", "type": "PPLA", "awardID": "00013615", "lon": "1.40778", "precision": "3", "focus_area_descr": "Environment & sustainable development"}, {"outputID": "00013615", "output_locID": "00013615-3", "name": "Koulikoro", "focus_area": "4", "lat": "12.86273", "type": "PPLA", "awardID": "00013615", "lon": "-7.55985", "precision": "3", "focus_area_descr": "Environment & sustainable development"}, {"outputID": "00013615", "output_locID": "00013615-4", "name": "Mopti", "focus_area": "4", "lat": "14.4843", "type": "PPLA", "awardID": "00013615", "lon": "-4.18296", "precision": "3", "focus_area_descr": "Environment & sustainable development"}, {"outputID": "00013615", "output_locID": "00013615-5", "name": "Regions de Kayes", "focus_area": "4", "lat": "14.44693", "type": "PPLA", "awardID": "00013615", "lon": "-11.44448", "precision": "3", "focus_area_descr": "Environment & sustainable development"}, {"outputID": "00013615", "output_locID": "00013615-6", "name": "Segou", "focus_area": "4", "lat": "13.4317", "type": "PPLA", "awardID": "00013615", "lon": "-6.2157", "precision": "3", "focus_area_descr": "Environment & sustainable development"}, {"outputID": "00013615", "output_locID": "00013615-7", "name": "Sikasso", "focus_area": "4", "lat": "11.31755", "type": "PPLA", "awardID": "00013615", "lon": "-5.66654", "precision": "3", "focus_area_descr": "Environment & sustainable development"}, {"outputID": "00013615", "output_locID": "00013615-8", "name": "Tombouctou", "focus_area": "4", "lat": "18.54778", "type": "ADM1", "awardID": "00013615", "lon": "-2.33417", "precision": "4", "focus_area_descr": "Environment & sustainable development"}], "operating_unit": "Mali", "budget": 1866851.0, "iati_op_id": "ML", "inst_descr": "", "start": "2004-01-01", "operating_unit_id": "MLI", "expenditure": 792412.0, "document_name": [["00013615_Prodoc nouveau Penraf.pdf", "MLI"], ["http://www.undp.org/content/dam/undp/documents/projects/MLI/00013615_Prodoc nouveau Penraf.pdf", "http://www.undp.org/content/dam/undp/documents/IATI/Contract/MLI.xlsx"]], "project_id": "00013615", "inst_type_id": "", "operating_unit_website": "http://www.ml.undp.org/", "project_title": "penraf"}