{"project_descr": "Conservation of the Asiatic Cheetah, its Natural Habitat and Associated Biota in the I. R. of Iran", "fiscal_year": [2015, 2012, 2013, 2014], "end": "2015-12-31", "region_id": "RBAP", "operating_unit_email": "communications.ir@undp.org", "inst_id": " ", "outputs": [{"output_id": "00070602", "crs": "23010", "donor_id": ["00012"], "focus_area": "1", "gender_descr": "Gender Equality", "output_title": "Asiatic Cheetah Phase II", "budget": [32442.0, 36137.0, 120579.0, 140800.0], "fiscal_year": [2012, 2013, 2014, 2015], "gender_id": "1", "donor_name": ["Voluntary Contributions"], "award_id": "00013102", "output_descr": "Conservation of the Asiatic Cheetah", "donor_short": ["UNDP"], "expenditure": [0.0, 36137.0, 91832.0, 26979.0], "crs_descr": null, "focus_area_descr": "Inclusive & Sustainable Growth"}], "subnational": [{"outputID": "00070602", "output_locID": "00070602-1", "name": "Ostan-e Esfahan", "focus_area": "1", "lat": "33.000000", "type": "ADM1", "awardID": "00013102", "lon": "52.166670", "precision": "1", "focus_area_descr": "Inclusive & Sustainable Growth"}, {"outputID": "00070602", "output_locID": "00070602-2", "name": "Ostan-e Esfahan", "focus_area": "1", "lat": "33.000000", "type": "ADM1", "awardID": "00013102", "lon": "52.166670", "precision": "1", "focus_area_descr": "Inclusive & Sustainable Growth"}, {"outputID": "00070602", "output_locID": "00070602-3", "name": "Mobarakeh", "focus_area": "1", "lat": "31.624170", "type": "PPL", "awardID": "00013102", "lon": "55.437900", "precision": "1", "focus_area_descr": "Inclusive & Sustainable Growth"}, {"outputID": "00070602", "output_locID": "00070602-4", "name": "Semnan", "focus_area": "1", "lat": "35.576920", "type": "PPLA", "awardID": "00013102", "lon": "53.392050", "precision": "1", "focus_area_descr": "Inclusive & Sustainable Growth"}, {"outputID": "00070602", "output_locID": "00070602-5", "name": "Yazd", "focus_area": "1", "lat": "31.897220", "type": "PPLA", "awardID": "00013102", "lon": "54.367500", "precision": "1", "focus_area_descr": "Inclusive & Sustainable Growth"}, {"outputID": "00070602", "output_locID": "00070602-6", "name": "Shahrud", "focus_area": "1", "lat": "36.418190", "type": "PPL", "awardID": "00013102", "lon": "54.976280", "precision": "1", "focus_area_descr": "Inclusive & Sustainable Growth"}, {"outputID": "00070602", "output_locID": "00070602-7", "name": "Semnan", "focus_area": "1", "lat": "35.576920", "type": "PPLA", "awardID": "00013102", "lon": "53.392050", "precision": "1", "focus_area_descr": "Inclusive & Sustainable Growth"}], "operating_unit": "Iran, Islamic Republic of", "budget": 329958.0, "iati_op_id": "IR", "inst_descr": null, "start": "2001-12-01", "operating_unit_id": "IRN", "expenditure": 154948.0, "document_name": [["00013102_Cheetah phase II Final proposal", "00013102_Conservation of the asiatic cheetah its natural habitat and the associated biota in the IR Iran"], ["http://www.undp.org/content/dam/undp/documents/projects/IRN/00013102_Cheetah phase II Final proposal.pdf", "http://www.undp.org/content/dam/undp/documents/projects/IRN/00013102_Conservation of the asiatic cheetah its natural habitat and the associated biota in the IR Iran.pdf"], ["pdf", "pdf"]], "project_id": "00013102", "inst_type_id": "", "operating_unit_website": "http://www.ir.undp.org/", "project_title": "conservation of the asiatic cheetah"}