{"project_descr": "The project enables the design of effective response measures to improve Kiribati's efforts in conserving biological diversity at national, sub-national and community levels.", "fiscal_year": [2014, 2012], "end": "2012-02-29", "region_id": "RBAP", "operating_unit_email": "registry.fj@undp.org", "inst_id": "01224", "outputs": [{"output_id": "00012649", "crs": "99810", "donor_id": ["10003"], "focus_area": "0", "gender_descr": "Gender Equality", "output_title": "KI Nat.Biodiversity Actn Plan", "budget": [134.0, 823.0], "fiscal_year": [2012, 2014], "gender_id": "1", "donor_name": ["Global Environment Fund Truste"], "award_id": "00012649", "output_descr": "The Kiribati National Biodiversity Strategy &amp; Action Plan (NBSAP) project enables the design of effective response measures to improve Kiribati's efforts in conserving biological diversity at national, sub-national and community levels.", "donor_short": ["GEFTrustee"], "expenditure": [0.0, 0.0], "crs_descr": null, "focus_area_descr": "SP_NONE_APPLIES"}], "subnational": [{"outputID": "00012649", "output_locID": "00012649-1", "name": "Motu Upou", "focus_area": "0", "lat": "1.997860", "type": "ISLET", "awardID": "00012649", "lon": "-157.449790", "precision": "1", "focus_area_descr": "SP_NONE_APPLIES"}, {"outputID": "00012649", "output_locID": "00012649-2", "name": "Motu Tabu", "focus_area": "0", "lat": "1.971530", "type": "ISLET", "awardID": "00012649", "lon": "-157.431510", "precision": "1", "focus_area_descr": "SP_NONE_APPLIES"}, {"outputID": "00012649", "output_locID": "00012649-3", "name": "Abaiang", "focus_area": "0", "lat": "1.852930", "type": "ADM2", "awardID": "00012649", "lon": "172.943690", "precision": "1", "focus_area_descr": "SP_NONE_APPLIES"}, {"outputID": "00012649", "output_locID": "00012649-4", "name": "Birnie", "focus_area": "0", "lat": "-3.583330", "type": "ADM2", "awardID": "00012649", "lon": "-171.516670", "precision": "1", "focus_area_descr": "SP_NONE_APPLIES"}, {"outputID": "00012649", "output_locID": "00012649-5", "name": "Butaritari", "focus_area": "0", "lat": "3.172050", "type": "ADM2", "awardID": "00012649", "lon": "172.796750", "precision": "1", "focus_area_descr": "SP_NONE_APPLIES"}, {"outputID": "00012649", "output_locID": "00012649-6", "name": "Caroline", "focus_area": "0", "lat": "-9.958710", "type": "ADM2", "awardID": "00012649", "lon": "-150.207480", "precision": "1", "focus_area_descr": "SP_NONE_APPLIES"}, {"outputID": "00012649", "output_locID": "00012649-7", "name": "Enderbury", "focus_area": "0", "lat": "-3.133330", "type": "ADM2", "awardID": "00012649", "lon": "-171.083330", "precision": "1", "focus_area_descr": "SP_NONE_APPLIES"}, {"outputID": "00012649", "output_locID": "00012649-8", "name": "Kanton", "focus_area": "0", "lat": "-2.810000", "type": "ADM2", "awardID": "00012649", "lon": "-171.678000", "precision": "1", "focus_area_descr": "SP_NONE_APPLIES"}, {"outputID": "00012649", "output_locID": "00012649-9", "name": "Malden", "focus_area": "0", "lat": "-4.018730", "type": "ADM2", "awardID": "00012649", "lon": "-154.929540", "precision": "1", "focus_area_descr": "SP_NONE_APPLIES"}, {"outputID": "00012649", "output_locID": "00012649-10", "name": "Manra", "focus_area": "0", "lat": "-4.455610", "type": "ADM2", "awardID": "00012649", "lon": "-171.244150", "precision": "1", "focus_area_descr": "SP_NONE_APPLIES"}, {"outputID": "00012649", "output_locID": "00012649-11", "name": "Marakei", "focus_area": "0", "lat": "2.010770", "type": "ADM2", "awardID": "00012649", "lon": "173.276370", "precision": "1", "focus_area_descr": "SP_NONE_APPLIES"}, {"outputID": "00012649", "output_locID": "00012649-12", "name": "McKean", "focus_area": "0", "lat": "-3.595620", "type": "ADM2", "awardID": "00012649", "lon": "-174.122920", "precision": "1", "focus_area_descr": "SP_NONE_APPLIES"}, {"outputID": "00012649", "output_locID": "00012649-13", "name": "Nikumaroro", "focus_area": "0", "lat": "-4.674120", "type": "ADM2", "awardID": "00012649", "lon": "-174.522460", "precision": "1", "focus_area_descr": "SP_NONE_APPLIES"}, {"outputID": "00012649", "output_locID": "00012649-14", "name": "Nonouti", "focus_area": "0", "lat": "-0.666670", "type": "ADM2", "awardID": "00012649", "lon": "174.350000", "precision": "1", "focus_area_descr": "SP_NONE_APPLIES"}, {"outputID": "00012649", "output_locID": "00012649-15", "name": "Onotoa", "focus_area": "0", "lat": "-1.885870", "type": "ADM2", "awardID": "00012649", "lon": "175.563930", "precision": "1", "focus_area_descr": "SP_NONE_APPLIES"}, {"outputID": "00012649", "output_locID": "00012649-16", "name": "Orona", "focus_area": "0", "lat": "-4.516670", "type": "ADM2", "awardID": "00012649", "lon": "-172.183330", "precision": "1", "focus_area_descr": "SP_NONE_APPLIES"}, {"outputID": "00012649", "output_locID": "00012649-17", "name": "Tabiteuea North", "focus_area": "0", "lat": "-1.198280", "type": "ADMD", "awardID": "00012649", "lon": "174.717810", "precision": "1", "focus_area_descr": "SP_NONE_APPLIES"}], "operating_unit": "Fiji", "budget": 957.0, "iati_op_id": "FJ", "inst_descr": "National Execution", "start": "2003-01-01", "operating_unit_id": "FJI", "expenditure": 0.0, "document_name": [], "project_id": "00012649", "inst_type_id": "10", "operating_unit_website": null, "project_title": "kiribati national biodiversity strategy & action plan"}