{"project_descr": "Generate an economic sustainable development through a process of urban revitalization of neglected or degraded historical city centres while initiating employment, social inclusion and job creation for vulnerable groups or youth unemployed", "fiscal_year": [2013, 2010, 2011, 2012], "end": "2013-12-31", "region_id": "RBEC", "operating_unit_email": "office.ro@undp.org", "inst_id": "02631", "outputs": [{"output_id": "00014599", "crs": "41010", "donor_id": ["01256", "01278", "00012", "00587"], "focus_area": "5", "gender_descr": "Gender Equality", "output_title": "Beautiful Romania", "budget": [0.0, 126117.0, 50866.0, 3163.0], "fiscal_year": [2010, 2011, 2012, 2013], "gender_id": "1", "donor_name": ["Voluntary Contributions", "ROM-ALBA IULIA MUNICIPALITY", "ROM-OTHER LOCAL AUTHORITIES", "ROM-MINISTRY OF CULTURE & RELI"], "award_id": "00014599", "output_descr": "The project aims to generate an economic sustainable development through a process of urban revitalization of neglected or degraded historical city centres while initiating employment and social inclusion and job creation for vulnerable groups or youth unemployed in the target areas.", "donor_short": ["UNDP", "AIM", "LOCA", "MCRA"], "expenditure": [17213.0, 22531.0, 37757.0, 11.0], "crs_descr": "Environmental policy and administrative management", "focus_area_descr": "Climate Change & Disaster Resilience"}], "subnational": [{"outputID": "00014599", "output_locID": "00014599-1", "name": "Alba Iulia, Romania", "focus_area": "5", "lat": "46.06667", "type": "PPLA", "awardID": "00014599", "lon": "23.58333", "precision": "3", "focus_area_descr": "Climate Change & Disaster Resilience"}, {"outputID": "00014599", "output_locID": "00014599-2", "name": "Bistrita, Romania", "focus_area": "5", "lat": "47.13316", "type": "PPLA", "awardID": "00014599", "lon": "24.50011", "precision": "3", "focus_area_descr": "Climate Change & Disaster Resilience"}, {"outputID": "00014599", "output_locID": "00014599-3", "name": "Braila, Romania", "focus_area": "5", "lat": "45.26667", "type": "PPLA", "awardID": "00014599", "lon": "27.98333", "precision": "3", "focus_area_descr": "Climate Change & Disaster Resilience"}, {"outputID": "00014599", "output_locID": "00014599-4", "name": "Brasov, Romania", "focus_area": "5", "lat": "45.64861", "type": "PPLA", "awardID": "00014599", "lon": "25.60613", "precision": "3", "focus_area_descr": "Climate Change & Disaster Resilience"}, {"outputID": "00014599", "output_locID": "00014599-5", "name": "Bucuresti, Romania", "focus_area": "5", "lat": "44.43225", "type": "PPLC", "awardID": "00014599", "lon": "26.10626", "precision": "3", "focus_area_descr": "Climate Change & Disaster Resilience"}, {"outputID": "00014599", "output_locID": "00014599-6", "name": "Craiova, Romania", "focus_area": "5", "lat": "44.31667", "type": "PPLA", "awardID": "00014599", "lon": "23.8", "precision": "3", "focus_area_descr": "Climate Change & Disaster Resilience"}, {"outputID": "00014599", "output_locID": "00014599-7", "name": "Medias, Romania", "focus_area": "5", "lat": "46.16667", "type": "PPLA2", "awardID": "00014599", "lon": "24.35", "precision": "3", "focus_area_descr": "Climate Change & Disaster Resilience"}, {"outputID": "00014599", "output_locID": "00014599-8", "name": "Miercurea Ciuc, Romania", "focus_area": "5", "lat": "46.35", "type": "PPL", "awardID": "00014599", "lon": "25.8", "precision": "3", "focus_area_descr": "Climate Change & Disaster Resilience"}, {"outputID": "00014599", "output_locID": "00014599-9", "name": "Sibiu, Romania", "focus_area": "5", "lat": "45.8", "type": "PPLA", "awardID": "00014599", "lon": "24.15", "precision": "3", "focus_area_descr": "Climate Change & Disaster Resilience"}, {"outputID": "00014599", "output_locID": "00014599-10", "name": "Sighisoara, Romania", "focus_area": "5", "lat": "46.22816", "type": "ADM2", "awardID": "00014599", "lon": "24.77927", "precision": "3", "focus_area_descr": "Climate Change & Disaster Resilience"}, {"outputID": "00014599", "output_locID": "00014599-11", "name": "Sulina, Romania", "focus_area": "5", "lat": "45.15608", "type": "ADM2", "awardID": "00014599", "lon": "29.65197", "precision": "3", "focus_area_descr": "Climate Change & Disaster Resilience"}, {"outputID": "00014599", "output_locID": "00014599-12", "name": "Targoviste", "focus_area": "5", "lat": "44.92543", "type": "PPLA", "awardID": "00014599", "lon": "25.4567", "precision": "3", "focus_area_descr": "Climate Change & Disaster Resilience"}], "operating_unit": "Romania", "budget": 180146.0, "iati_op_id": "RO", "inst_descr": "GOVERNMENT", "start": "2001-06-01", "operating_unit_id": "ROU", "expenditure": 77512.0, "document_name": [["Project Document BR signed_2003-2006.pdf"], ["http://www.undp.org/content/dam/undp/documents/projects/ROU/00014599/Project Document BR signed_2003-2006.pdf"], ["format"]], "project_id": "00014599", "inst_type_id": "10", "operating_unit_website": "http://www.undp.ro/", "project_title": "beautiful romania"}