{"project_descr": "Promotion des Energie Nouvelles Et Renouvelables  pour L'avancement de la Femme", "fiscal_year": [2015, 2012, 2013, 2014], "end": "2014-12-31", "region_id": "RBA", "operating_unit_email": "registry.ml@undp.org", "inst_id": " ", "outputs": [{"output_id": "00013615", "crs": "23030", "donor_id": ["00012", "00167"], "focus_area": "1", "gender_descr": "Gender Equality", "output_title": "PENRAF", "budget": [340612.0, 150795.0, 311064.0, 125000.0], "fiscal_year": [2012, 2013, 2014, 2015], "gender_id": "1", "donor_name": ["GOVERNMENT OF MALI", "Voluntary Contributions"], "award_id": "00013615", "output_descr": "La phase actuelle a pour objectif de consolider les acquis dans le domaine de la promotion des ENR pour l\u2019avancement des femmes dans les r\u00e9gions de Koulikoro S\u00e9gou Sikasso avec extension dans la r\u00e9gion de Mopti selon une approche participative.", "donor_short": ["MLI", "UNDP"], "expenditure": [0.0, 115051.0, 269869.0, 15969.0], "crs_descr": null, "focus_area_descr": "Inclusive & Sustainable Growth"}], "subnational": [{"outputID": "00013615", "output_locID": "00013615-1", "name": "Tombouctou Region", "focus_area": "1", "lat": "19.700000", "type": "ADM1", "awardID": "00013615", "lon": "-3.600000", "precision": "1", "focus_area_descr": "Inclusive & Sustainable Growth"}, {"outputID": "00013615", "output_locID": "00013615-2", "name": "Sikasso", "focus_area": "1", "lat": "11.317550", "type": "PPLA", "awardID": "00013615", "lon": "-5.666540", "precision": "1", "focus_area_descr": "Inclusive & Sustainable Growth"}, {"outputID": "00013615", "output_locID": "00013615-3", "name": "S\u00e9gou", "focus_area": "1", "lat": "13.431700", "type": "PPLA", "awardID": "00013615", "lon": "-6.215700", "precision": "1", "focus_area_descr": "Inclusive & Sustainable Growth"}, {"outputID": "00013615", "output_locID": "00013615-4", "name": "S\u00e9gou", "focus_area": "1", "lat": "13.431700", "type": "PPLA", "awardID": "00013615", "lon": "-6.215700", "precision": "1", "focus_area_descr": "Inclusive & Sustainable Growth"}, {"outputID": "00013615", "output_locID": "00013615-5", "name": "Mopti", "focus_area": "1", "lat": "14.484300", "type": "PPLA", "awardID": "00013615", "lon": "-4.182960", "precision": "1", "focus_area_descr": "Inclusive & Sustainable Growth"}, {"outputID": "00013615", "output_locID": "00013615-6", "name": "Mopti", "focus_area": "1", "lat": "14.484300", "type": "PPLA", "awardID": "00013615", "lon": "-4.182960", "precision": "1", "focus_area_descr": "Inclusive & Sustainable Growth"}, {"outputID": "00013615", "output_locID": "00013615-7", "name": "Koulikoro", "focus_area": "1", "lat": "12.862730", "type": "PPLA", "awardID": "00013615", "lon": "-7.559850", "precision": "1", "focus_area_descr": "Inclusive & Sustainable Growth"}, {"outputID": "00013615", "output_locID": "00013615-8", "name": "Kidal", "focus_area": "1", "lat": "18.441110", "type": "PPLA", "awardID": "00013615", "lon": "1.407780", "precision": "1", "focus_area_descr": "Inclusive & Sustainable Growth"}, {"outputID": "00013615", "output_locID": "00013615-9", "name": "Kayes", "focus_area": "1", "lat": "14.446930", "type": "PPLA", "awardID": "00013615", "lon": "-11.444480", "precision": "1", "focus_area_descr": "Inclusive & Sustainable Growth"}, {"outputID": "00013615", "output_locID": "00013615-10", "name": "Gao", "focus_area": "1", "lat": "16.271670", "type": "PPLA", "awardID": "00013615", "lon": "-0.044720", "precision": "1", "focus_area_descr": "Inclusive & Sustainable Growth"}], "operating_unit": "Mali", "budget": 927471.0, "iati_op_id": "ML", "inst_descr": null, "start": "2004-01-01", "operating_unit_id": "MLI", "expenditure": 400889.0, "document_name": [["00013615_Prodoc nouveau Penraf"], ["http://www.undp.org/content/dam/undp/documents/projects/MLI/00013615_Prodoc nouveau Penraf.pdf"], ["pdf"]], "project_id": "00013615", "inst_type_id": "", "operating_unit_website": "http://www.ml.undp.org/", "project_title": "penraf"}