{"project_descr": "Support to Policy Advice and Programme Development (DSS)", "fiscal_year": [2012], "end": "2015-12-31", "region_id": "RBEC", "operating_unit_email": "registry.ge@undp.org", "inst_id": "99999", "outputs": [{"output_id": "00031554", "crs": "99810", "donor_id": ["00012"], "focus_area": "8", "gender_descr": "Gender Equality", "output_title": "Development Support Servic-DSS", "budget": [64764.0], "fiscal_year": [2012], "gender_id": "1", "donor_name": ["Voluntary Contributions"], "award_id": "00031440", "output_descr": "Substantive advice on programme matters provided to the Country Office in support of the Country Program Document (CPD).", "donor_short": ["UNDP"], "expenditure": [0.0], "crs_descr": null, "focus_area_descr": "Organizational Results Area 1"}], "subnational": [{"outputID": "00031554", "output_locID": "00031554-1", "name": "Zugdidi", "focus_area": "8", "lat": "42.508800", "type": "PPLA", "awardID": "00031440", "lon": "41.870880", "precision": "1", "focus_area_descr": "Organizational Results Area 1"}, {"outputID": "00031554", "output_locID": "00031554-2", "name": "Telavi", "focus_area": "8", "lat": "41.919780", "type": "PPLA", "awardID": "00031440", "lon": "45.473150", "precision": "1", "focus_area_descr": "Organizational Results Area 1"}, {"outputID": "00031554", "output_locID": "00031554-3", "name": "Tbilisi", "focus_area": "8", "lat": "41.694110", "type": "PPLC", "awardID": "00031440", "lon": "44.833680", "precision": "1", "focus_area_descr": "Organizational Results Area 1"}, {"outputID": "00031554", "output_locID": "00031554-4", "name": "Senak\u2019i", "focus_area": "8", "lat": "42.270420", "type": "PPL", "awardID": "00031440", "lon": "42.067500", "precision": "1", "focus_area_descr": "Organizational Results Area 1"}, {"outputID": "00031554", "output_locID": "00031554-5", "name": "Sagarejo", "focus_area": "8", "lat": "41.733970", "type": "PPL", "awardID": "00031440", "lon": "45.331480", "precision": "1", "focus_area_descr": "Organizational Results Area 1"}, {"outputID": "00031554", "output_locID": "00031554-6", "name": "Qvareli", "focus_area": "8", "lat": "41.954920", "type": "PPL", "awardID": "00031440", "lon": "45.817160", "precision": "1", "focus_area_descr": "Organizational Results Area 1"}, {"outputID": "00031554", "output_locID": "00031554-7", "name": "Lagodekhi", "focus_area": "8", "lat": "41.826810", "type": "PPL", "awardID": "00031440", "lon": "46.276670", "precision": "1", "focus_area_descr": "Organizational Results Area 1"}, {"outputID": "00031554", "output_locID": "00031554-8", "name": "Kveda Chkhorots\u2019q\u2019u", "focus_area": "8", "lat": "42.481030", "type": "PPL", "awardID": "00031440", "lon": "42.096610", "precision": "1", "focus_area_descr": "Organizational Results Area 1"}, {"outputID": "00031554", "output_locID": "00031554-9", "name": "K'ut'aisi", "focus_area": "8", "lat": "42.267910", "type": "PPLA", "awardID": "00031440", "lon": "42.694590", "precision": "1", "focus_area_descr": "Organizational Results Area 1"}, {"outputID": "00031554", "output_locID": "00031554-10", "name": "Khobi", "focus_area": "8", "lat": "42.315580", "type": "PPL", "awardID": "00031440", "lon": "41.898710", "precision": "1", "focus_area_descr": "Organizational Results Area 1"}, {"outputID": "00031554", "output_locID": "00031554-11", "name": "Gurjaani", "focus_area": "8", "lat": "41.742920", "type": "PPL", "awardID": "00031440", "lon": "45.801110", "precision": "1", "focus_area_descr": "Organizational Results Area 1"}, {"outputID": "00031554", "output_locID": "00031554-12", "name": "Abasha", "focus_area": "8", "lat": "42.209590", "type": "PPL", "awardID": "00031440", "lon": "42.221110", "precision": "1", "focus_area_descr": "Organizational Results Area 1"}, {"outputID": "00031554", "output_locID": "00031554-13", "name": "Martvili", "focus_area": "8", "lat": "42.416670", "type": "ADM2", "awardID": "00031440", "lon": "42.366670", "precision": "1", "focus_area_descr": "Organizational Results Area 1"}, {"outputID": "00031554", "output_locID": "00031554-14", "name": "Poti", "focus_area": "8", "lat": "42.141940", "type": "ADM2", "awardID": "00031440", "lon": "41.676390", "precision": "1", "focus_area_descr": "Organizational Results Area 1"}, {"outputID": "00031554", "output_locID": "00031554-15", "name": "Akhmeta", "focus_area": "8", "lat": "42.032720", "type": "PPL", "awardID": "00031440", "lon": "45.204020", "precision": "1", "focus_area_descr": "Organizational Results Area 1"}, {"outputID": "00031554", "output_locID": "00031554-16", "name": "Sighnaghi", "focus_area": "8", "lat": "41.626220", "type": "ADM2", "awardID": "00031440", "lon": "45.953060", "precision": "1", "focus_area_descr": "Organizational Results Area 1"}, {"outputID": "00031554", "output_locID": "00031554-17", "name": "Dedoplis Tskaro", "focus_area": "8", "lat": "41.463890", "type": "ADM2", "awardID": "00031440", "lon": "46.111110", "precision": "1", "focus_area_descr": "Organizational Results Area 1"}, {"outputID": "00031554", "output_locID": "00031554-18", "name": "Tsalenjikha", "focus_area": "8", "lat": "42.605660", "type": "ADM2", "awardID": "00031440", "lon": "42.076950", "precision": "1", "focus_area_descr": "Organizational Results Area 1"}], "operating_unit": "Georgia", "budget": 64764.0, "iati_op_id": "GE", "inst_descr": "UNDP", "start": "2004-01-01", "operating_unit_id": "GEO", "expenditure": 0.0, "document_name": [], "project_id": "00031440", "inst_type_id": "40", "operating_unit_website": null, "project_title": "policy advice and programme development"}