{"project_descr": "PIMS 2652 CC EA: Second National Communication to the UN Framework Convention on Climate Change (UNFCCC)", "fiscal_year": [2012, 2016], "end": "2013-12-31", "region_id": "RBEC", "operating_unit_email": "registry.ge@undp.org", "inst_id": "01296", "outputs": [{"output_id": "00073300", "crs": null, "donor_id": ["10315"], "focus_area": "-", "gender_descr": "Gender Equality", "output_title": "Regional Climate Change Study", "budget": [0.0], "fiscal_year": [2016], "gender_id": "1", "donor_name": ["ORG FOR SECURITY AND COOPERATI"], "award_id": "00034839", "output_descr": "Regional Climate Change Impact Study for the  South Caucasus Region.", "donor_short": ["OSCE"], "expenditure": [-22.0], "crs_descr": null, "focus_area_descr": "-"}], "subnational": [{"outputID": "00073300", "output_locID": "00073300-1", "name": "Telavi", "focus_area": "-", "lat": "41.919780", "type": "PPLA", "awardID": "00034839", "lon": "45.473150", "precision": "1", "focus_area_descr": "-"}, {"outputID": "00073300", "output_locID": "00073300-2", "name": "Tbilisi", "focus_area": "-", "lat": "41.694110", "type": "PPLC", "awardID": "00034839", "lon": "44.833680", "precision": "1", "focus_area_descr": "-"}, {"outputID": "00073300", "output_locID": "00073300-3", "name": "Shuakhevi", "focus_area": "-", "lat": "41.630000", "type": "PPLA2", "awardID": "00034839", "lon": "42.190830", "precision": "1", "focus_area_descr": "-"}, {"outputID": "00073300", "output_locID": "00073300-4", "name": "Sagarejo", "focus_area": "-", "lat": "41.733970", "type": "PPL", "awardID": "00034839", "lon": "45.331480", "precision": "1", "focus_area_descr": "-"}, {"outputID": "00073300", "output_locID": "00073300-5", "name": "Qvareli", "focus_area": "-", "lat": "41.954920", "type": "PPL", "awardID": "00034839", "lon": "45.817160", "precision": "1", "focus_area_descr": "-"}, {"outputID": "00073300", "output_locID": "00073300-6", "name": "Lagodekhi", "focus_area": "-", "lat": "41.826810", "type": "PPL", "awardID": "00034839", "lon": "46.276670", "precision": "1", "focus_area_descr": "-"}, {"outputID": "00073300", "output_locID": "00073300-7", "name": "Kobuleti", "focus_area": "-", "lat": "41.820000", "type": "PPLA2", "awardID": "00034839", "lon": "41.775280", "precision": "1", "focus_area_descr": "-"}, {"outputID": "00073300", "output_locID": "00073300-8", "name": "Khulo", "focus_area": "-", "lat": "41.643530", "type": "PPLA2", "awardID": "00034839", "lon": "42.303970", "precision": "1", "focus_area_descr": "-"}, {"outputID": "00073300", "output_locID": "00073300-9", "name": "Khelvachauri", "focus_area": "-", "lat": "41.585560", "type": "PPLA2", "awardID": "00034839", "lon": "41.668890", "precision": "1", "focus_area_descr": "-"}, {"outputID": "00073300", "output_locID": "00073300-10", "name": "Keda", "focus_area": "-", "lat": "41.596940", "type": "PPLA2", "awardID": "00034839", "lon": "41.941390", "precision": "1", "focus_area_descr": "-"}, {"outputID": "00073300", "output_locID": "00073300-11", "name": "Gurjaani", "focus_area": "-", "lat": "41.742920", "type": "PPL", "awardID": "00034839", "lon": "45.801110", "precision": "1", "focus_area_descr": "-"}, {"outputID": "00073300", "output_locID": "00073300-12", "name": "Batumi", "focus_area": "-", "lat": "41.642280", "type": "PPLA", "awardID": "00034839", "lon": "41.633920", "precision": "1", "focus_area_descr": "-"}, {"outputID": "00073300", "output_locID": "00073300-13", "name": "Mestia", "focus_area": "-", "lat": "43.000000", "type": "ADM2", "awardID": "00034839", "lon": "42.750000", "precision": "1", "focus_area_descr": "-"}, {"outputID": "00073300", "output_locID": "00073300-14", "name": "Akhmeta", "focus_area": "-", "lat": "42.032720", "type": "PPL", "awardID": "00034839", "lon": "45.204020", "precision": "1", "focus_area_descr": "-"}, {"outputID": "00073300", "output_locID": "00073300-15", "name": "Sighnaghi", "focus_area": "-", "lat": "41.626220", "type": "ADM2", "awardID": "00034839", "lon": "45.953060", "precision": "1", "focus_area_descr": "-"}, {"outputID": "00073300", "output_locID": "00073300-16", "name": "Dedoplis Tskaro", "focus_area": "-", "lat": "41.463890", "type": "ADM2", "awardID": "00034839", "lon": "46.111110", "precision": "1", "focus_area_descr": "-"}], "operating_unit": "Georgia", "budget": 0.0, "iati_op_id": "GE", "inst_descr": "GOVERNMENT", "start": "2004-06-01", "operating_unit_id": "GEO", "expenditure": -22.0, "document_name": [["\u201cStrengthening Institutional Performance and"], ["https://info.undp.org/docs/pdc/Documents/GEO/00034839_Substantive Revision of SNC09_MS.doc"], ["doc"], [0]], "project_id": "00034839", "inst_type_id": "10", "operating_unit_website": null, "project_title": "pims 2652 cc ea: second national communication on unfccc"}