{"budget":[35968.0],"document_name":[["BGD_PRP_I_00038571.pdf"],["http://www.undp.org/content/dam/undp/documents/projects/BGD/00035765/BGD_PRP_I_00038571.pdf"]],"end":"2010-09-30","expenditure":[2840496.0],"fiscal_year":["2013","2011","2010"],"iati_op_id":"BD","inst_descr":"National Execution","inst_id":"00256","inst_type_id":"10","operating_unit":"Bangladesh","operating_unit_id":"BGD","outputs":[{"award_id":"00035765","budget":[0.0,35968.0,null],"crs":"99810","crs_descr":"Sectors Not Specified","donor_id":["00012"],"donor_name":["Voluntary Contributions"],"donor_short":["UNDP"],"expenditure":[0.0,-162523.0,3003019.0],"fiscal_year":["2013","2011","2010"],"focus_area":"-","focus_area_descr":"-","gender_descr":"Gender Equality","gender_id":"1","output_descr":"Justice, Human Rights and security promoted through capacity enhancement and ensuring better access to justice.","output_id":"00038571","output_title":"Strengthening BGD Police"}],"project_descr":"Strengthening Bangladesh Police","project_id":"00035765","project_title":"Strengthening Bangladesh Police","region_id":"RBAP","start":"2005-01-01","subnational":[{"awardID":"00035765","lat":"23.7104","lon":"90.40744","name":"Dhaka","precision":"4","type":"ADM1"},{"awardID":"00035765","lat":"22.3384","lon":"91.83168","name":"Chittagong","precision":"4","type":"ADM1"},{"awardID":"00035765","lat":"24.374","lon":"88.60114","name":"Rajshahi","precision":"4","type":"ADM1"},{"awardID":"00035765","lat":"22.80978","lon":"89.56439","name":"Khulna","precision":"4","type":"ADM1"},{"awardID":"00035765","lat":"24.89904","lon":"91.87198","name":"Sylhet","precision":"4","type":"ADM1"}]}