{"project_descr": "Strengthening Bangladesh Police", "fiscal_year": [2014, 2010, 2011, 2013], "end": "2010-09-30", "region_id": "RBAP", "operating_unit_email": "communications.bgd@undp.org", "inst_id": "00256", "outputs": [{"output_id": "00038571", "crs": "99810", "donor_id": ["00012"], "focus_area": "-", "gender_descr": "Gender Equality", "output_title": "Strengthening BGD Police", "budget": [0.0, 35968.0, 30240.0, 0.0], "fiscal_year": [2010, 2011, 2013, 2014], "gender_id": "1", "donor_name": ["Voluntary Contributions"], "award_id": "00035765", "output_descr": "Strengthening BGD Police, Phase-I", "donor_short": ["UNDP"], "expenditure": [3003019.0, -162523.0, 30239.0, 0.0], "crs_descr": "Sectors Not Specified", "focus_area_descr": "-"}], "subnational": [{"outputID": "00038571", "output_locID": "00038571-1", "name": "Chittagong", "focus_area": "-", "lat": "22.3384", "type": "ADM1", "awardID": "00035765", "lon": "91.83168", "precision": "4", "focus_area_descr": "-"}, {"outputID": "00038571", "output_locID": "00038571-2", "name": "Dhaka", "focus_area": "-", "lat": "23.7104", "type": "ADM1", "awardID": "00035765", "lon": "90.40744", "precision": "4", "focus_area_descr": "-"}, {"outputID": "00038571", "output_locID": "00038571-3", "name": "Khulna", "focus_area": "-", "lat": "22.80978", "type": "ADM1", "awardID": "00035765", "lon": "89.56439", "precision": "4", "focus_area_descr": "-"}, {"outputID": "00038571", "output_locID": "00038571-4", "name": "Rajshahi", "focus_area": "-", "lat": "24.374", "type": "ADM1", "awardID": "00035765", "lon": "88.60114", "precision": "4", "focus_area_descr": "-"}, {"outputID": "00038571", "output_locID": "00038571-5", "name": "Sylhet", "focus_area": "-", "lat": "24.89904", "type": "ADM1", "awardID": "00035765", "lon": "91.87198", "precision": "4", "focus_area_descr": "-"}], "operating_unit": "Bangladesh", "budget": 66208.0, "iati_op_id": "BD", "inst_descr": "National Execution", "start": "2005-01-01", "operating_unit_id": "BGD", "expenditure": 2870735.0, "document_name": [["00035765_BGD_PRP_I_00038571.pdf"], ["http://www.undp.org/content/dam/undp/documents/projects/BGD/00035765_BGD_PRP_I_00038571.pdf"]], "project_id": "00035765", "inst_type_id": "10", "operating_unit_website": "http://www.bd.undp.org/", "project_title": "strengthening bangladesh police"}