{"budget":[3667397.0],"document_name":[["Project Document (61002).pdf"],["http://www.undp.org/content/dam/undp/documents/projects/LBR/00049777/Project Document (61002).pdf"]],"end":"2013-12-31","expenditure":[14215232.0],"fiscal_year":["2013","2012","2011","2010"],"iati_op_id":"LR","inst_descr":"UNDP","inst_id":"99999","inst_type_id":"40","operating_unit":"Liberia","operating_unit_id":"LBR","outputs":[{"award_id":"00049777","budget":[385379.0,885665.0,2396353.0,null],"crs":"73010","crs_descr":"Reconstruction relief and rehabilitation","donor_id":["00134","00187"],"donor_name":["GOVERNMENT OF IRELAND","GOVERNMENT OF NORWAY"],"donor_short":["IRE","NOR"],"expenditure":[175411.0,850882.0,2814524.0,10374415.0],"fiscal_year":["2013","2012","2011","2010"],"focus_area":"3","focus_area_descr":"Crisis prevention & recovery","gender_descr":"Gender Equality","gender_id":"1","output_descr":"Enhancing Community Security and Social Cohesion will strengthen and sustain the effort of the Government of Liberia (GoL) and  UNDP   in community security and social cohesion at the grass roots levels.","output_id":"00061002","output_title":"Enhancing Community Security"}],"project_descr":"enhancing community security and social cohesion in selected communities in Liberia","project_id":"00049777","project_title":"Enhancing Community Security and Social Cohesion","region_id":"RBA","start":"2008-03-26","subnational":[{"awardID":"00049777","lat":"4.89083","lon":"-8.43583","name":"New Kru Town","precision":"3","type":"PPL"},{"awardID":"00049777","lat":"6.27556","lon":"-10.71778","name":"Paynesville","precision":"3","type":"PPL"},{"awardID":"00049777","lat":"6.77333","lon":"-11.04833","name":"Sinje","precision":"3","type":"PPL"},{"awardID":"00049777","lat":"6.06667","lon":"-8.12806","name":"Zwedru","precision":"3","type":"PPLA"},{"awardID":"00049777","lat":"6.99556","lon":"-9.47222","name":"Gbarnga","precision":"3","type":"PPLA"},{"awardID":"00049777","lat":"6.25","lon":"-9.75","name":"Grand Bassa","precision":"3","type":"ADM1"},{"awardID":"00049777","lat":"5.91667","lon":"-8.08333","name":"Grand Gedeh","precision":"3","type":"ADM1"},{"awardID":"00049777","lat":"6.40722","lon":"-8.55583","name":"Toe","precision":"3","type":"PPL"}]}