{"project_descr": "Country Pilot Partnership Programme for integrated Sustainable Land Management:  Support and Adaptive Management  Sub- Project\n\nCPP NAM: ISLM SAM", "fiscal_year": [2016, 2012, 2013], "end": "2016-10-31", "region_id": "RBA", "operating_unit_email": "registry.namibia@undp.org", "inst_id": "02209", "outputs": [{"output_id": "00051123", "crs": null, "donor_id": ["10003"], "disbursement": [], "focus_area": "-", "gender_descr": "Gender Equality", "output_title": "Country Pilot Partnership", "budget": [1.0, 658168.0, 22926.0], "fiscal_year": [2016, 2012, 2013], "gender_id": "1", "expenditure": [-616.0, 633135.0, 17847.0], "award_id": "00043726", "output_descr": "Country Pilot Partnership Programme for integrated sustainable land management CPP NAM: SAM Sub-Project", "donor_short": ["GEFTrustee"], "donor_name": ["Global Environment Fund Truste"], "crs_descr": null, "focus_area_descr": "-"}], "subnational": [{"outputID": "00051123", "output_locID": "00051123-1", "name": "Mahango", "focus_area": "-", "lat": "-18.150000", "type": "PPL", "awardID": "00043726", "lon": "21.700000", "precision": "1", "focus_area_descr": "-"}, {"outputID": "00051123", "output_locID": "00051123-2", "name": "Zambezi Region", "focus_area": "-", "lat": "-17.833330", "type": "ADM1", "awardID": "00043726", "lon": "23.750000", "precision": "1", "focus_area_descr": "-"}, {"outputID": "00051123", "output_locID": "00051123-3", "name": "Zambezi Region", "focus_area": "-", "lat": "-17.833330", "type": "ADM1", "awardID": "00043726", "lon": "23.750000", "precision": "1", "focus_area_descr": "-"}, {"outputID": "00051123", "output_locID": "00051123-4", "name": "Namib-Naukluft Park", "focus_area": "-", "lat": "-23.083330", "type": "PRK", "awardID": "00043726", "lon": "15.166670", "precision": "1", "focus_area_descr": "-"}, {"outputID": "00051123", "output_locID": "00051123-5", "name": "Namib-Naukluft Park", "focus_area": "-", "lat": "-23.083330", "type": "PRK", "awardID": "00043726", "lon": "15.166670", "precision": "1", "focus_area_descr": "-"}, {"outputID": "00051123", "output_locID": "00051123-6", "name": "Etosha National Park", "focus_area": "-", "lat": "-19.000000", "type": "PRK", "awardID": "00043726", "lon": "16.000000", "precision": "1", "focus_area_descr": "-"}, {"outputID": "00051123", "output_locID": "00051123-7", "name": "Okavango", "focus_area": "-", "lat": "-18.416670", "type": "ADM1H", "awardID": "00043726", "lon": "19.750000", "precision": "1", "focus_area_descr": "-"}, {"outputID": "00051123", "output_locID": "00051123-8", "name": "Okavango", "focus_area": "-", "lat": "-18.416670", "type": "ADM1H", "awardID": "00043726", "lon": "19.750000", "precision": "1", "focus_area_descr": "-"}, {"outputID": "00051123", "output_locID": "00051123-9", "name": "Kavango East Region", "focus_area": "-", "lat": "-18.333330", "type": "ADM1", "awardID": "00043726", "lon": "20.583330", "precision": "1", "focus_area_descr": "-"}], "operating_unit": "Namibia", "budget": 681095.0, "iati_op_id": "NA", "inst_descr": "Ministry of Environment and To", "start": "2007-09-01", "operating_unit_id": "NAM", "expenditure": 650366.0, "document_name": [["FINANCING PLAN (IN US$):", "Request for Procurement"], ["https://info.undp.org/docs/pdc/Documents/NAM/00043726_PRODOC CPP NAM SLM SAM 3889 30 August 2007.doc", "http://procurement-notices.undp.org/index.cfm"], ["doc", ""], [0, 10]], "project_id": "00043726", "inst_type_id": "10", "operating_unit_website": null, "project_title": "country pilot partnership for sust. land mgt: adaptive m"}