{"project_descr": "Environmental management will ensure implication of sustainable development practices. UNDP will further increase the capacity of NGO/CBOs through their involvement into the Small Grants Programme \u2013 a corporate Programme of GEF.", "fiscal_year": [2016, 2012, 2013, 2014, 2015], "end": "2016-12-31", "region_id": "RBEC", "operating_unit_email": "registry.am@undp.org", "inst_id": "00136", "outputs": [{"output_id": "00054966", "crs": "23010", "donor_id": ["XM-DAC-41114"], "disbursement": [], "focus_area": "1", "gender_descr": "Gender Equality", "output_title": "Small Grants Programme", "budget": [12000.0, 110975.0, 48446.0, 50000.0, 72082.0], "fiscal_year": [2016, 2012, 2013, 2014, 2015], "gender_id": "1", "expenditure": [10384.0, 105855.0, 47757.0, 48770.0, 76299.0], "award_id": "00046258", "output_descr": "Regulatory framework for strengthening environmental management and ensuring sustainable development are introduced", "donor_short": [], "donor_name": ["UNITED NATIONS DEVELOPMENT PROGRAMME"], "crs_descr": null, "focus_area_descr": "Inclusive & Sustainable Growth"}], "subnational": [{"outputID": "00054966", "output_locID": "00054966-1", "name": "Ararati Marz", "focus_area": "1", "lat": "39.916670", "type": "ADM1", "awardID": "00046258", "lon": "44.833330", "precision": "1", "focus_area_descr": "Inclusive & Sustainable Growth"}, {"outputID": "00054966", "output_locID": "00054966-2", "name": "Syunik\u2019i Marz", "focus_area": "1", "lat": "39.333330", "type": "ADM1", "awardID": "00046258", "lon": "46.250000", "precision": "1", "focus_area_descr": "Inclusive & Sustainable Growth"}, {"outputID": "00054966", "output_locID": "00054966-3", "name": "Vayots\u2019 Dzori Marz", "focus_area": "1", "lat": "39.750000", "type": "ADM1", "awardID": "00046258", "lon": "45.416670", "precision": "1", "focus_area_descr": "Inclusive & Sustainable Growth"}, {"outputID": "00054966", "output_locID": "00054966-4", "name": "Yerevan", "focus_area": "1", "lat": "40.181110", "type": "PPLC", "awardID": "00046258", "lon": "44.513610", "precision": "1", "focus_area_descr": "Inclusive & Sustainable Growth"}, {"outputID": "00054966", "output_locID": "00054966-5", "name": "Aragatsotni Marz", "focus_area": "1", "lat": "40.416670", "type": "ADM1", "awardID": "00046258", "lon": "44.166670", "precision": "1", "focus_area_descr": "Inclusive & Sustainable Growth"}, {"outputID": "00054966", "output_locID": "00054966-6", "name": "Armaviri Marz", "focus_area": "1", "lat": "40.116670", "type": "ADM1", "awardID": "00046258", "lon": "44.000000", "precision": "1", "focus_area_descr": "Inclusive & Sustainable Growth"}, {"outputID": "00054966", "output_locID": "00054966-7", "name": "Geghark\u2019unik\u2019i Marz", "focus_area": "1", "lat": "40.250000", "type": "ADM1", "awardID": "00046258", "lon": "45.416670", "precision": "1", "focus_area_descr": "Inclusive & Sustainable Growth"}, {"outputID": "00054966", "output_locID": "00054966-8", "name": "Kotayk\u2019i Marz", "focus_area": "1", "lat": "40.416670", "type": "ADM1", "awardID": "00046258", "lon": "44.750000", "precision": "1", "focus_area_descr": "Inclusive & Sustainable Growth"}, {"outputID": "00054966", "output_locID": "00054966-9", "name": "Lorru Marz", "focus_area": "1", "lat": "41.000000", "type": "ADM1", "awardID": "00046258", "lon": "44.500000", "precision": "1", "focus_area_descr": "Inclusive & Sustainable Growth"}, {"outputID": "00054966", "output_locID": "00054966-10", "name": "Shiraki Marz", "focus_area": "1", "lat": "40.750000", "type": "ADM1", "awardID": "00046258", "lon": "43.833330", "precision": "1", "focus_area_descr": "Inclusive & Sustainable Growth"}, {"outputID": "00054966", "output_locID": "00054966-11", "name": "Tavushi Marz", "focus_area": "1", "lat": "40.916670", "type": "ADM1", "awardID": "00046258", "lon": "45.166670", "precision": "1", "focus_area_descr": "Inclusive & Sustainable Growth"}], "operating_unit": "Armenia", "budget": 293503.0, "iati_op_id": "AM", "inst_descr": "Ministry of Environment", "start": "2007-01-25", "operating_unit_id": "ARM", "expenditure": 289065.0, "document_name": [["Advance Authorization Cover Page", "Pilot building entrance before and after the installation of energy efficient doors and windows", "SGP 00054966_Annual Report 2015", "CPAP_UNDPAM_2010-2015_eng", "Request for Procurement"], ["https://info.undp.org/docs/pdc/Documents/ARM/00046258_AWP_2012_SGP.doc", "https://info.undp.org/docs/pdc/Documents/ARM/Pilot building entrance before and after the installation of energy efficient doors and windows.jpg", "https://info.undp.org/docs/pdc/Documents/ARM/SGP 00054966_Annual Report 2015.doc", "http://www.am.undp.org/content/dam/armenia/docs/CPAP_UNDPAM_2010-2015_eng.pdf", "http://procurement-notices.undp.org/index.cfm"], ["doc", "", "doc", "pdf", ""], [0, 1, 6, 7, 10]], "project_id": "00046258", "inst_type_id": "10", "operating_unit_website": null, "project_title": "small grants programme"}