{"budget":[5224131.0],"document_name":[["00044557_ART GOLD.pdf","PRODOC 2eme PHASE ART GOLD","Budget","Contract","UNDP-GA-CPAP%202012-2016"],["http://www.undp.org/content/dam/undp/documents/projects/GAB/00044557_ART GOLD.pdf","http://www.undp.org/content/dam/undp/documents/projects/GAB/PRODOC 2eme phase AG Gabon.pdf","http://www.undp.org/content/dam/undp/documents/IATI/Budget.xlsx","http://www.undp.org/content/dam/undp/documents/IATI/Contract.xlsx","http://www.ga.undp.org/content/dam/gabon/docs/cadrelegal/UNDP-GA-CPAP 2012-2016.pdf"]],"end":"2016-12-31","expenditure":[5147205.0],"fiscal_year":["2014","2013","2012","2011","2010"],"iati_op_id":"GA","inst_descr":"National Execution","inst_id":"01241","inst_type_id":"10","operating_unit":"Gabon","operating_unit_email":"registry.ga@undp.org","operating_unit_id":"GAB","operating_unit_website":"http://www.ga.undp.org/index.php","outputs":[{"award_id":"00044557","budget":[444588.0,1055402.0,1756621.0,1967520.0,null],"crs":"99810","crs_descr":"Sectors Not Specified","donor_id":["00012","00113"],"donor_name":["Voluntary Contributions","GOVERNMENT OF GABON"],"donor_short":["UNDP","GAB"],"expenditure":[387229.0,1032392.0,1765968.0,1276787.0,684829.0],"fiscal_year":["2014","2013","2012","2011","2010"],"focus_area":"5","focus_area_descr":"South-South","gender_descr":"Gender Equality","gender_id":"1","output_descr":"- Les capacit\u00e9s nationales et locales en mati\u00e8re de politiques budg\u00e9taire et fiscale en faveur des pauvres sont renforc\u00e9es, d\u00e9velopp\u00e9es et en phase avec le DSCRP et les OMD","output_id":"00052449","output_title":"Appui R\u00e9seaux Territoriaux"}],"project_descr":"Appui aux R\u00e9seaux Territoriaux pour la Gouvernance Locale et le D\u00e9veloppement (ART GOLD) dans les Provinces de l'Estuaire, du Haut Ogoou\u00e9 et de l'Ogoou\u00e9 Maritime","project_id":"00044557","project_title":"Appui R\u00e9seaux Territor pour la Gouvern locale et Develop","region_id":"RBA","start":"2006-01-01","subnational":[{"awardID":"00044557","focus_area":"5","focus_area_descr":"South-South","lat":"-0.65487","lon":"13.67533","name":"Bakoumba","outputID":"00052449","output_locID":"00052449-1","precision":"3","type":"PPL"},{"awardID":"00044557","focus_area":"5","focus_area_descr":"South-South","lat":"0.39241","lon":"9.45356","name":"Libreville","outputID":"00052449","output_locID":"00052449-2","precision":"3","type":"PPLC"},{"awardID":"00044557","focus_area":"5","focus_area_descr":"South-South","lat":"-1.82703","lon":"13.02052","name":"Maritime Franceville","outputID":"00052449","output_locID":"00052449-3","precision":"3","type":"PPLA"},{"awardID":"00044557","focus_area":"5","focus_area_descr":"South-South","lat":"-0.71933","lon":"8.78151","name":"Ogooue","outputID":"00052449","output_locID":"00052449-4","precision":"3","type":"PPLA"},{"awardID":"00044557","focus_area":"5","focus_area_descr":"South-South","lat":"-0.71933","lon":"8.78151","name":"Okondja","outputID":"00052449","output_locID":"00052449-5","precision":"3","type":"PPL"},{"awardID":"00044557","focus_area":"5","focus_area_descr":"South-South","lat":"-1","lon":"11.75","name":"Omboue","outputID":"00052449","output_locID":"00052449-6","precision":"3","type":"PPL"},{"awardID":"00044557","focus_area":"5","focus_area_descr":"South-South","lat":"-0.71933","lon":"8.78151","name":"Port Gentil","outputID":"00052449","output_locID":"00052449-7","precision":"3","type":"PPLA"},{"awardID":"00044557","focus_area":"5","focus_area_descr":"South-South","lat":"0.41667","lon":"9.33333","name":"Province of Estuary","outputID":"00052449","output_locID":"00052449-8","precision":"4","type":"RES"},{"awardID":"00044557","focus_area":"5","focus_area_descr":"South-South","lat":"-1.57464","lon":"9.26184","name":"province of Upper Ogooue","outputID":"00052449","output_locID":"00052449-9","precision":"3","type":"PPLA"}]}