{"budget":[2119.0],"document_name":[["P and P P AWP 2011.pdf","Budget","UNDP%20South%20Sudan_CPAP%202012-2013%20Fin%20%20Signed"],["http://www.undp.org/content/dam/undp/documents/projects/SSD/P and P P AWP 2011.pdf","http://www.undp.org/content/dam/undp/documents/IATI/Budget.xlsx","http://www.ss.undp.org/content/dam/southsudan/library/Reports/southsudanotherdocuments/UNDP South Sudan_CPAP 2012-2013 Fin  Signed.pdf"]],"end":"2014-12-31","expenditure":[3189770.0],"fiscal_year":["2014","2012","2010","2011","2013"],"iati_op_id":"SS","inst_descr":"UNDP (Direct Execution)","inst_id":"02885","inst_type_id":"40","operating_unit":"South Sudan, Republic of","operating_unit_email":"info.ssd@undp.org","operating_unit_id":"SSD","operating_unit_website":"http://www.ss.undp.org/","outputs":[{"award_id":"00047336","budget":[1.0,1.0,null],"crs":"99810","crs_descr":"Sectors Not Specified","donor_id":["00560"],"donor_name":["INTERNATIONAL DEVELOPMENT AGENCY"],"donor_short":["IDA"],"expenditure":[0.0,-716.0,1040097.0],"fiscal_year":["2014","2012","2010"],"focus_area":"-","focus_area_descr":"-","gender_descr":"Gender Equality","gender_id":"1","output_descr":"Provision of training and organizational development for the Police across Southern Sudan.","output_id":"00056820","output_title":"Capacity building of Police se"},{"award_id":"00047336","budget":[2.0,2.0,2.0,null],"crs":"99810","crs_descr":"Sectors Not Specified","donor_id":["00227","00560"],"donor_name":["GOVERNMENT OF SUDAN","INTERNATIONAL DEVELOPMENT AGENCY"],"donor_short":["SUD","IDA"],"expenditure":[0.0,-1219.0,3896.0,1050639.0],"fiscal_year":["2014","2012","2011","2010"],"focus_area":"-","focus_area_descr":"-","gender_descr":"Gender Equality","gender_id":"1","output_descr":"Capacity Building of Prisons Service","output_id":"00056894","output_title":"Capacity Building of Prisons S"},{"award_id":"00047336","budget":[3.0,4.0,4.0,2100.0,null],"crs":"99810","crs_descr":"Sectors Not Specified","donor_id":["00032","00040","00141"],"donor_name":["UNITED NATIONS DEVELOPMENT FUND FOR WOME","UN HIGH COMMISSIONER FOR REFUGEES","GOVERNMENT OF JAPAN"],"donor_short":["UN Women","UNHCR","JPN"],"expenditure":[0.0,-1522.0,-203.0,null,1098798.0],"fiscal_year":["2014","2013","2012","2011","2010"],"focus_area":"-","focus_area_descr":"-","gender_descr":"Gender Equality","gender_id":"1","output_descr":"Strategic support to Police and Prisons Services of Southern Sudan .","output_id":"00063319","output_title":"Strategic Support to Pol&Pris."}],"project_descr":"Support the priority of the Government of Southern Sudan (GOSS) on implementation of the CPA and peaceful resolution of conflicts through the creation of an enabling environment for the promotion and protection of human rights and the rule of law","project_id":"00047336","project_title":"Support to Police and Prisons","region_id":"RBA","start":"2007-05-01","subnational":[{"awardID":"00047336","focus_area":"-","focus_area_descr":"-","lat":"6.20593","lon":"31.55633","name":"Bor Jonglei State","outputID":"00056820","output_locID":"00056820-1","precision":"3","type":"PPLA"},{"awardID":"00047336","focus_area":"-","focus_area_descr":"-","lat":"8.30016","lon":"27.99028","name":"Kwajok Warrap State","outputID":"00056820","output_locID":"00056820-2","precision":"3","type":"PPLA"},{"awardID":"00047336","focus_area":"-","focus_area_descr":"-","lat":"9.53342","lon":"31.66048","name":"Malakal Upper Nile State","outputID":"00056820","output_locID":"00056820-3","precision":"3","type":"PPLA"},{"awardID":"00047336","focus_area":"-","focus_area_descr":"-","lat":"4.41333","lon":"32.56778","name":"Torit Eastern Equatoria State","outputID":"00056820","output_locID":"00056820-4","precision":"3","type":"PPLA"},{"awardID":"00047336","focus_area":"-","focus_area_descr":"-","lat":"7.70286","lon":"27.9953","name":"Wau Western Bahr el Ghazal State","outputID":"00056820","output_locID":"00056820-5","precision":"3","type":"PPLA"},{"awardID":"00047336","focus_area":"-","focus_area_descr":"-","lat":"4.57213","lon":"28.39549","name":"Yambio Western Equatoria State","outputID":"00056820","output_locID":"00056820-6","precision":"3","type":"PPLA"},{"awardID":"00047336","focus_area":"-","focus_area_descr":"-","lat":"6.20593","lon":"31.55633","name":"Bor Jonglei State","outputID":"00056894","output_locID":"00056894-1","precision":"3","type":"PPLA"},{"awardID":"00047336","focus_area":"-","focus_area_descr":"-","lat":"8.30016","lon":"27.99028","name":"Kwajok Warrap State","outputID":"00056894","output_locID":"00056894-2","precision":"3","type":"PPLA"},{"awardID":"00047336","focus_area":"-","focus_area_descr":"-","lat":"9.53342","lon":"31.66048","name":"Malakal Upper Nile State","outputID":"00056894","output_locID":"00056894-3","precision":"3","type":"PPLA"},{"awardID":"00047336","focus_area":"-","focus_area_descr":"-","lat":"4.41333","lon":"32.56778","name":"Torit Eastern Equatoria State","outputID":"00056894","output_locID":"00056894-4","precision":"3","type":"PPLA"},{"awardID":"00047336","focus_area":"-","focus_area_descr":"-","lat":"7.70286","lon":"27.9953","name":"Wau Western Bahr el Ghazal State","outputID":"00056894","output_locID":"00056894-5","precision":"3","type":"PPLA"},{"awardID":"00047336","focus_area":"-","focus_area_descr":"-","lat":"4.57213","lon":"28.39549","name":"Yambio Western Equatoria State","outputID":"00056894","output_locID":"00056894-6","precision":"3","type":"PPLA"},{"awardID":"00047336","focus_area":"-","focus_area_descr":"-","lat":"6.20593","lon":"31.55633","name":"Bor Jonglei State","outputID":"00063319","output_locID":"00063319-1","precision":"3","type":"PPLA"},{"awardID":"00047336","focus_area":"-","focus_area_descr":"-","lat":"8.30016","lon":"27.99028","name":"Kwajok Warrap State","outputID":"00063319","output_locID":"00063319-2","precision":"3","type":"PPLA"},{"awardID":"00047336","focus_area":"-","focus_area_descr":"-","lat":"9.53342","lon":"31.66048","name":"Malakal Upper Nile State","outputID":"00063319","output_locID":"00063319-3","precision":"3","type":"PPLA"},{"awardID":"00047336","focus_area":"-","focus_area_descr":"-","lat":"4.41333","lon":"32.56778","name":"Torit Eastern Equatoria State","outputID":"00063319","output_locID":"00063319-4","precision":"3","type":"PPLA"},{"awardID":"00047336","focus_area":"-","focus_area_descr":"-","lat":"7.70286","lon":"27.9953","name":"Wau Western Bahr el Ghazal State","outputID":"00063319","output_locID":"00063319-5","precision":"3","type":"PPLA"},{"awardID":"00047336","focus_area":"-","focus_area_descr":"-","lat":"4.57213","lon":"28.39549","name":"Yambio Western Equatoria State","outputID":"00063319","output_locID":"00063319-6","precision":"3","type":"PPLA"}]}