{"project_descr": "Environmental management will ensure implication of sustainable development practices. UNDP will further increase the capacity of NGO/CBOs through their involvement into the Small Grants Programme \u2013 a corporate Programme of GEF.", "fiscal_year": [2018, 2016, 2017, 2012, 2013, 2014, 2015], "end": "2018-12-31", "region_id": "RBEC", "operating_unit_email": "registry.am@undp.org", "inst_id": "00136", "outputs": [{"output_id": "00054966", "crs": "23010", "donor_id": ["01059", "00110", "00012"], "disbursement": [], "focus_area": "1", "gender_descr": "Gender Equality", "output_title": "Small Grants Programme", "budget": [12000.0, 38807.0, 43453.0, 110975.0, 48446.0, 50000.0, 72082.0], "fiscal_year": [2016, 2017, 2018, 2012, 2013, 2014, 2015], "gender_id": "1", "expenditure": [15664.0, 1012.0, 242.0, 105855.0, 47757.0, 48770.0, 76299.0], "award_id": "00046258", "output_descr": "Regulatory framework for strengthening environmental management and ensuring sustainable development are introduced", "donor_short": ["UNDP", "FIN", "GOVT"], "donor_name": ["Voluntary Contributions", "GOVERNMENT OF FINLAND", "ARM-GOVERNMENT"], "crs_descr": null, "focus_area_descr": "Inclusive Growth"}], "subnational": [{"outputID": "00054966", "output_locID": "00054966-1", "name": "Ararat", "focus_area": "1", "lat": "39.916670", "type": "ADM1", "awardID": "00046258", "lon": "44.833330", "precision": "1", "focus_area_descr": "Inclusive Growth"}, {"outputID": "00054966", "output_locID": "00054966-2", "name": "Syunik", "focus_area": "1", "lat": "39.333330", "type": "ADM1", "awardID": "00046258", "lon": "46.250000", "precision": "1", "focus_area_descr": "Inclusive Growth"}, {"outputID": "00054966", "output_locID": "00054966-3", "name": "Vayots Dzor", "focus_area": "1", "lat": "39.750000", "type": "ADM1", "awardID": "00046258", "lon": "45.416670", "precision": "1", "focus_area_descr": "Inclusive Growth"}, {"outputID": "00054966", "output_locID": "00054966-4", "name": "Yerevan", "focus_area": "1", "lat": "40.181110", "type": "PPLC", "awardID": "00046258", "lon": "44.513610", "precision": "1", "focus_area_descr": "Inclusive Growth"}, {"outputID": "00054966", "output_locID": "00054966-5", "name": "Aragatsotn", "focus_area": "1", "lat": "40.416670", "type": "ADM1", "awardID": "00046258", "lon": "44.166670", "precision": "1", "focus_area_descr": "Inclusive Growth"}, {"outputID": "00054966", "output_locID": "00054966-6", "name": "Armaviri Marz", "focus_area": "1", "lat": "40.116670", "type": "ADM1", "awardID": "00046258", "lon": "44.000000", "precision": "1", "focus_area_descr": "Inclusive Growth"}, {"outputID": "00054966", "output_locID": "00054966-7", "name": "Gegharkunik", "focus_area": "1", "lat": "40.250000", "type": "ADM1", "awardID": "00046258", "lon": "45.416670", "precision": "1", "focus_area_descr": "Inclusive Growth"}, {"outputID": "00054966", "output_locID": "00054966-8", "name": "Kotayk", "focus_area": "1", "lat": "40.416670", "type": "ADM1", "awardID": "00046258", "lon": "44.750000", "precision": "1", "focus_area_descr": "Inclusive Growth"}, {"outputID": "00054966", "output_locID": "00054966-9", "name": "Lori", "focus_area": "1", "lat": "41.000000", "type": "ADM1", "awardID": "00046258", "lon": "44.500000", "precision": "1", "focus_area_descr": "Inclusive Growth"}, {"outputID": "00054966", "output_locID": "00054966-10", "name": "Shirak", "focus_area": "1", "lat": "40.750000", "type": "ADM1", "awardID": "00046258", "lon": "43.833330", "precision": "1", "focus_area_descr": "Inclusive Growth"}, {"outputID": "00054966", "output_locID": "00054966-11", "name": "Tavush", "focus_area": "1", "lat": "40.916670", "type": "ADM1", "awardID": "00046258", "lon": "45.166670", "precision": "1", "focus_area_descr": "Inclusive Growth"}], "operating_unit": "Armenia", "budget": 375763.0, "iati_op_id": "AM", "inst_descr": "Ministry of Nature Protection", "start": "2007-01-25", "operating_unit_id": "ARM", "expenditure": 295599.0, "document_name": [["Advance Authorization Cover Page", "SGP OP6 CPS_ENG_May 25 2016_FINAL", "Pilot building entrance before and after the installation of energy efficient doors and windows", "Budget 2017/18", "Country:", "Country:", "Country:", "SGP 00054966_Annual Report 2015"], ["https://info.undp.org/docs/pdc/Documents/ARM/00046258_AWP_2012_SGP.doc", "https://info.undp.org/docs/pdc/Documents/ARM/SGP OP6 CPS_ENG_May 25 2016_FINAL.pdf", "https://info.undp.org/docs/pdc/Documents/ARM/Pilot building entrance before and after the installation of energy efficient doors and windows.jpg", "https://info.undp.org/docs/pdc/Documents/ARM/46258.PDF", "https://info.undp.org/docs/pdc/Documents/ARM/SGP SPR_Jan-Dec 2016_ENG.doc", "https://info.undp.org/docs/pdc/Documents/ARM/SGP SPR_Jan-Dec 2017_ENG.doc", "https://info.undp.org/docs/pdc/Documents/ARM/SGP SPR_Jan-Jun 2016_ENG.doc", "https://info.undp.org/docs/pdc/Documents/ARM/SGP 00054966_Annual Report 2015.doc"], ["doc", "pdf", "", "pdf", "doc", "doc", "doc", "doc"], [0, 0, 1, 3, 6, 6, 6, 6]], "project_id": "00046258", "inst_type_id": "10", "operating_unit_website": null, "project_title": "small grants programme"}