{"project_descr": "AA4 Renforcement des capacit\u00e9s des acteurs locaux  OMD", "fiscal_year": [2014, 2012, 2013], "end": "2011-12-31", "region_id": "RBA", "operating_unit_email": "registry.ml@undp.org", "inst_id": "02077", "outputs": [{"output_id": "00057041", "crs": "23030", "donor_id": ["00012"], "focus_area": "1", "gender_descr": "Gender Equality", "output_title": "Planificat. bas\u00e9e sur les OMDs", "budget": [0.0, 0.0, 0.0], "fiscal_year": [2012, 2013, 2014], "gender_id": "1", "donor_name": ["Voluntary Contributions"], "award_id": "00047476", "output_descr": "Projet de Renforcement des capacit\u00e9s des acteurs en planification locale pour l'acc\u00e9l\u00e9ration de l'atteinte des Objectifs du Mill\u00e9naire pour le D\u00e9veloppement dans les 166 communes du Programme National de S\u00e9curit\u00e9 Alimentaire.", "donor_short": ["UNDP"], "expenditure": [24279.0, 0.0, 0.0], "crs_descr": null, "focus_area_descr": "Inclusive & Sustainable Growth"}], "subnational": [{"outputID": "00057041", "output_locID": "00057041-1", "name": "Gao", "focus_area": "1", "lat": "16.271670", "type": "PPLA", "awardID": "00047476", "lon": "-0.044720", "precision": "1", "focus_area_descr": "Inclusive & Sustainable Growth"}, {"outputID": "00057041", "output_locID": "00057041-2", "name": "Kidal", "focus_area": "1", "lat": "18.441110", "type": "PPLA", "awardID": "00047476", "lon": "1.407780", "precision": "1", "focus_area_descr": "Inclusive & Sustainable Growth"}, {"outputID": "00057041", "output_locID": "00057041-3", "name": "Koulikoro", "focus_area": "1", "lat": "12.862730", "type": "PPLA", "awardID": "00047476", "lon": "-7.559850", "precision": "1", "focus_area_descr": "Inclusive & Sustainable Growth"}, {"outputID": "00057041", "output_locID": "00057041-4", "name": "Mopti", "focus_area": "1", "lat": "14.484300", "type": "PPLA", "awardID": "00047476", "lon": "-4.182960", "precision": "1", "focus_area_descr": "Inclusive & Sustainable Growth"}, {"outputID": "00057041", "output_locID": "00057041-5", "name": "Mopti", "focus_area": "1", "lat": "14.484300", "type": "PPLA", "awardID": "00047476", "lon": "-4.182960", "precision": "1", "focus_area_descr": "Inclusive & Sustainable Growth"}, {"outputID": "00057041", "output_locID": "00057041-6", "name": "Kayes", "focus_area": "1", "lat": "14.446930", "type": "PPLA", "awardID": "00047476", "lon": "-11.444480", "precision": "1", "focus_area_descr": "Inclusive & Sustainable Growth"}, {"outputID": "00057041", "output_locID": "00057041-7", "name": "S\u00e9gou", "focus_area": "1", "lat": "13.431700", "type": "PPLA", "awardID": "00047476", "lon": "-6.215700", "precision": "1", "focus_area_descr": "Inclusive & Sustainable Growth"}, {"outputID": "00057041", "output_locID": "00057041-8", "name": "S\u00e9gou", "focus_area": "1", "lat": "13.431700", "type": "PPLA", "awardID": "00047476", "lon": "-6.215700", "precision": "1", "focus_area_descr": "Inclusive & Sustainable Growth"}, {"outputID": "00057041", "output_locID": "00057041-9", "name": "Tombouctou Region", "focus_area": "1", "lat": "19.700000", "type": "ADM1", "awardID": "00047476", "lon": "-3.600000", "precision": "1", "focus_area_descr": "Inclusive & Sustainable Growth"}], "operating_unit": "Mali", "budget": 0.0, "iati_op_id": "ML", "inst_descr": "National Execution", "start": "2007-06-14", "operating_unit_id": "MLI", "expenditure": 24279.0, "document_name": [["00047476_Prodoc Renforcement des capacit\u00e9s des acteurs_OMD"], ["http://www.undp.org/content/dam/undp/documents/projects/MLI/00047476_Prodoc Renforcement des capacit\u00e9s des acteurs_OMD.pdf"], ["pdf"]], "project_id": "00047476", "inst_type_id": "10", "operating_unit_website": "http://www.ml.undp.org/", "project_title": "aa4 renforcement des capacit\u00e9s des acteurs locaux  omd"}