{"project_descr": "Conservation &amp; Sustainable Use of Wetlands in Nepal", "fiscal_year": [2013, 2012], "end": "2013-12-31", "region_id": "RBAP", "operating_unit_email": "registry.np@undp.org", "inst_id": "02234", "outputs": [{"output_id": "00049898", "crs": null, "donor_id": ["00012", "10003"], "disbursement": [], "focus_area": "-", "gender_descr": "Gender Equality", "output_title": "Conservation &Sustainable use", "budget": [622547.0, 269674.0], "fiscal_year": [2012, 2013], "gender_id": "1", "expenditure": [611062.0, 259643.0], "award_id": "00042939", "output_descr": "Wetlands biodiversity consetvation values integrated into national policy and planning frameworks; institutional capacity for wetland conservation and sustainable use strengthened;", "donor_short": ["UNDP", "GEFTrustee"], "donor_name": ["Voluntary Contributions", "Global Environment Fund Truste"], "crs_descr": null, "focus_area_descr": "-"}], "subnational": [{"outputID": "00049898", "output_locID": "00049898-1", "name": "Dharampur", "focus_area": "-", "lat": "27.755510", "type": "PPL", "awardID": "00042939", "lon": "85.345360", "precision": "1", "focus_area_descr": "-"}, {"outputID": "00049898", "output_locID": "00049898-2", "name": "Darakh", "focus_area": "-", "lat": "28.639400", "type": "ADM4", "awardID": "00042939", "lon": "80.951100", "precision": "1", "focus_area_descr": "-"}, {"outputID": "00049898", "output_locID": "00049898-3", "name": "Haripur", "focus_area": "-", "lat": "27.025000", "type": "ADM4", "awardID": "00042939", "lon": "85.577300", "precision": "1", "focus_area_descr": "-"}, {"outputID": "00049898", "output_locID": "00049898-4", "name": "Sadepani", "focus_area": "-", "lat": "28.688300", "type": "ADM4", "awardID": "00042939", "lon": "80.993300", "precision": "1", "focus_area_descr": "-"}, {"outputID": "00049898", "output_locID": "00049898-5", "name": "Jagatpur", "focus_area": "-", "lat": "27.574600", "type": "ADM4", "awardID": "00042939", "lon": "84.307340", "precision": "1", "focus_area_descr": "-"}, {"outputID": "00049898", "output_locID": "00049898-6", "name": "Baramjhiya", "focus_area": "-", "lat": "26.607380", "type": "ADM4", "awardID": "00042939", "lon": "86.899030", "precision": "1", "focus_area_descr": "-"}, {"outputID": "00049898", "output_locID": "00049898-7", "name": "Kamalpur", "focus_area": "-", "lat": "26.687610", "type": "ADM4", "awardID": "00042939", "lon": "86.948180", "precision": "1", "focus_area_descr": "-"}, {"outputID": "00049898", "output_locID": "00049898-8", "name": "Laukahi", "focus_area": "-", "lat": "26.597160", "type": "ADM4", "awardID": "00042939", "lon": "87.065120", "precision": "1", "focus_area_descr": "-"}, {"outputID": "00049898", "output_locID": "00049898-9", "name": "Sripurjabdi", "focus_area": "-", "lat": "26.563000", "type": "ADM4", "awardID": "00042939", "lon": "87.019510", "precision": "1", "focus_area_descr": "-"}, {"outputID": "00049898", "output_locID": "00049898-10", "name": "Badgama", "focus_area": "-", "lat": "26.610530", "type": "ADM4", "awardID": "00042939", "lon": "86.910230", "precision": "1", "focus_area_descr": "-"}, {"outputID": "00049898", "output_locID": "00049898-11", "name": "Bairawa", "focus_area": "-", "lat": "26.586510", "type": "ADM4", "awardID": "00042939", "lon": "86.922280", "precision": "1", "focus_area_descr": "-"}, {"outputID": "00049898", "output_locID": "00049898-12", "name": "Odraha", "focus_area": "-", "lat": "26.704620", "type": "ADM4", "awardID": "00042939", "lon": "86.968460", "precision": "1", "focus_area_descr": "-"}, {"outputID": "00049898", "output_locID": "00049898-13", "name": "Madhuwan", "focus_area": "-", "lat": "26.645120", "type": "ADM4", "awardID": "00042939", "lon": "87.066740", "precision": "1", "focus_area_descr": "-"}, {"outputID": "00049898", "output_locID": "00049898-14", "name": "Prakashpur", "focus_area": "-", "lat": "26.692000", "type": "ADM4", "awardID": "00042939", "lon": "87.088340", "precision": "1", "focus_area_descr": "-"}, {"outputID": "00049898", "output_locID": "00049898-15", "name": "Tapeswori", "focus_area": "-", "lat": "26.756390", "type": "ADM4", "awardID": "00042939", "lon": "86.978170", "precision": "1", "focus_area_descr": "-"}, {"outputID": "00049898", "output_locID": "00049898-16", "name": "Ghoghanpur", "focus_area": "-", "lat": "26.666270", "type": "PPLL", "awardID": "00042939", "lon": "86.922840", "precision": "1", "focus_area_descr": "-"}, {"outputID": "00049898", "output_locID": "00049898-17", "name": "Pipra", "focus_area": "-", "lat": "26.654940", "type": "PPLL", "awardID": "00042939", "lon": "86.941960", "precision": "1", "focus_area_descr": "-"}], "operating_unit": "Nepal", "budget": 892221.0, "iati_op_id": "NP", "inst_descr": "National Execution", "start": "2007-03-14", "operating_unit_id": "NPL", "expenditure": 870705.0, "document_name": [["00042939_wetlands signed prodoc part II", "00042939_wetlands signed prodocpart I", "CSUWN MTE Final Report  November 20th 2011"], ["https://info.undp.org/docs/pdc/Documents/NPL/00042939_wetlands signed prodoc part II.pdf", "https://info.undp.org/docs/pdc/Documents/NPL/00042939_wetlands signed prodoc-part I.pdf", "https://info.undp.org/docs/pdc/Documents/NPL/CSUWN MTE Final Report - November 20th, 2011.pdf"], ["pdf", "pdf", "pdf"], [0, 0, 0]], "project_id": "00042939", "inst_type_id": "10", "operating_unit_website": null, "project_title": "conservation & sustainable use of nepal wetlands"}