{"budget":[1512725.0],"document_name":[["CSUWN MTE Final Report - November 20th, 2011.pdf","wetlands signed prodoc part II.pdf","wetlands signed prodoc-part I.pdf"],["http://www.undp.org/content/dam/undp/documents/projects/NPL/00042939/CSUWN MTE Final Report - November 20th, 2011.pdf","http://www.undp.org/content/dam/undp/documents/projects/NPL/00042939/wetlands signed prodoc part II.pdf","http://www.undp.org/content/dam/undp/documents/projects/NPL/00042939/wetlands signed prodoc-part I.pdf"]],"end":"2013-12-31","expenditure":[1985138.0],"fiscal_year":["2013","2012","2011","2010"],"iati_op_id":"NP","inst_descr":"National Execution","inst_id":"02234","inst_type_id":"10","operating_unit":"Nepal","operating_unit_email":"registry.np@undp.org","operating_unit_id":"NPL","operating_unit_website":"http://www.undp.org.np/","outputs":[{"award_id":"00042939","budget":[269674.0,622547.0,620504.0,null],"crs":"99810","crs_descr":"Sectors Not Specified","donor_id":["00012","10003"],"donor_name":["Voluntary Contributions","Global Environment Fund Truste"],"donor_short":["UNDP","GEFTrustee"],"expenditure":[259644.0,611062.0,556722.0,557710.0],"fiscal_year":["2013","2012","2011","2010"],"focus_area":"-","focus_area_descr":"-","gender_descr":"Gender Equality","gender_id":"1","output_descr":"The project will build capacity, and legal and policy frameworks (related both to conservation and development) for an ecosystem approach to wetland conservation and sustainable use.  The project will ensure that national policies and planning frameworks identify and protect wetlands of global biodiversity significance and protect globally threatened species, including migratory species and improve transboundary cooperation. Awareness on and capacity of Nepal to engage in and to promote international policies and collaborative efforts for wetland conservation will be strengthened.  It has been designed to influence two cycles of national and local development plans and to allow adequate time to achieve visible results and proper stakeholder takeover of project activities. Partnerships and capacity will be developed at both national and local levels to effect long-term changes to the perception, value, and sustainable management of wetlands in Nepal to ensure sustainability and replication of project initiated actions even after project end. The project will produce three Outcomes. These include Outcome 1 \"Wetland biodiversity conservation values integrated into national policy and planning framework\", Outcome 2 \"Strengthened national institutional, technical and economic capacity and awareness for wetland biodiversity conservation and sustainable use\" and Outcome 3 \"Enhanced collaborative management of wetland resources for conservation and sustainable livelihoods\".","output_id":"00049898","output_title":"Conservation &Sustainable use"}],"project_descr":"Conservation & Sustainable Use of Wetlands in Nepal","project_id":"00042939","project_title":"Conservation & Sustainable use of Nepal Wetlands","region_id":"RBAP","start":"2007-03-14","subnational":[{"awardID":"00042939","focus_area":"-","focus_area_descr":"-","lat":"26.61053","lon":"86.91023","name":"Badgama","outputID":"00049898","output_locID":"00049898-1","precision":"3","type":"ADM2"},{"awardID":"00042939","focus_area":"-","focus_area_descr":"-","lat":"26.58651","lon":"86.92228","name":"Bairawa","outputID":"00049898","output_locID":"00049898-2","precision":"3","type":"ADM2"},{"awardID":"00042939","focus_area":"-","focus_area_descr":"-","lat":"26.60738","lon":"86.89903","name":"Baramjhiya","outputID":"00049898","output_locID":"00049898-3","precision":"3","type":"ADM2"},{"awardID":"00042939","focus_area":"-","focus_area_descr":"-","lat":"28.6394","lon":"80.9511","name":"Darakh","outputID":"00049898","output_locID":"00049898-4","precision":"3","type":"ADM2"},{"awardID":"00042939","focus_area":"-","focus_area_descr":"-","lat":"27.75551","lon":"85.34536","name":"Dharampur","outputID":"00049898","output_locID":"00049898-5","precision":"3","type":"PPL"},{"awardID":"00042939","focus_area":"-","focus_area_descr":"-","lat":"26.66627","lon":"86.92284","name":"Ghoghanpur","outputID":"00049898","output_locID":"00049898-6","precision":"3","type":"PPL"},{"awardID":"00042939","focus_area":"-","focus_area_descr":"-","lat":"27.025","lon":"85.5773","name":"Haripur","outputID":"00049898","output_locID":"00049898-7","precision":"3","type":"ADM2"},{"awardID":"00042939","focus_area":"-","focus_area_descr":"-","lat":"27.5746","lon":"84.30734","name":"Jagatpur","outputID":"00049898","output_locID":"00049898-8","precision":"3","type":"ADM2"},{"awardID":"00042939","focus_area":"-","focus_area_descr":"-","lat":"26.68761","lon":"86.94818","name":"Kamalpur","outputID":"00049898","output_locID":"00049898-9","precision":"3","type":"ADM2"},{"awardID":"00042939","focus_area":"-","focus_area_descr":"-","lat":"26.59716","lon":"87.06512","name":"Laukahi","outputID":"00049898","output_locID":"00049898-10","precision":"3","type":"ADM2"},{"awardID":"00042939","focus_area":"-","focus_area_descr":"-","lat":"26.64512","lon":"87.06674","name":"Madhuwan","outputID":"00049898","output_locID":"00049898-11","precision":"3","type":"ADM2"},{"awardID":"00042939","focus_area":"-","focus_area_descr":"-","lat":"26.70462","lon":"86.96846","name":"Odraha","outputID":"00049898","output_locID":"00049898-12","precision":"3","type":"ADM2"},{"awardID":"00042939","focus_area":"-","focus_area_descr":"-","lat":"26.65494","lon":"86.94196","name":"Pipra Purba","outputID":"00049898","output_locID":"00049898-13","precision":"3","type":"PPL"},{"awardID":"00042939","focus_area":"-","focus_area_descr":"-","lat":"26.692","lon":"87.08834","name":"Prakashpur","outputID":"00049898","output_locID":"00049898-14","precision":"3","type":"ADM2"},{"awardID":"00042939","focus_area":"-","focus_area_descr":"-","lat":"28.6883","lon":"80.9933","name":"Sadepani","outputID":"00049898","output_locID":"00049898-15","precision":"3","type":"ADM2"},{"awardID":"00042939","focus_area":"-","focus_area_descr":"-","lat":"26.563","lon":"87.01951","name":"Sripurjabdi","outputID":"00049898","output_locID":"00049898-16","precision":"3","type":"ADM2"},{"awardID":"00042939","focus_area":"-","focus_area_descr":"-","lat":"26.75639","lon":"86.97817","name":"Tapeswori","outputID":"00049898","output_locID":"00049898-17","precision":"3","type":"ADM2"}]}