{"project_descr": "Support the priority of the Government of Southern Sudan (GOSS) on implementation of the CPA and peaceful resolution of conflicts through the creation of an enabling environment for the promotion and protection of human rights and the rule of law", "fiscal_year": [2016, 2012, 2013, 2014], "end": "2014-12-31", "region_id": "RBA", "operating_unit_email": "info.ssd@undp.org", "inst_id": "02885", "outputs": [{"output_id": "00056820", "crs": "99810", "donor_id": ["44000", "00227"], "disbursement": [], "focus_area": "0", "gender_descr": "Gender Equality", "output_title": "Capacity building of Police se", "budget": [0.0, 1.0], "fiscal_year": [2016, 2012], "gender_id": "1", "expenditure": [-2926.0, -716.0], "award_id": "00047336", "output_descr": "Provision of training and organizational development for the Police across Southern Sudan.", "donor_short": ["SUD"], "donor_name": ["GOVERNMENT OF SUDAN", "INTERNATIONAL DEVELOPMENT AGENCY"], "crs_descr": null, "focus_area_descr": "SP_NONE_APPLIES"}, {"output_id": "00056894", "crs": "99810", "donor_id": ["44000"], "disbursement": [], "focus_area": "0", "gender_descr": "Gender Equality", "output_title": "Capacity Building of Prisons S", "budget": [0.0, 1.0], "fiscal_year": [2016, 2012], "gender_id": "1", "expenditure": [-174.0, -1219.0], "award_id": "00047336", "output_descr": "Capacity Building of Prisons Service", "donor_short": [], "donor_name": ["INTERNATIONAL DEVELOPMENT AGENCY"], "crs_descr": null, "focus_area_descr": "SP_NONE_APPLIES"}, {"output_id": "00063319", "crs": null, "donor_id": ["GB-GOV-1"], "disbursement": [], "focus_area": "-", "gender_descr": "Gender Equality", "output_title": "Strategic Support to Pol&Pris.", "budget": [0.0, 1.0, 0.0, 3.0], "fiscal_year": [2016, 2012, 2013, 2014], "gender_id": "1", "expenditure": [-163.0, -203.0, -1523.0, 0.0], "award_id": "00047336", "output_descr": "Strategic support to Police and Prisons Services of Southern Sudan .", "donor_short": [], "donor_name": ["DEPARTMENT FOR INTERNATIONAL DEVELOPMENT"], "crs_descr": null, "focus_area_descr": "-"}], "subnational": [{"outputID": "00056820", "output_locID": "00056820-1", "name": "Yambio", "focus_area": "0", "lat": "4.572130", "type": "PPLA", "awardID": "00047336", "lon": "28.395490", "precision": "1", "focus_area_descr": "SP_NONE_APPLIES"}, {"outputID": "00056820", "output_locID": "00056820-2", "name": "Wau", "focus_area": "0", "lat": "7.702860", "type": "PPLA", "awardID": "00047336", "lon": "27.995300", "precision": "1", "focus_area_descr": "SP_NONE_APPLIES"}, {"outputID": "00056820", "output_locID": "00056820-3", "name": "Torit", "focus_area": "0", "lat": "4.411770", "type": "PPLA", "awardID": "00047336", "lon": "32.570460", "precision": "1", "focus_area_descr": "SP_NONE_APPLIES"}, {"outputID": "00056820", "output_locID": "00056820-4", "name": "Malakal", "focus_area": "0", "lat": "9.533420", "type": "PPLA", "awardID": "00047336", "lon": "31.660480", "precision": "1", "focus_area_descr": "SP_NONE_APPLIES"}, {"outputID": "00056820", "output_locID": "00056820-5", "name": "Kajok", "focus_area": "0", "lat": "8.300160", "type": "PPLA", "awardID": "00047336", "lon": "27.990280", "precision": "1", "focus_area_descr": "SP_NONE_APPLIES"}, {"outputID": "00056820", "output_locID": "00056820-6", "name": "Bor", "focus_area": "0", "lat": "6.205930", "type": "PPLA", "awardID": "00047336", "lon": "31.556330", "precision": "1", "focus_area_descr": "SP_NONE_APPLIES"}, {"outputID": "00056894", "output_locID": "00056894-1", "name": "Yambio", "focus_area": "0", "lat": "4.572130", "type": "PPLA", "awardID": "00047336", "lon": "28.395490", "precision": "1", "focus_area_descr": "SP_NONE_APPLIES"}, {"outputID": "00056894", "output_locID": "00056894-2", "name": "Wau", "focus_area": "0", "lat": "7.702860", "type": "PPLA", "awardID": "00047336", "lon": "27.995300", "precision": "1", "focus_area_descr": "SP_NONE_APPLIES"}, {"outputID": "00056894", "output_locID": "00056894-3", "name": "Torit", "focus_area": "0", "lat": "4.411770", "type": "PPLA", "awardID": "00047336", "lon": "32.570460", "precision": "1", "focus_area_descr": "SP_NONE_APPLIES"}, {"outputID": "00056894", "output_locID": "00056894-4", "name": "Malakal", "focus_area": "0", "lat": "9.533420", "type": "PPLA", "awardID": "00047336", "lon": "31.660480", "precision": "1", "focus_area_descr": "SP_NONE_APPLIES"}, {"outputID": "00056894", "output_locID": "00056894-5", "name": "Kajok", "focus_area": "0", "lat": "8.300160", "type": "PPLA", "awardID": "00047336", "lon": "27.990280", "precision": "1", "focus_area_descr": "SP_NONE_APPLIES"}, {"outputID": "00056894", "output_locID": "00056894-6", "name": "Bor", "focus_area": "0", "lat": "6.205930", "type": "PPLA", "awardID": "00047336", "lon": "31.556330", "precision": "1", "focus_area_descr": "SP_NONE_APPLIES"}, {"outputID": "00063319", "output_locID": "00063319-1", "name": "Yambio", "focus_area": "-", "lat": "4.572130", "type": "PPLA", "awardID": "00047336", "lon": "28.395490", "precision": "1", "focus_area_descr": "-"}, {"outputID": "00063319", "output_locID": "00063319-2", "name": "Wau", "focus_area": "-", "lat": "7.702860", "type": "PPLA", "awardID": "00047336", "lon": "27.995300", "precision": "1", "focus_area_descr": "-"}, {"outputID": "00063319", "output_locID": "00063319-3", "name": "Torit", "focus_area": "-", "lat": "4.411770", "type": "PPLA", "awardID": "00047336", "lon": "32.570460", "precision": "1", "focus_area_descr": "-"}, {"outputID": "00063319", "output_locID": "00063319-4", "name": "Malakal", "focus_area": "-", "lat": "9.533420", "type": "PPLA", "awardID": "00047336", "lon": "31.660480", "precision": "1", "focus_area_descr": "-"}, {"outputID": "00063319", "output_locID": "00063319-5", "name": "Kajok", "focus_area": "-", "lat": "8.300160", "type": "PPLA", "awardID": "00047336", "lon": "27.990280", "precision": "1", "focus_area_descr": "-"}, {"outputID": "00063319", "output_locID": "00063319-6", "name": "Bor", "focus_area": "-", "lat": "6.205930", "type": "PPLA", "awardID": "00047336", "lon": "31.556330", "precision": "1", "focus_area_descr": "-"}], "operating_unit": "South Sudan, Republic of", "budget": 6.0, "iati_op_id": "SS", "inst_descr": "UNDP (Direct Execution)", "start": "2007-05-01", "operating_unit_id": "SSD", "expenditure": -6924.0, "document_name": [["P and P P AWP 2011", "Request for Procurement"], ["https://info.undp.org/docs/pdc/Documents/SSD/P and P P AWP 2011.pdf", "http://procurement-notices.undp.org/index.cfm"], ["pdf", ""], [3, 10]], "project_id": "00047336", "inst_type_id": "40", "operating_unit_website": null, "project_title": "support to police and prisons"}