{"budget":[2108.0],"document_name":[["P & P P AWP 2011.pdf"],["http://www.undp.org/content/dam/undp/documents/projects/SSD/00047336/P & P P AWP 2011.pdf"]],"end":"2013-06-30","expenditure":[1098595.0],"fiscal_year":["2013","2012","2011","2010"],"iati_op_id":"SS","inst_descr":"UNDP (Direct Execution)","inst_id":"02885","inst_type_id":"40","operating_unit":"South Sudan, Republic of","operating_unit_id":"SSD","outputs":[{"award_id":"00047336","budget":[4.0,4.0,2100.0,null],"crs":"99810","crs_descr":"Sectors Not Specified","donor_id":["00031","00032","00040","00141"],"donor_name":["UNITED NATIONS POPULATION FUND","UNITED NATIONS DEVELOPMENT FUND FOR WOME","UN HIGH COMMISSIONER FOR REFUGEES","GOVERNMENT OF JAPAN"],"donor_short":["UNFPA","UN Women","UNHCR","JPN"],"expenditure":[0.0,-203.0,null,1098798.0],"fiscal_year":["2013","2012","2011","2010"],"focus_area":"-","focus_area_descr":"-","gender_descr":"Gender Equality","gender_id":"1","output_descr":"The project aims to enhance capacity of Police hrough training and campaigns as well provide logistical support to the Prisons on sewage management hence promoting sanitation of Prisons in Southern Sudan.","output_id":"00063319","output_title":"Strategic Support to Pol&Pris."}],"project_descr":"Support the priority of the Government of Southern Sudan (GOSS) on implementation of the CPA and peaceful resolution of conflicts through the creation of an enabling environment for the promotion and protection of human rights and the rule of law","project_id":"00047336","project_title":"Support to Police and Prisons","region_id":"RBA","start":"2007-05-01","subnational":[{"awardID":"00047336","lat":"6.20593","lon":"31.55633","name":"Bor Jonglei State","precision":"3","type":"PPLA"},{"awardID":"00047336","lat":"8.30016","lon":"27.99028","name":"Kwajok Warrap State","precision":"3","type":"PPLA"},{"awardID":"00047336","lat":"9.53342","lon":"31.66048","name":"Malakal Upper Nile State","precision":"3","type":"PPLA"},{"awardID":"00047336","lat":"4.41333","lon":"32.56778","name":"Torit Eastern Equatoria State","precision":"3","type":"PPLA"},{"awardID":"00047336","lat":"7.70286","lon":"27.9953","name":"Wau Western Bahr el Ghazal State","precision":"3","type":"PPLA"},{"awardID":"00047336","lat":"4.57213","lon":"28.39549","name":"Yambio Western Equatoria State","precision":"3","type":"PPLA"}]}