{"budget":[3.0],"document_name":[],"end":"2011-12-31","expenditure":[58129.0],"fiscal_year":["2013","2012","2011","2010"],"iati_op_id":"ML","inst_descr":"UNDP","inst_id":"99999","inst_type_id":"40","operating_unit":"Mali","operating_unit_id":"MLI","outputs":[{"award_id":"00041127","budget":[0.0,3.0,null,null],"crs":"41010","crs_descr":"Environmental policy and administrative management","donor_id":["10003"],"donor_name":["Global Environment Fund Truste"],"donor_short":["GEFTrustee"],"expenditure":[0.0,-13926.0,64.0,71991.0],"fiscal_year":["2013","2012","2011","2010"],"focus_area":"4","focus_area_descr":"Environment & sustainable development","gender_descr":"Gender Equality","gender_id":"1","output_descr":"Permettre au Mali de s'acquitter de ses obligations en tant que partie \u00e0 la CCNUCC et au protocole de Kyoto en liaison avec ses objectifs de DD","output_id":"00046812","output_title":"PIMS 3584 CC-EA-SNC Mali"}],"project_descr":"Appui \u00e0 l'Elaboration de la Seconde Communication Natinale du Mali dans le cadre des Changements Climatiques (PIMS 3584 CC-EA _Mali SCN)","project_id":"00041127","project_title":"PIMS 3584 CC-EA _Mali SCN","region_id":"RBA","start":"2005-08-16","subnational":[{"awardID":"00041127","lat":"14.44693","lon":"-11.44448","name":"Regions de Kayes","precision":"3","type":"PPLA"},{"awardID":"00041127","lat":"12.86273","lon":"-7.55985","name":"Koulikoro","precision":"3","type":"PPLA"},{"awardID":"00041127","lat":"13.4317","lon":"-6.2157","name":"Segou","precision":"3","type":"PPLA"},{"awardID":"00041127","lat":"18.54778","lon":"-2.33417","name":"Tombouctou","precision":"3","type":"ADM1"},{"awardID":"00041127","lat":"16.27167","lon":"-0.04472","name":"Gao","precision":"3","type":"PPLA"},{"awardID":"00041127","lat":"18.44111","lon":"1.40778","name":"Kidal","precision":"3","type":"PPLA"},{"awardID":"00041127","lat":"14.4843","lon":"-4.18296","name":"Mopti","precision":"3","type":"PPLA"}]}