{"project_descr": "L'objectif est d'\u00e9viter la survenue de l'\u00e9pid\u00e9mie de grippe aviaire dans sle pays et le cas \u00e9ch\u00e9ant, d'en limiter les cons\u00e9quences \u00e9conomiques, sanitaires, sociales et psychologiques.", "fiscal_year": [2014, 2012, 2013], "end": "2013-12-31", "region_id": "RBA", "operating_unit_email": "registry.cm@undp.org", "inst_id": "99999", "outputs": [{"output_id": "00052110", "crs": null, "donor_id": ["10159"], "focus_area": "-", "gender_descr": "Gender Equality", "output_title": "Syst\u00e8me d'alerte & Interventio", "budget": [0.0, 0.0, 0.0], "fiscal_year": [2012, 2013, 2014], "gender_id": "1", "donor_name": ["EUROPEAN COMMISSION"], "award_id": "00044348", "output_descr": "Syst\u00e8me d'alerte et d'intervention des secteurs humain et v\u00e9trinaire renforc\u00e9 et moyens d'intervention mis en place", "donor_short": ["EUCOMM"], "expenditure": [0.0, 0.0, 0.0], "crs_descr": null, "focus_area_descr": "-"}, {"output_id": "00069646", "crs": null, "donor_id": ["00015"], "focus_area": "-", "gender_descr": "Gender Equality", "output_title": "GRIPPE AVIAIRE FIN. BANQ MON", "budget": [0.0, 0.0, 0.0], "fiscal_year": [2012, 2013, 2014], "gender_id": "1", "donor_name": ["WORLD BANK (INT'L. BANK FOR RECONSTRUCTI"], "award_id": "00044348", "output_descr": "Contribution de la Banque Mondiale au projet Grippe Aviaire", "donor_short": ["IBRD"], "expenditure": [0.0, 0.0, 0.0], "crs_descr": null, "focus_area_descr": "-"}], "subnational": [{"outputID": "00052110", "output_locID": "00052110-1", "name": "D\u00e9partement de l\u2019 Adamaoua", "focus_area": "-", "lat": "7.000000", "type": "ADM2", "awardID": "00044348", "lon": "13.500000", "precision": "1", "focus_area_descr": "-"}, {"outputID": "00052110", "output_locID": "00052110-2", "name": "Far North Region", "focus_area": "-", "lat": "11.000000", "type": "ADM1", "awardID": "00044348", "lon": "14.500000", "precision": "1", "focus_area_descr": "-"}, {"outputID": "00052110", "output_locID": "00052110-3", "name": "Garoua", "focus_area": "-", "lat": "9.301420", "type": "PPLA", "awardID": "00044348", "lon": "13.397710", "precision": "1", "focus_area_descr": "-"}, {"outputID": "00052110", "output_locID": "00052110-4", "name": "North Region", "focus_area": "-", "lat": "8.500000", "type": "ADM1", "awardID": "00044348", "lon": "14.000000", "precision": "1", "focus_area_descr": "-"}, {"outputID": "00052110", "output_locID": "00052110-5", "name": "Ngaound\u00e9r\u00e9", "focus_area": "-", "lat": "7.327650", "type": "PPLA", "awardID": "00044348", "lon": "13.584720", "precision": "1", "focus_area_descr": "-"}, {"outputID": "00052110", "output_locID": "00052110-6", "name": "Mfoundi", "focus_area": "-", "lat": "3.866700", "type": "ADM2", "awardID": "00044348", "lon": "11.516700", "precision": "1", "focus_area_descr": "-"}, {"outputID": "00069646", "output_locID": "00069646-1", "name": "D\u00e9partement de l\u2019 Adamaoua", "focus_area": "-", "lat": "7.000000", "type": "ADM2", "awardID": "00044348", "lon": "13.500000", "precision": "1", "focus_area_descr": "-"}, {"outputID": "00069646", "output_locID": "00069646-2", "name": "Far North Region", "focus_area": "-", "lat": "11.000000", "type": "ADM1", "awardID": "00044348", "lon": "14.500000", "precision": "1", "focus_area_descr": "-"}, {"outputID": "00069646", "output_locID": "00069646-3", "name": "Garoua", "focus_area": "-", "lat": "9.301420", "type": "PPLA", "awardID": "00044348", "lon": "13.397710", "precision": "1", "focus_area_descr": "-"}, {"outputID": "00069646", "output_locID": "00069646-4", "name": "North Region", "focus_area": "-", "lat": "8.500000", "type": "ADM1", "awardID": "00044348", "lon": "14.000000", "precision": "1", "focus_area_descr": "-"}, {"outputID": "00069646", "output_locID": "00069646-5", "name": "Ngaound\u00e9r\u00e9", "focus_area": "-", "lat": "7.327650", "type": "PPLA", "awardID": "00044348", "lon": "13.584720", "precision": "1", "focus_area_descr": "-"}, {"outputID": "00069646", "output_locID": "00069646-6", "name": "Mfoundi", "focus_area": "-", "lat": "3.866700", "type": "ADM2", "awardID": "00044348", "lon": "11.516700", "precision": "1", "focus_area_descr": "-"}], "operating_unit": "Cameroon, Republic of", "budget": 0.0, "iati_op_id": "CM", "inst_descr": "UNDP", "start": "2006-06-13", "operating_unit_id": "CMR", "expenditure": 0.0, "document_name": [["00044348_PRODOC GRIPPE AVIAIRE"], ["http://www.undp.org/content/dam/undp/documents/projects/CMR/00044348_PRODOC GRIPPE AVIAIRE.pdf"], ["pdf"]], "project_id": "00044348", "inst_type_id": "40", "operating_unit_website": "http://www.cm.undp.org/", "project_title": "grippe aviaire"}