{"budget":[3670896.0],"document_name":[["Project Document (61002).pdf"],["http://www.undp.org/content/dam/undp/documents/projects/LBR/00049777/Project Document (61002).pdf"]],"end":"2013-12-31","expenditure":[14204567.0],"fiscal_year":["2013","2012","2011","2010"],"iati_op_id":"LR","inst_descr":"UNDP","inst_id":"99999","inst_type_id":"40","operating_unit":"Liberia","operating_unit_email":"registry.lr@undp.org_","operating_unit_id":"LBR","operating_unit_website":"http://www.lr.undp.org/","outputs":[{"award_id":"00049777","budget":[388878.0,885665.0,2396353.0,null],"crs":"73010","crs_descr":"Reconstruction relief and rehabilitation","donor_id":["00095","00117","00134","00141","00187"],"donor_name":["GOVERNMENT OF DENMARK","GOVERNMENT OF GERMANY","GOVERNMENT OF IRELAND","GOVERNMENT OF JAPAN","GOVERNMENT OF NORWAY"],"donor_short":["DEN","GER","IRE","JPN","NOR"],"expenditure":[164746.0,850882.0,2814524.0,10374415.0],"fiscal_year":["2013","2012","2011","2010"],"focus_area":"3","focus_area_descr":"Crisis prevention & recovery","gender_descr":"Gender Equality","gender_id":"1","output_descr":"Enhancing Community Security and Social Cohesion will strengthen and sustain the effort of the Government of Liberia (GoL) and  UNDP   in community security and social cohesion at the grass roots levels.","output_id":"00061002","output_title":"Enhancing Community Security"}],"project_descr":"enhancing community security and social cohesion in selected communities in Liberia","project_id":"00049777","project_title":"Enhancing Community Security and Social Cohesion","region_id":"RBA","start":"2008-03-26","subnational":[{"awardID":"00049777","focus_area":"3","focus_area_descr":"Crisis prevention & recovery","lat":"6.99556","lon":"-9.47222","name":"Gbarnga","outputID":"00061002","output_locID":"00061002-1","precision":"3","type":"PPLA"},{"awardID":"00049777","focus_area":"3","focus_area_descr":"Crisis prevention & recovery","lat":"6.36667","lon":"-10.78333","name":"New Kru Town","outputID":"00061002","output_locID":"00061002-2","precision":"3","type":"PPL"},{"awardID":"00049777","focus_area":"3","focus_area_descr":"Crisis prevention & recovery","lat":"6.27556","lon":"-10.71778","name":"Paynesville","outputID":"00061002","output_locID":"00061002-3","precision":"3","type":"PPL"},{"awardID":"00049777","focus_area":"3","focus_area_descr":"Crisis prevention & recovery","lat":"6.77333","lon":"-11.04833","name":"Sinje","outputID":"00061002","output_locID":"00061002-4","precision":"3","type":"PPL"},{"awardID":"00049777","focus_area":"3","focus_area_descr":"Crisis prevention & recovery","lat":"6.40722","lon":"-8.55583","name":"Toe","outputID":"00061002","output_locID":"00061002-5","precision":"3","type":"PPL"},{"awardID":"00049777","focus_area":"3","focus_area_descr":"Crisis prevention & recovery","lat":"6.06667","lon":"-8.12806","name":"Zwedru","outputID":"00061002","output_locID":"00061002-6","precision":"3","type":"PPLA"},{"awardID":"00049777","focus_area":"3","focus_area_descr":"Crisis prevention & recovery","lat":"5.88083","lon":"-10.04667","name":"Grand Bassa","outputID":"00061002","output_locID":"00061002-7","precision":"4","type":"ADM1"},{"awardID":"00049777","focus_area":"3","focus_area_descr":"Crisis prevention & recovery","lat":"6.06667","lon":"-8.12806","name":"Grand Gedeh","outputID":"00061002","output_locID":"00061002-8","precision":"4","type":"ADM1"}]}