{"project_descr": "enhancing community security and social cohesion in selected communities in Liberia", "fiscal_year": [2014, 2012, 2013], "end": "2014-03-31", "region_id": "RBA", "operating_unit_email": "registry.lr@undp.org", "inst_id": "99999", "outputs": [{"output_id": "00061002", "crs": "15210", "donor_id": ["00117", "00187", "00012"], "focus_area": "3", "gender_descr": "Gender Equality", "output_title": "Enhancing Community Security", "budget": [885664.0, 388878.0, 35900.0], "fiscal_year": [2012, 2013, 2014], "gender_id": "1", "donor_name": ["GOVERNMENT OF NORWAY", "Voluntary Contributions", "GOVERNMENT OF GERMANY"], "award_id": "00049777", "output_descr": "Enhancing Community Security and Social Cohesion in Liberia", "donor_short": ["NOR", "UNDP", "GER"], "expenditure": [1465764.0, 164739.0, 31711.0], "crs_descr": null, "focus_area_descr": "Responsive Institutions"}], "subnational": [{"outputID": "00061002", "output_locID": "00061002-1", "name": "Gbarnga", "focus_area": "3", "lat": "6.995560", "type": "PPLA", "awardID": "00049777", "lon": "-9.472220", "precision": "1", "focus_area_descr": "Responsive Institutions"}, {"outputID": "00061002", "output_locID": "00061002-2", "name": "Grand Bassa County", "focus_area": "3", "lat": "6.250000", "type": "ADM1", "awardID": "00049777", "lon": "-9.750000", "precision": "1", "focus_area_descr": "Responsive Institutions"}, {"outputID": "00061002", "output_locID": "00061002-3", "name": "Grand Gedeh County", "focus_area": "3", "lat": "5.916670", "type": "ADM1", "awardID": "00049777", "lon": "-8.083330", "precision": "1", "focus_area_descr": "Responsive Institutions"}, {"outputID": "00061002", "output_locID": "00061002-4", "name": "New Kru Town", "focus_area": "3", "lat": "6.366670", "type": "PPL", "awardID": "00049777", "lon": "-10.783330", "precision": "1", "focus_area_descr": "Responsive Institutions"}, {"outputID": "00061002", "output_locID": "00061002-5", "name": "Paynesville", "focus_area": "3", "lat": "6.275560", "type": "PPL", "awardID": "00049777", "lon": "-10.717780", "precision": "1", "focus_area_descr": "Responsive Institutions"}, {"outputID": "00061002", "output_locID": "00061002-6", "name": "Sinje", "focus_area": "3", "lat": "6.546670", "type": "PPL", "awardID": "00049777", "lon": "-10.947500", "precision": "1", "focus_area_descr": "Responsive Institutions"}, {"outputID": "00061002", "output_locID": "00061002-7", "name": "Blaytoe", "focus_area": "3", "lat": "5.959170", "type": "PPL", "awardID": "00049777", "lon": "-9.131670", "precision": "1", "focus_area_descr": "Responsive Institutions"}, {"outputID": "00061002", "output_locID": "00061002-8", "name": "Zwedru", "focus_area": "3", "lat": "6.066670", "type": "PPLA", "awardID": "00049777", "lon": "-8.128060", "precision": "1", "focus_area_descr": "Responsive Institutions"}], "operating_unit": "Liberia", "budget": 1310442.0, "iati_op_id": "LR", "inst_descr": "UNDP", "start": "2008-03-26", "operating_unit_id": "LBR", "expenditure": 1662214.0, "document_name": [["00049777_Project Document (61002)"], ["http://www.undp.org/content/dam/undp/documents/projects/LBR/00049777_Project Document (61002).pdf"], ["pdf"]], "project_id": "00049777", "inst_type_id": "40", "operating_unit_website": "http://www.lr.undp.org/", "project_title": "enhancing community security and social cohesion"}