{"budget":[0.0],"document_name":[],"end":"2010-12-31","expenditure":[0.0],"fiscal_year":["2013"],"iati_op_id":"IN","inst_descr":"IND-Forest Deptt.Government of","inst_id":"03681","inst_type_id":"10","operating_unit":"India","operating_unit_email":"info.in@undp.org","operating_unit_id":"IND","operating_unit_website":"http://www.in.undp.org/","outputs":[{"award_id":"00040748","budget":[0.0],"crs":"99810","crs_descr":"Sectors Not Specified","donor_id":["10003"],"donor_name":["Global Environment Fund Truste"],"donor_short":["GEFTrustee"],"expenditure":[0.0],"fiscal_year":["2013"],"focus_area":"-","focus_area_descr":"-","gender_descr":"Gender Equality","gender_id":"1","output_descr":"Developing project strategy for integrated land use management to combat land degradation and deforestation in Madhya Pradesh to benefit small and marginal farmers","output_id":"00046257","output_title":"Combat Land Degradation"}],"project_descr":"Integrated Land Use Management to Combat Land Degradation and Deforestation in Madhya Pradesh","project_id":"00040748","project_title":"Combat Land Degradation","region_id":"RBAP","start":"2005-07-01","subnational":[{"awardID":"00040748","focus_area":"-","focus_area_descr":"-","lat":"21.90195","lon":"77.90405","name":"Betul","outputID":"00046257","output_locID":"00046257-1","precision":"3","type":"PPL"},{"awardID":"00040748","focus_area":"-","focus_area_descr":"-","lat":"22.05795","lon":"78.93763","name":"Chhindwara","outputID":"00046257","output_locID":"00046257-2","precision":"3","type":"PPL"},{"awardID":"00040748","focus_area":"-","focus_area_descr":"-","lat":"23.41068","lon":"78.65934","name":"Umaria","outputID":"00046257","output_locID":"00046257-3","precision":"3","type":"PPL"},{"awardID":"00040748","focus_area":"-","focus_area_descr":"-","lat":"24.19973","lon":"82.67535","name":"Singrauli","outputID":"00046257","output_locID":"00046257-4","precision":"3","type":"PPL"},{"awardID":"00040748","focus_area":"-","focus_area_descr":"-","lat":"24.39329","lon":"81.87935","name":"Sidhi","outputID":"00046257","output_locID":"00046257-5","precision":"3","type":"PPL"}]}