{"project_descr": "National Capacity Builfding for Disaster Risk Management", "fiscal_year": [2014, 2012, 2013], "end": "2013-10-31", "region_id": "RBAP", "operating_unit_email": "registry.pk@undp.org", "inst_id": "02366", "outputs": [{"output_id": "00057915", "crs": null, "donor_id": ["00141", "00551", "00012", "00055"], "focus_area": "-", "gender_descr": "Gender Equality", "output_title": "One UN DRM Programme", "budget": [1390144.0, 127408.0, 0.0], "fiscal_year": [2012, 2013, 2014], "gender_id": "1", "donor_name": ["GOVERNMENT OF JAPAN", "DEPARTMENT FOR INTERNATIONAL DEVELOPMENT", "Voluntary Contributions", "GOVERNMENT OF AUSTRALIA"], "award_id": "00047974", "output_descr": "Enhanced capacity of the Government of Pakistan at the Federal, Provincial and District levels in dealing with disaster risks in a systematic manner.", "donor_short": ["JPN", "DFID", "UNDP", "AUL"], "expenditure": [1277724.0, 110478.0, 0.0], "crs_descr": null, "focus_area_descr": "-"}, {"output_id": "00080536", "crs": "74010", "donor_id": ["00141", "00012"], "focus_area": "6", "gender_descr": "Gender Equality", "output_title": "UNV suport to UNDP's Flood Res", "budget": [351789.0, 67310.0], "fiscal_year": [2012, 2013], "gender_id": "1", "donor_name": ["Voluntary Contributions", "GOVERNMENT OF JAPAN"], "award_id": "00047974", "output_descr": "The Over all objective of the project is to support early recovery activities undertaken by UNDP Pakistan through the mobilization of UN volunteers and the promotion of volunteerism by applying UNV's business model which is built on three main thrusts of (a) advocacy for volunteerism for peace and development globaly (b) integration of volunteerism into peace and development programming  and (c) mobilization of volunteers for peace and development.", "donor_short": ["UNDP", "JPN"], "expenditure": [324970.0, 69023.0], "crs_descr": "Disaster prevention and preparedness", "focus_area_descr": "Crisis Prevention & Recovery"}], "subnational": [{"outputID": "00057915", "output_locID": "00057915-1", "name": "Balochistan", "focus_area": "-", "lat": "28.478490", "type": "ADM1", "awardID": "00047974", "lon": "65.643550", "precision": "1", "focus_area_descr": "-"}, {"outputID": "00057915", "output_locID": "00057915-2", "name": "Balochistan", "focus_area": "-", "lat": "28.478490", "type": "ADM1", "awardID": "00047974", "lon": "65.643550", "precision": "1", "focus_area_descr": "-"}, {"outputID": "00057915", "output_locID": "00057915-3", "name": "Charsadda District", "focus_area": "-", "lat": "34.251020", "type": "ADM2", "awardID": "00047974", "lon": "71.690370", "precision": "1", "focus_area_descr": "-"}, {"outputID": "00057915", "output_locID": "00057915-4", "name": "Dadu", "focus_area": "-", "lat": "26.732860", "type": "PPLA2", "awardID": "00047974", "lon": "67.776310", "precision": "1", "focus_area_descr": "-"}, {"outputID": "00057915", "output_locID": "00057915-5", "name": "Dera Ghazi Khan", "focus_area": "-", "lat": "30.056140", "type": "PPLA2", "awardID": "00047974", "lon": "70.634770", "precision": "1", "focus_area_descr": "-"}, {"outputID": "00057915", "output_locID": "00057915-6", "name": "Dera Ghazi Khan", "focus_area": "-", "lat": "30.056140", "type": "PPLA2", "awardID": "00047974", "lon": "70.634770", "precision": "1", "focus_area_descr": "-"}, {"outputID": "00057915", "output_locID": "00057915-7", "name": "Dera Ismail Khan", "focus_area": "-", "lat": "31.832690", "type": "PPLA2", "awardID": "00047974", "lon": "70.902400", "precision": "1", "focus_area_descr": "-"}, {"outputID": "00057915", "output_locID": "00057915-8", "name": "Dera Ismail Khan", "focus_area": "-", "lat": "31.832690", "type": "PPLA2", "awardID": "00047974", "lon": "70.902400", "precision": "1", "focus_area_descr": "-"}, {"outputID": "00057915", "output_locID": "00057915-9", "name": "Gawadar Koh", "focus_area": "-", "lat": "25.930100", "type": "MTS", "awardID": "00047974", "lon": "63.641800", "precision": "1", "focus_area_descr": "-"}, {"outputID": "00057915", "output_locID": "00057915-10", "name": "Gilgit", "focus_area": "-", "lat": "35.880130", "type": "ADM2", "awardID": "00047974", "lon": "74.412320", "precision": "1", "focus_area_descr": "-"}, {"outputID": "00057915", "output_locID": "00057915-11", "name": "Gilgit", "focus_area": "-", "lat": "35.918680", "type": "PPLA", "awardID": "00047974", "lon": "74.312450", "precision": "1", "focus_area_descr": "-"}, {"outputID": "00057915", "output_locID": "00057915-12", "name": "Haripur District", "focus_area": "-", "lat": "33.945900", "type": "ADM2", "awardID": "00047974", "lon": "72.911460", "precision": "1", "focus_area_descr": "-"}, {"outputID": "00057915", "output_locID": "00057915-13", "name": "Hunza-Nagar District", "focus_area": "-", "lat": "36.497220", "type": "ADM2", "awardID": "00047974", "lon": "75.004140", "precision": "1", "focus_area_descr": "-"}, {"outputID": "00057915", "output_locID": "00057915-14", "name": "Hyderabad", "focus_area": "-", "lat": "25.392420", "type": "PPLA2", "awardID": "00047974", "lon": "68.373660", "precision": "1", "focus_area_descr": "-"}, {"outputID": "00057915", "output_locID": "00057915-15", "name": "Jacobabad", "focus_area": "-", "lat": "28.281000", "type": "PPLA2", "awardID": "00047974", "lon": "68.438760", "precision": "1", "focus_area_descr": "-"}, {"outputID": "00057915", "output_locID": "00057915-16", "name": "Kani Jaffarabad", "focus_area": "-", "lat": "32.020580", "type": "PPL", "awardID": "00047974", "lon": "74.680310", "precision": "1", "focus_area_descr": "-"}, {"outputID": "00057915", "output_locID": "00057915-17", "name": "Azad Kashmir", "focus_area": "-", "lat": "33.947180", "type": "ADM1", "awardID": "00047974", "lon": "73.910400", "precision": "1", "focus_area_descr": "-"}, {"outputID": "00057915", "output_locID": "00057915-18", "name": "Jhang City", "focus_area": "-", "lat": "31.306770", "type": "PPLA2", "awardID": "00047974", "lon": "72.328140", "precision": "1", "focus_area_descr": "-"}, {"outputID": "00057915", "output_locID": "00057915-19", "name": "Karachi", "focus_area": "-", "lat": "24.905600", "type": "PPLA", "awardID": "00047974", "lon": "67.082200", "precision": "1", "focus_area_descr": "-"}, {"outputID": "00057915", "output_locID": "00057915-20", "name": "Khyber Pakhtunkhwa Province", "focus_area": "-", "lat": "34.459930", "type": "ADM1", "awardID": "00047974", "lon": "72.502370", "precision": "1", "focus_area_descr": "-"}, {"outputID": "00057915", "output_locID": "00057915-21", "name": "Khyber Pakhtunkhwa Province", "focus_area": "-", "lat": "34.459930", "type": "ADM1", "awardID": "00047974", "lon": "72.502370", "precision": "1", "focus_area_descr": "-"}, {"outputID": "00057915", "output_locID": "00057915-22", "name": "Lahore", "focus_area": "-", "lat": "31.549720", "type": "PPLA", "awardID": "00047974", "lon": "74.343610", "precision": "1", "focus_area_descr": "-"}, {"outputID": "00057915", "output_locID": "00057915-23", "name": "Leiah District", "focus_area": "-", "lat": "30.967070", "type": "ADM2", "awardID": "00047974", "lon": "71.257880", "precision": "1", "focus_area_descr": "-"}, {"outputID": "00057915", "output_locID": "00057915-24", "name": "Mianwali District", "focus_area": "-", "lat": "32.701260", "type": "ADM2", "awardID": "00047974", "lon": "71.513250", "precision": "1", "focus_area_descr": "-"}, {"outputID": "00057915", "output_locID": "00057915-25", "name": "Multan", "focus_area": "-", "lat": "30.195560", "type": "PPLA2", "awardID": "00047974", "lon": "71.475280", "precision": "1", "focus_area_descr": "-"}, {"outputID": "00057915", "output_locID": "00057915-26", "name": "Muzaffarabad District", "focus_area": "-", "lat": "34.342800", "type": "ADM2", "awardID": "00047974", "lon": "73.589860", "precision": "1", "focus_area_descr": "-"}, {"outputID": "00057915", "output_locID": "00057915-27", "name": "Muzaffargarh", "focus_area": "-", "lat": "30.075370", "type": "PPLA2", "awardID": "00047974", "lon": "71.192130", "precision": "1", "focus_area_descr": "-"}, {"outputID": "00057915", "output_locID": "00057915-28", "name": "Hunza-Nagar District", "focus_area": "-", "lat": "36.497220", "type": "ADM2", "awardID": "00047974", "lon": "75.004140", "precision": "1", "focus_area_descr": "-"}, {"outputID": "00057915", "output_locID": "00057915-29", "name": "Neelum District", "focus_area": "-", "lat": "34.930000", "type": "ADM2", "awardID": "00047974", "lon": "74.504000", "precision": "1", "focus_area_descr": "-"}, {"outputID": "00057915", "output_locID": "00057915-30", "name": "Nowshera District", "focus_area": "-", "lat": "33.925380", "type": "ADM2", "awardID": "00047974", "lon": "71.980920", "precision": "1", "focus_area_descr": "-"}, {"outputID": "00057915", "output_locID": "00057915-31", "name": "Islamic Republic of Pakistan", "focus_area": "-", "lat": "30.000000", "type": "PCLI", "awardID": "00047974", "lon": "70.000000", "precision": "1", "focus_area_descr": "-"}, {"outputID": "00057915", "output_locID": "00057915-32", "name": "Punjab", "focus_area": "-", "lat": "30.860170", "type": "ADM1", "awardID": "00047974", "lon": "72.319760", "precision": "1", "focus_area_descr": "-"}, {"outputID": "00057915", "output_locID": "00057915-33", "name": "Rajanpur", "focus_area": "-", "lat": "29.159280", "type": "ADM2", "awardID": "00047974", "lon": "70.151830", "precision": "1", "focus_area_descr": "-"}, {"outputID": "00057915", "output_locID": "00057915-34", "name": "Sialkot", "focus_area": "-", "lat": "32.492680", "type": "PPLA2", "awardID": "00047974", "lon": "74.531340", "precision": "1", "focus_area_descr": "-"}, {"outputID": "00057915", "output_locID": "00057915-35", "name": "Kili Sibbi", "focus_area": "-", "lat": "28.525800", "type": "PPL", "awardID": "00047974", "lon": "65.508800", "precision": "1", "focus_area_descr": "-"}, {"outputID": "00057915", "output_locID": "00057915-36", "name": "Sindh", "focus_area": "-", "lat": "26.134560", "type": "ADM1", "awardID": "00047974", "lon": "68.769600", "precision": "1", "focus_area_descr": "-"}, {"outputID": "00057915", "output_locID": "00057915-37", "name": "Sindh", "focus_area": "-", "lat": "26.134560", "type": "ADM1", "awardID": "00047974", "lon": "68.769600", "precision": "1", "focus_area_descr": "-"}, {"outputID": "00057915", "output_locID": "00057915-38", "name": "Skardu District", "focus_area": "-", "lat": "35.401160", "type": "ADM2", "awardID": "00047974", "lon": "75.626330", "precision": "1", "focus_area_descr": "-"}, {"outputID": "00057915", "output_locID": "00057915-39", "name": "Sukkur", "focus_area": "-", "lat": "27.705160", "type": "PPLA2", "awardID": "00047974", "lon": "68.857380", "precision": "1", "focus_area_descr": "-"}, {"outputID": "00057915", "output_locID": "00057915-40", "name": "Thatta District", "focus_area": "-", "lat": "24.490260", "type": "ADM2", "awardID": "00047974", "lon": "67.922840", "precision": "1", "focus_area_descr": "-"}, {"outputID": "00080536", "output_locID": "00080536-1", "name": "Pakistan", "focus_area": "6", "lat": "30", "type": "PCL", "awardID": "00047974", "lon": "70", "precision": "9", "focus_area_descr": "Crisis Prevention & Recovery"}], "operating_unit": "Pakistan", "budget": 1936651.0, "iati_op_id": "PK", "inst_descr": "National Execution", "start": "2007-08-30", "operating_unit_id": "PAK", "expenditure": 1782195.0, "document_name": [["00047974_One UN DRM Prodoc"], ["http://www.undp.org/content/dam/undp/documents/projects/PAK/00047974_One UN DRM Prodoc.pdf"], ["pdf"]], "project_id": "00047974", "inst_type_id": "10", "operating_unit_website": "http://undp.org.pk/", "project_title": "one un disaster risk management programme"}