{"budget":[547525.0],"document_name":[["Prodoc Renforcement des capacit\u00e9s des acteurs_OMD.pdf"],["http://www.undp.org/content/dam/undp/documents/projects/MLI/00047476/Prodoc Renforcement des capacit\u00e9s des acteurs_OMD.pdf"]],"end":"2011-12-31","expenditure":[847803.0],"fiscal_year":["2013","2011","2012","2010"],"iati_op_id":"ML","inst_descr":"National Execution","inst_id":"02077","inst_type_id":"10","operating_unit":"Mali","operating_unit_email":"registry.ml@undp.org","operating_unit_id":"MLI","operating_unit_website":"http://www.ml.undp.org/","outputs":[{"award_id":"00047476","budget":[0.0,547525.0,null,null],"crs":"15110","crs_descr":"Economic and development policy/planning","donor_id":["00012"],"donor_name":["Voluntary Contributions"],"donor_short":["UNDP"],"expenditure":[0.0,662201.0,24279.0,161323.0],"fiscal_year":["2013","2011","2012","2010"],"focus_area":"1","focus_area_descr":"Poverty reduction & MDG achievement","gender_descr":"Gender Equality","gender_id":"1","output_descr":"Renforcement des capacit\u00e9s des acteurs en planification locale pour l'acc\u00e9l\u00e9ration de l'atteinte des OMD dans les 166 communes du PNSA.","output_id":"00057041","output_title":"Planificat. bas\u00e9e sur les OMDs"}],"project_descr":" ","project_id":"00047476","project_title":"AA4 Renforcement des capacit\u00e9s des acteurs locaux  OMD","region_id":"RBA","start":"2007-06-14","subnational":[{"awardID":"00047476","focus_area":"1","focus_area_descr":"Poverty reduction & MDG achievement","lat":"16.27167","lon":"-0.04472","name":"Gao","outputID":"00057041","output_locID":"00057041-1","precision":"3","type":"PPLA"},{"awardID":"00047476","focus_area":"1","focus_area_descr":"Poverty reduction & MDG achievement","lat":"18.44111","lon":"1.40778","name":"Kidal","outputID":"00057041","output_locID":"00057041-2","precision":"3","type":"PPLA"},{"awardID":"00047476","focus_area":"1","focus_area_descr":"Poverty reduction & MDG achievement","lat":"12.86273","lon":"-7.55985","name":"Koulikoro","outputID":"00057041","output_locID":"00057041-3","precision":"3","type":"PPLA"},{"awardID":"00047476","focus_area":"1","focus_area_descr":"Poverty reduction & MDG achievement","lat":"14.4843","lon":"-4.18296","name":"Mopti","outputID":"00057041","output_locID":"00057041-4","precision":"3","type":"PPLA"},{"awardID":"00047476","focus_area":"1","focus_area_descr":"Poverty reduction & MDG achievement","lat":"14.44693","lon":"-11.44448","name":"Regions de Kayes","outputID":"00057041","output_locID":"00057041-5","precision":"3","type":"PPLA"},{"awardID":"00047476","focus_area":"1","focus_area_descr":"Poverty reduction & MDG achievement","lat":"13.4317","lon":"-6.2157","name":"Segou","outputID":"00057041","output_locID":"00057041-6","precision":"3","type":"PPLA"},{"awardID":"00047476","focus_area":"1","focus_area_descr":"Poverty reduction & MDG achievement","lat":"18.54778","lon":"-2.33417","name":"Tombouctou","outputID":"00057041","output_locID":"00057041-7","precision":"4","type":"ADM1"}]}