{"project_descr": "Conservation & Sustainable Use of Wetlands in Nepal", "fiscal_year": [2014, 2010, 2011, 2012], "end": "2013-12-31", "region_id": "RBAP", "operating_unit_email": "registry.np@undp.org", "inst_id": "02234", "outputs": [{"output_id": "00049898", "crs": "99810", "donor_id": ["00012"], "focus_area": "-", "gender_descr": "Gender Equality", "output_title": "Conservation &Sustainable use", "budget": [0.0, 620504.0, 622547.0, 0.0], "fiscal_year": [2010, 2011, 2012, 2014], "gender_id": "1", "donor_name": ["Voluntary Contributions"], "award_id": "00042939", "output_descr": "Wetlands biodiversity consetvation values integrated into national policy and planning frameworks; institutional capacity for wetland conservation and sustainable use strengthened;", "donor_short": ["UNDP"], "expenditure": [557710.0, 556722.0, 611062.0, 0.0], "crs_descr": "Sectors Not Specified", "focus_area_descr": "-"}], "subnational": [{"outputID": "00049898", "output_locID": "00049898-1", "name": "Badgama", "focus_area": "-", "lat": "26.61053", "type": "ADM2", "awardID": "00042939", "lon": "86.91023", "precision": "3", "focus_area_descr": "-"}, {"outputID": "00049898", "output_locID": "00049898-2", "name": "Bairawa", "focus_area": "-", "lat": "26.58651", "type": "ADM2", "awardID": "00042939", "lon": "86.92228", "precision": "3", "focus_area_descr": "-"}, {"outputID": "00049898", "output_locID": "00049898-3", "name": "Baramjhiya", "focus_area": "-", "lat": "26.60738", "type": "ADM2", "awardID": "00042939", "lon": "86.89903", "precision": "3", "focus_area_descr": "-"}, {"outputID": "00049898", "output_locID": "00049898-4", "name": "Darakh", "focus_area": "-", "lat": "28.6394", "type": "ADM2", "awardID": "00042939", "lon": "80.9511", "precision": "3", "focus_area_descr": "-"}, {"outputID": "00049898", "output_locID": "00049898-5", "name": "Dharampur", "focus_area": "-", "lat": "27.75551", "type": "PPL", "awardID": "00042939", "lon": "85.34536", "precision": "3", "focus_area_descr": "-"}, {"outputID": "00049898", "output_locID": "00049898-6", "name": "Ghoghanpur", "focus_area": "-", "lat": "26.66627", "type": "PPL", "awardID": "00042939", "lon": "86.92284", "precision": "3", "focus_area_descr": "-"}, {"outputID": "00049898", "output_locID": "00049898-7", "name": "Haripur", "focus_area": "-", "lat": "27.025", "type": "ADM2", "awardID": "00042939", "lon": "85.5773", "precision": "3", "focus_area_descr": "-"}, {"outputID": "00049898", "output_locID": "00049898-8", "name": "Jagatpur", "focus_area": "-", "lat": "27.5746", "type": "ADM2", "awardID": "00042939", "lon": "84.30734", "precision": "3", "focus_area_descr": "-"}, {"outputID": "00049898", "output_locID": "00049898-9", "name": "Kamalpur", "focus_area": "-", "lat": "26.68761", "type": "ADM2", "awardID": "00042939", "lon": "86.94818", "precision": "3", "focus_area_descr": "-"}, {"outputID": "00049898", "output_locID": "00049898-10", "name": "Laukahi", "focus_area": "-", "lat": "26.59716", "type": "ADM2", "awardID": "00042939", "lon": "87.06512", "precision": "3", "focus_area_descr": "-"}, {"outputID": "00049898", "output_locID": "00049898-11", "name": "Madhuwan", "focus_area": "-", "lat": "26.64512", "type": "ADM2", "awardID": "00042939", "lon": "87.06674", "precision": "3", "focus_area_descr": "-"}, {"outputID": "00049898", "output_locID": "00049898-12", "name": "Odraha", "focus_area": "-", "lat": "26.70462", "type": "ADM2", "awardID": "00042939", "lon": "86.96846", "precision": "3", "focus_area_descr": "-"}, {"outputID": "00049898", "output_locID": "00049898-13", "name": "Pipra Purba", "focus_area": "-", "lat": "26.65494", "type": "PPL", "awardID": "00042939", "lon": "86.94196", "precision": "3", "focus_area_descr": "-"}, {"outputID": "00049898", "output_locID": "00049898-14", "name": "Prakashpur", "focus_area": "-", "lat": "26.692", "type": "ADM2", "awardID": "00042939", "lon": "87.08834", "precision": "3", "focus_area_descr": "-"}, {"outputID": "00049898", "output_locID": "00049898-15", "name": "Sadepani", "focus_area": "-", "lat": "28.6883", "type": "ADM2", "awardID": "00042939", "lon": "80.9933", "precision": "3", "focus_area_descr": "-"}, {"outputID": "00049898", "output_locID": "00049898-16", "name": "Sripurjabdi", "focus_area": "-", "lat": "26.563", "type": "ADM2", "awardID": "00042939", "lon": "87.01951", "precision": "3", "focus_area_descr": "-"}, {"outputID": "00049898", "output_locID": "00049898-17", "name": "Tapeswori", "focus_area": "-", "lat": "26.75639", "type": "ADM2", "awardID": "00042939", "lon": "86.97817", "precision": "3", "focus_area_descr": "-"}], "operating_unit": "Nepal", "budget": 1243051.0, "iati_op_id": "NP", "inst_descr": "National Execution", "start": "2007-03-14", "operating_unit_id": "NPL", "expenditure": 1725494.0, "document_name": [["CSUWN MTE Final Report - November 20th, 2011.pdf", "00042939_wetlands signed prodoc part II.pdf", "00042939_wetlands signed prodoc-part I.pdf"], ["http://www.undp.org/content/dam/undp/documents/projects/NPL/CSUWN MTE Final Report - November 20th, 2011.pdf", "http://www.undp.org/content/dam/undp/documents/projects/NPL/00042939_wetlands signed prodoc part II.pdf", "http://www.undp.org/content/dam/undp/documents/projects/NPL/00042939_wetlands signed prodoc-part I.pdf"]], "project_id": "00042939", "inst_type_id": "10", "operating_unit_website": "http://www.np.undp.org/", "project_title": "conservation & sustainable use of nepal wetlands"}