{"project_descr": "Support the priority of the Government of Southern Sudan (GOSS) on implementation of the CPA and peaceful resolution of conflicts through the creation of an enabling environment for the promotion and protection of human rights and the rule of law", "fiscal_year": [2013, 2010, 2011, 2012, 2014], "end": "2013-06-30", "region_id": "RBA", "operating_unit_email": "info.ssd@undp.org", "inst_id": "02885", "outputs": [{"output_id": "00063319", "crs": "99810", "donor_id": ["00040", "00012", "00031", "00032", "00141"], "focus_area": "-", "gender_descr": "Gender Equality", "output_title": "Strategic Support to Pol&Pris.", "budget": [0.0, 2100.0, 4.0, 4.0], "fiscal_year": [2010, 2011, 2012, 2013], "gender_id": "1", "donor_name": ["Voluntary Contributions", "UNITED NATIONS POPULATION FUND", "UNITED NATIONS DEVELOPMENT FUND FOR WOME", "UN HIGH COMMISSIONER FOR REFUGEES", "GOVERNMENT OF JAPAN"], "award_id": "00047336", "output_descr": "The project aims to enhance capacity of Police hrough training and campaigns as well provide logistical support to the Prisons on sewage management hence promoting sanitation of Prisons in Southern Sudan.", "donor_short": ["UNDP", "UNFPA", "UN Women", "UNHCR", "JPN"], "expenditure": [1098798.0, 0.0, -203.0, -1522.0], "crs_descr": "Sectors Not Specified", "focus_area_descr": "-"}, {"output_id": "00056894", "crs": "99810", "donor_id": [""], "focus_area": "-", "gender_descr": "None", "output_title": "Capacity Building of Prisons S", "budget": [2.0], "fiscal_year": [2011], "gender_id": "0", "donor_name": ["INTERNATIONAL DEVELOPMENT AGENCY", "GOVERNMENT OF THE REPUBLIC OF THE SUDAN"], "award_id": "00047336", "output_descr": "This project aims to support the priority of the government on implementation of the CPA and peaceful resolution of conflicts in Southern Sudan through supporting training and organizational development of the Correction Services in Southern Sudan.", "donor_short": [], "expenditure": [3896.0], "crs_descr": "Sectors Not Specified", "focus_area_descr": "-"}, {"output_id": "00056820", "crs": null, "donor_id": ["00560"], "focus_area": "-", "gender_descr": "Gender Equality", "output_title": "Capacity building of Police se", "budget": [1.0, 1.0], "fiscal_year": [2012, 2014], "gender_id": "1", "donor_name": ["INTERNATIONAL DEVELOPMENT AGENCY"], "award_id": "00047336", "output_descr": "Provision of training and organizational development for the Police across Southern Sudan.", "donor_short": ["IDA"], "expenditure": [-716.0, 0.0], "crs_descr": null, "focus_area_descr": "-"}], "subnational": [{"outputID": "00063319", "output_locID": "00063319-1", "name": "Bor Jonglei State", "focus_area": "-", "lat": "6.20593", "type": "PPLA", "awardID": "00047336", "lon": "31.55633", "precision": "3", "focus_area_descr": "-"}, {"outputID": "00063319", "output_locID": "00063319-2", "name": "Kwajok Warrap State", "focus_area": "-", "lat": "8.30016", "type": "PPLA", "awardID": "00047336", "lon": "27.99028", "precision": "3", "focus_area_descr": "-"}, {"outputID": "00063319", "output_locID": "00063319-3", "name": "Malakal Upper Nile State", "focus_area": "-", "lat": "9.53342", "type": "PPLA", "awardID": "00047336", "lon": "31.66048", "precision": "3", "focus_area_descr": "-"}, {"outputID": "00063319", "output_locID": "00063319-4", "name": "Torit Eastern Equatoria State", "focus_area": "-", "lat": "4.41333", "type": "PPLA", "awardID": "00047336", "lon": "32.56778", "precision": "3", "focus_area_descr": "-"}, {"outputID": "00063319", "output_locID": "00063319-5", "name": "Wau Western Bahr el Ghazal State", "focus_area": "-", "lat": "7.70286", "type": "PPLA", "awardID": "00047336", "lon": "27.9953", "precision": "3", "focus_area_descr": "-"}, {"outputID": "00063319", "output_locID": "00063319-6", "name": "Yambio Western Equatoria State", "focus_area": "-", "lat": "4.57213", "type": "PPLA", "awardID": "00047336", "lon": "28.39549", "precision": "3", "focus_area_descr": "-"}, {"outputID": "00056820", "output_locID": "00056820-1", "name": "Bor", "focus_area": "-", "lat": "6.205930", "type": "PPLA", "awardID": "00047336", "lon": "31.556330", "precision": "1", "focus_area_descr": "-"}, {"outputID": "00056820", "output_locID": "00056820-2", "name": "Kajok", "focus_area": "-", "lat": "8.300160", "type": "PPLA", "awardID": "00047336", "lon": "27.990280", "precision": "1", "focus_area_descr": "-"}, {"outputID": "00056820", "output_locID": "00056820-3", "name": "Malakal", "focus_area": "-", "lat": "9.533420", "type": "PPLA", "awardID": "00047336", "lon": "31.660480", "precision": "1", "focus_area_descr": "-"}, {"outputID": "00056820", "output_locID": "00056820-4", "name": "Torit", "focus_area": "-", "lat": "4.411770", "type": "PPLA", "awardID": "00047336", "lon": "32.570460", "precision": "1", "focus_area_descr": "-"}, {"outputID": "00056820", "output_locID": "00056820-5", "name": "Wau", "focus_area": "-", "lat": "7.702860", "type": "PPLA", "awardID": "00047336", "lon": "27.995300", "precision": "1", "focus_area_descr": "-"}, {"outputID": "00056820", "output_locID": "00056820-6", "name": "Yambio", "focus_area": "-", "lat": "4.572130", "type": "PPLA", "awardID": "00047336", "lon": "28.395490", "precision": "1", "focus_area_descr": "-"}], "operating_unit": "South Sudan, Republic of", "budget": 2112.0, "iati_op_id": "SS", "inst_descr": "UNDP (Direct Execution)", "start": "2007-05-01", "operating_unit_id": "SSD", "expenditure": 1100253.0, "document_name": [["P & P P AWP 2011.pdf"], ["http://www.undp.org/content/dam/undp/documents/projects/SSD/00047336/P & P P AWP 2011.pdf"], ["format"]], "project_id": "00047336", "inst_type_id": "40", "operating_unit_website": "http://www.ss.undp.org/", "project_title": "support to police and prisons"}