{"project_descr": "Integrated Land Use Management to Combat Land Degradation and Deforestation in Madhya Pradesh", "fiscal_year": [2014, 2013], "end": "2010-12-31", "region_id": "RBAP", "operating_unit_email": "info.in@undp.org", "inst_id": "03681", "outputs": [{"output_id": "00046257", "crs": "99810", "donor_id": ["10003"], "focus_area": "-", "gender_descr": "Gender Equality", "output_title": "Combat Land Degradation", "budget": [92082.0, 0.0], "fiscal_year": [2013, 2014], "gender_id": "1", "donor_name": ["Global Environment Fund Truste"], "award_id": "00040748", "output_descr": "Developing project strategy for integrated land use management to combat land degradation and deforestation in Madhya Pradesh to benefit small and marginal farmers", "donor_short": ["GEFTrustee"], "expenditure": [-31271.0, 0.0], "crs_descr": "Sectors Not Specified", "focus_area_descr": "-"}], "subnational": [{"outputID": "00046257", "output_locID": "00046257-1", "name": "Betul", "focus_area": "-", "lat": "21.90195", "type": "PPL", "awardID": "00040748", "lon": "77.90405", "precision": "3", "focus_area_descr": "-"}, {"outputID": "00046257", "output_locID": "00046257-2", "name": "Chhindwara", "focus_area": "-", "lat": "22.05795", "type": "PPL", "awardID": "00040748", "lon": "78.93763", "precision": "3", "focus_area_descr": "-"}, {"outputID": "00046257", "output_locID": "00046257-3", "name": "Umaria", "focus_area": "-", "lat": "23.41068", "type": "PPL", "awardID": "00040748", "lon": "78.65934", "precision": "3", "focus_area_descr": "-"}, {"outputID": "00046257", "output_locID": "00046257-4", "name": "Singrauli", "focus_area": "-", "lat": "24.19973", "type": "PPL", "awardID": "00040748", "lon": "82.67535", "precision": "3", "focus_area_descr": "-"}, {"outputID": "00046257", "output_locID": "00046257-5", "name": "Sidhi", "focus_area": "-", "lat": "24.39329", "type": "PPL", "awardID": "00040748", "lon": "81.87935", "precision": "3", "focus_area_descr": "-"}], "operating_unit": "India", "budget": 92082.0, "iati_op_id": "IN", "inst_descr": "IND-Forest Deptt.Government of", "start": "2005-07-01", "operating_unit_id": "IND", "expenditure": -31271.0, "document_name": [], "project_id": "00040748", "inst_type_id": "10", "operating_unit_website": "http://www.in.undp.org/", "project_title": "combat land degradation"}