{"project_descr": "enhancing community security and social cohesion in selected communities in Liberia", "fiscal_year": [2013, 2010, 2011, 2012], "end": "2013-12-31", "region_id": "RBA", "operating_unit_email": "registry.lr@undp.org_", "inst_id": "99999", "outputs": [{"output_id": "00061002", "crs": "73010", "donor_id": ["00134", "00187", "00095", "00117", "00141"], "focus_area": "6", "gender_descr": "Gender Equality", "output_title": "Enhancing Community Security", "budget": [0.0, 2396353.0, 885665.0, 388878.0], "fiscal_year": [2010, 2011, 2012, 2013], "gender_id": "1", "donor_name": ["GOVERNMENT OF DENMARK", "GOVERNMENT OF GERMANY", "GOVERNMENT OF IRELAND", "GOVERNMENT OF JAPAN", "GOVERNMENT OF NORWAY"], "award_id": "00049777", "output_descr": "Enhancing Community Security and Social Cohesion will strengthen and sustain the effort of the Government of Liberia (GoL) and  UNDP   in community security and social cohesion at the grass roots levels.", "donor_short": ["DEN", "GER", "IRE", "JPN", "NOR"], "expenditure": [10374415.0, 2814524.0, 850882.0, 164746.0], "crs_descr": "Reconstruction relief and rehabilitation", "focus_area_descr": "Crisis Prevention & Recovery"}], "subnational": [{"outputID": "00061002", "output_locID": "00061002-1", "name": "Gbarnga", "focus_area": "6", "lat": "6.99556", "type": "PPLA", "awardID": "00049777", "lon": "-9.47222", "precision": "3", "focus_area_descr": "Crisis Prevention & Recovery"}, {"outputID": "00061002", "output_locID": "00061002-2", "name": "New Kru Town", "focus_area": "6", "lat": "6.36667", "type": "PPL", "awardID": "00049777", "lon": "-10.78333", "precision": "3", "focus_area_descr": "Crisis Prevention & Recovery"}, {"outputID": "00061002", "output_locID": "00061002-3", "name": "Paynesville", "focus_area": "6", "lat": "6.27556", "type": "PPL", "awardID": "00049777", "lon": "-10.71778", "precision": "3", "focus_area_descr": "Crisis Prevention & Recovery"}, {"outputID": "00061002", "output_locID": "00061002-4", "name": "Sinje", "focus_area": "6", "lat": "6.77333", "type": "PPL", "awardID": "00049777", "lon": "-11.04833", "precision": "3", "focus_area_descr": "Crisis Prevention & Recovery"}, {"outputID": "00061002", "output_locID": "00061002-5", "name": "Toe", "focus_area": "6", "lat": "6.40722", "type": "PPL", "awardID": "00049777", "lon": "-8.55583", "precision": "3", "focus_area_descr": "Crisis Prevention & Recovery"}, {"outputID": "00061002", "output_locID": "00061002-6", "name": "Zwedru", "focus_area": "6", "lat": "6.06667", "type": "PPLA", "awardID": "00049777", "lon": "-8.12806", "precision": "3", "focus_area_descr": "Crisis Prevention & Recovery"}, {"outputID": "00061002", "output_locID": "00061002-7", "name": "Grand Bassa", "focus_area": "6", "lat": "5.88083", "type": "ADM1", "awardID": "00049777", "lon": "-10.04667", "precision": "4", "focus_area_descr": "Crisis Prevention & Recovery"}, {"outputID": "00061002", "output_locID": "00061002-8", "name": "Grand Gedeh", "focus_area": "6", "lat": "6.06667", "type": "ADM1", "awardID": "00049777", "lon": "-8.12806", "precision": "4", "focus_area_descr": "Crisis Prevention & Recovery"}], "operating_unit": "Liberia", "budget": 3670896.0, "iati_op_id": "LR", "inst_descr": "UNDP", "start": "2008-03-26", "operating_unit_id": "LBR", "expenditure": 14204567.0, "document_name": [["Project Document (61002).pdf"], ["http://www.undp.org/content/dam/undp/documents/projects/LBR/00049777/Project Document (61002).pdf"], ["format"]], "project_id": "00049777", "inst_type_id": "40", "operating_unit_website": "http://www.lr.undp.org/", "project_title": "enhancing community security and social cohesion"}