{"project_descr": "CAPACITY BUILDING OF SMALL ARMS AND LIGHT WEAPONS STOCKPILE MANAGEMENT AND SECURITY", "fiscal_year": [2014, 2010, 2011, 2012], "end": "2014-12-31", "region_id": "RBEC", "operating_unit_email": "dpi_by@undp.org", "inst_id": "01136", "outputs": [{"output_id": "00054285", "crs": "99810", "donor_id": ["10159", "10315"], "focus_area": "2", "gender_descr": "Gender Equality", "output_title": "SMALL ARMS AND LIGHT WEAPONS", "budget": [0.0, 264541.0, 278391.0, 545203.0], "fiscal_year": [2010, 2011, 2012, 2014], "gender_id": "1", "donor_name": ["EUROPEAN COMMISSION", "ORG FOR SECURITY AND COOPERATI"], "award_id": "00045865", "output_descr": "A contribution towards regional stability in Central and Eastern Europe by providing improved physical security SALW in Belarus, thereby reducing the risks of proliferation and improving human security", "donor_short": ["EUCOMM", "OSCE"], "expenditure": [538634.0, 195966.0, 255779.0, 509666.0], "crs_descr": "Sectors Not Specified", "focus_area_descr": "Democratic governance"}], "subnational": [{"outputID": "00054285", "output_locID": "00054285-1", "name": "Minsk", "focus_area": "2", "lat": "53.54", "type": "PPLC", "awardID": "00045865", "lon": "27.34", "precision": "3", "focus_area_descr": "Democratic governance"}, {"outputID": "00054285", "output_locID": "00054285-2", "name": "Slonim", "focus_area": "2", "lat": "53.512", "type": "PPLA2", "awardID": "00045865", "lon": "25.1858", "precision": "3", "focus_area_descr": "Democratic governance"}, {"outputID": "00054285", "output_locID": "00054285-3", "name": "Vicebsk", "focus_area": "2", "lat": "55.1125", "type": "PPLA", "awardID": "00045865", "lon": "30.1217", "precision": "3", "focus_area_descr": "Democratic governance"}, {"outputID": "00054285", "output_locID": "00054285-4", "name": "Zaslonava", "focus_area": "2", "lat": "54.5339", "type": "PPL", "awardID": "00045865", "lon": "28.5539", "precision": "3", "focus_area_descr": "Democratic governance"}, {"outputID": "00054285", "output_locID": "00054285-5", "name": "Asipovicy", "focus_area": "2", "lat": "53.2933", "type": "PPL", "awardID": "00045865", "lon": "28.6422", "precision": "3", "focus_area_descr": "Democratic governance"}, {"outputID": "00054285", "output_locID": "00054285-6", "name": "Barouka", "focus_area": "2", "lat": "55.4841", "type": "PPL", "awardID": "00045865", "lon": "27.5638", "precision": "3", "focus_area_descr": "Democratic governance"}, {"outputID": "00054285", "output_locID": "00054285-7", "name": "Barysau", "focus_area": "2", "lat": "54.134", "type": "PPLA2", "awardID": "00045865", "lon": "28.3018", "precision": "3", "focus_area_descr": "Democratic governance"}, {"outputID": "00054285", "output_locID": "00054285-8", "name": "Brest, Brestskaya Voblasts", "focus_area": "2", "lat": "52.551", "type": "PPLA", "awardID": "00045865", "lon": "23.4115", "precision": "3", "focus_area_descr": "Democratic governance"}, {"outputID": "00054285", "output_locID": "00054285-9", "name": "Homiel", "focus_area": "2", "lat": "52.264", "type": "PPLA", "awardID": "00045865", "lon": "30.5831", "precision": "3", "focus_area_descr": "Democratic governance"}, {"outputID": "00054285", "output_locID": "00054285-10", "name": "Hrodna", "focus_area": "2", "lat": "53.4118", "type": "PPLA", "awardID": "00045865", "lon": "23.4932", "precision": "3", "focus_area_descr": "Democratic governance"}, {"outputID": "00054285", "output_locID": "00054285-11", "name": "Kosava", "focus_area": "2", "lat": "52.4529", "type": "PPLC", "awardID": "00045865", "lon": "25.919", "precision": "3", "focus_area_descr": "Democratic governance"}, {"outputID": "00054285", "output_locID": "00054285-12", "name": "Marina Horka", "focus_area": "2", "lat": "53.3032", "type": "PPL", "awardID": "00045865", "lon": "28.849", "precision": "3", "focus_area_descr": "Democratic governance"}], "operating_unit": "Belarus, Republic of", "budget": 1088135.0, "iati_op_id": "BY", "inst_descr": "Ministry of Defence", "start": "2007-01-01", "operating_unit_id": "BLR", "expenditure": 1500045.0, "document_name": [["00045865_54285_Memorandum_11.01.2011.pdf", "00045865_54285_Memorandum_23.06.11.pdf", "00045865_54285_Memorandum_23.11.2009.pdf", "00045865_54285_Memorandum_24.08.2010.pdf", "00045865_54285_Memorandum_25.04.2008.pdf", "00045865_54285_Memorandum_26.05.2009.pdf", "00045865_54285_Memorandum_29.12.2008.pdf", "00045865_54285_Project_Documents_registered.pdf", "BLR", "agree2text", "00045865_barysau 061.jpg", "00045865_barysau 065.jpg", "00045865_barysau 073.jpg"], ["http://www.undp.org/content/dam/undp/documents/projects/BLR/00045865_54285_Memorandum_11.01.2011.pdf", "http://www.undp.org/content/dam/undp/documents/projects/BLR/00045865_54285_Memorandum_23.06.11.pdf", "http://www.undp.org/content/dam/undp/documents/projects/BLR/00045865_54285_Memorandum_23.11.2009.pdf", "http://www.undp.org/content/dam/undp/documents/projects/BLR/00045865_54285_Memorandum_24.08.2010.pdf", "http://www.undp.org/content/dam/undp/documents/projects/BLR/00045865_54285_Memorandum_25.04.2008.pdf", "http://www.undp.org/content/dam/undp/documents/projects/BLR/00045865_54285_Memorandum_26.05.2009.pdf", "http://www.undp.org/content/dam/undp/documents/projects/BLR/00045865_54285_Memorandum_29.12.2008.pdf", "http://www.undp.org/content/dam/undp/documents/projects/BLR/00045865_54285_Project_Documents_registered.pdf", "http://www.undp.org/content/dam/undp/documents/IATI/Contract/BLR.xlsx", "http://undp.by/en/undp/doc/agree2text.html", "http://www.undp.org/content/dam/undp/documents/projects/BLR/00045865_barysau 061.jpg", "http://www.undp.org/content/dam/undp/documents/projects/BLR/00045865_barysau 065.jpg", "http://www.undp.org/content/dam/undp/documents/projects/BLR/00045865_barysau 073.jpg"]], "project_id": "00045865", "inst_type_id": "10", "operating_unit_website": "http://undp.by/en/", "project_title": "small arms and light weapons"}