{"project_descr": "This Programme  aims to enhance Government and UN interventions to prevent further marginalization of Youth in Sierra Leone.    The specific objectives of  this  Programme are:  to provide rapid Employment opportunities and income generating activities.", "fiscal_year": [2012], "end": "2011-12-31", "region_id": "RBA", "operating_unit_email": "registry.sl@undp.org", "inst_id": "02762", "outputs": [{"output_id": "00057571", "crs": "99810", "donor_id": ["00555"], "disbursement": [], "focus_area": "0", "gender_descr": "Gender Equality", "output_title": "Youth Employment", "budget": [0.0], "fiscal_year": [2012], "gender_id": "1", "expenditure": [-18772.0], "award_id": "00045821", "output_descr": "The project will build on successful on-going youth projects as well as implement pilot initiatives for the purpose of providing immediate employment and skills acquisition.", "donor_short": ["SIDA"], "donor_name": ["SWEDISH INTERNATIONAL DEVELOPMENT COOPER"], "crs_descr": null, "focus_area_descr": "SP_NONE_APPLIES"}, {"output_id": "00059872", "crs": "99810", "donor_id": ["00012", "11400"], "disbursement": [], "focus_area": "0", "gender_descr": "Gender Equality", "output_title": "NATIONAL YOUTH EMPLOYMENT", "budget": [0.0], "fiscal_year": [2012], "gender_id": "1", "expenditure": [-13677.0], "award_id": "00045821", "output_descr": "Support to the National Youth Employment Programme in S/L - Basket Fund", "donor_short": ["UNDP", "SL_MDTF"], "donor_name": ["Voluntary Contributions", "MDTFO/JP_Sierra_Leone_MDTF"], "crs_descr": null, "focus_area_descr": "SP_NONE_APPLIES"}, {"output_id": "00071998", "crs": "99810", "donor_id": ["00220"], "disbursement": [], "focus_area": "0", "gender_descr": "Gender Equality", "output_title": "REGIONAL YOUTH EMPLOYMENT", "budget": [98832.0], "fiscal_year": [2012], "gender_id": "1", "expenditure": [113169.0], "award_id": "00045821", "output_descr": "This programme aims at generating decent and sustainable employment for young people, through the design and implementation of appropriate policies, capacity building for relevant institutions, opening viable business opportunities and reduction od socia", "donor_short": ["SPA"], "donor_name": ["GOVERNMENT OF SPAIN"], "crs_descr": null, "focus_area_descr": "SP_NONE_APPLIES"}], "subnational": [{"outputID": "00057571", "output_locID": "00057571-1", "name": "Pujehun District", "focus_area": "0", "lat": "7.333330", "type": "ADM2", "awardID": "00045821", "lon": "-11.500000", "precision": "1", "focus_area_descr": "SP_NONE_APPLIES"}, {"outputID": "00057571", "output_locID": "00057571-2", "name": "Njala", "focus_area": "0", "lat": "8.233330", "type": "PPL", "awardID": "00045821", "lon": "-12.016670", "precision": "1", "focus_area_descr": "SP_NONE_APPLIES"}, {"outputID": "00057571", "output_locID": "00057571-3", "name": "Newton", "focus_area": "0", "lat": "8.338610", "type": "PPL", "awardID": "00045821", "lon": "-13.004720", "precision": "1", "focus_area_descr": "SP_NONE_APPLIES"}, {"outputID": "00057571", "output_locID": "00057571-4", "name": "Makeni", "focus_area": "0", "lat": "8.883330", "type": "PPLA", "awardID": "00045821", "lon": "-12.050000", "precision": "1", "focus_area_descr": "SP_NONE_APPLIES"}, {"outputID": "00057571", "output_locID": "00057571-5", "name": "Makeni", "focus_area": "0", "lat": "8.883330", "type": "PPLA", "awardID": "00045821", "lon": "-12.050000", "precision": "1", "focus_area_descr": "SP_NONE_APPLIES"}, {"outputID": "00057571", "output_locID": "00057571-6", "name": "Kono District", "focus_area": "0", "lat": "8.750000", "type": "ADM2", "awardID": "00045821", "lon": "-11.000000", "precision": "1", "focus_area_descr": "SP_NONE_APPLIES"}, {"outputID": "00057571", "output_locID": "00057571-7", "name": "Kenema", "focus_area": "0", "lat": "7.876670", "type": "PPLA", "awardID": "00045821", "lon": "-11.187500", "precision": "1", "focus_area_descr": "SP_NONE_APPLIES"}, {"outputID": "00057571", "output_locID": "00057571-8", "name": "Kenema", "focus_area": "0", "lat": "7.876670", "type": "PPLA", "awardID": "00045821", "lon": "-11.187500", "precision": "1", "focus_area_descr": "SP_NONE_APPLIES"}, {"outputID": "00057571", "output_locID": "00057571-9", "name": "Kambiadi", "focus_area": "0", "lat": "8.966670", "type": "PPL", "awardID": "00045821", "lon": "-13.150000", "precision": "1", "focus_area_descr": "SP_NONE_APPLIES"}, {"outputID": "00057571", "output_locID": "00057571-10", "name": "Freetown", "focus_area": "0", "lat": "8.484000", "type": "PPLC", "awardID": "00045821", "lon": "-13.229940", "precision": "1", "focus_area_descr": "SP_NONE_APPLIES"}, {"outputID": "00057571", "output_locID": "00057571-11", "name": "Freetown", "focus_area": "0", "lat": "8.484000", "type": "PPLC", "awardID": "00045821", "lon": "-13.229940", "precision": "1", "focus_area_descr": "SP_NONE_APPLIES"}, {"outputID": "00057571", "output_locID": "00057571-12", "name": "Bo", "focus_area": "0", "lat": "7.964720", "type": "PPLA", "awardID": "00045821", "lon": "-11.738330", "precision": "1", "focus_area_descr": "SP_NONE_APPLIES"}, {"outputID": "00059872", "output_locID": "00059872-1", "name": "Pujehun District", "focus_area": "0", "lat": "7.333330", "type": "ADM2", "awardID": "00045821", "lon": "-11.500000", "precision": "1", "focus_area_descr": "SP_NONE_APPLIES"}, {"outputID": "00059872", "output_locID": "00059872-2", "name": "Njala", "focus_area": "0", "lat": "8.233330", "type": "PPL", "awardID": "00045821", "lon": "-12.016670", "precision": "1", "focus_area_descr": "SP_NONE_APPLIES"}, {"outputID": "00059872", "output_locID": "00059872-3", "name": "Newton", "focus_area": "0", "lat": "8.338610", "type": "PPL", "awardID": "00045821", "lon": "-13.004720", "precision": "1", "focus_area_descr": "SP_NONE_APPLIES"}, {"outputID": "00059872", "output_locID": "00059872-4", "name": "Makeni", "focus_area": "0", "lat": "8.883330", "type": "PPLA", "awardID": "00045821", "lon": "-12.050000", "precision": "1", "focus_area_descr": "SP_NONE_APPLIES"}, {"outputID": "00059872", "output_locID": "00059872-5", "name": "Makeni", "focus_area": "0", "lat": "8.883330", "type": "PPLA", "awardID": "00045821", "lon": "-12.050000", "precision": "1", "focus_area_descr": "SP_NONE_APPLIES"}, {"outputID": "00059872", "output_locID": "00059872-6", "name": "Kono District", "focus_area": "0", "lat": "8.750000", "type": "ADM2", "awardID": "00045821", "lon": "-11.000000", "precision": "1", "focus_area_descr": "SP_NONE_APPLIES"}, {"outputID": "00059872", "output_locID": "00059872-7", "name": "Kenema", "focus_area": "0", "lat": "7.876670", "type": "PPLA", "awardID": "00045821", "lon": "-11.187500", "precision": "1", "focus_area_descr": "SP_NONE_APPLIES"}, {"outputID": "00059872", "output_locID": "00059872-8", "name": "Kenema", "focus_area": "0", "lat": "7.876670", "type": "PPLA", "awardID": "00045821", "lon": "-11.187500", "precision": "1", "focus_area_descr": "SP_NONE_APPLIES"}, {"outputID": "00059872", "output_locID": "00059872-9", "name": "Kambia", "focus_area": "0", "lat": "9.866670", "type": "PPL", "awardID": "00045821", "lon": "-11.883330", "precision": "1", "focus_area_descr": "SP_NONE_APPLIES"}, {"outputID": "00059872", "output_locID": "00059872-10", "name": "Freetown", "focus_area": "0", "lat": "8.484000", "type": "PPLC", "awardID": "00045821", "lon": "-13.229940", "precision": "1", "focus_area_descr": "SP_NONE_APPLIES"}, {"outputID": "00059872", "output_locID": "00059872-11", "name": "Freetown", "focus_area": "0", "lat": "8.484000", "type": "PPLC", "awardID": "00045821", "lon": "-13.229940", "precision": "1", "focus_area_descr": "SP_NONE_APPLIES"}, {"outputID": "00059872", "output_locID": "00059872-12", "name": "Bo", "focus_area": "0", "lat": "7.964720", "type": "PPLA", "awardID": "00045821", "lon": "-11.738330", "precision": "1", "focus_area_descr": "SP_NONE_APPLIES"}, {"outputID": "00071998", "output_locID": "00071998-1", "name": "Pujehun District", "focus_area": "0", "lat": "7.333330", "type": "ADM2", "awardID": "00045821", "lon": "-11.500000", "precision": "1", "focus_area_descr": "SP_NONE_APPLIES"}, {"outputID": "00071998", "output_locID": "00071998-2", "name": "Njala", "focus_area": "0", "lat": "8.233330", "type": "PPL", "awardID": "00045821", "lon": "-12.016670", "precision": "1", "focus_area_descr": "SP_NONE_APPLIES"}, {"outputID": "00071998", "output_locID": "00071998-3", "name": "Newton", "focus_area": "0", "lat": "8.338610", "type": "PPL", "awardID": "00045821", "lon": "-13.004720", "precision": "1", "focus_area_descr": "SP_NONE_APPLIES"}, {"outputID": "00071998", "output_locID": "00071998-4", "name": "Makeni", "focus_area": "0", "lat": "8.883330", "type": "PPLA", "awardID": "00045821", "lon": "-12.050000", "precision": "1", "focus_area_descr": "SP_NONE_APPLIES"}, {"outputID": "00071998", "output_locID": "00071998-5", "name": "Makeni", "focus_area": "0", "lat": "8.883330", "type": "PPLA", "awardID": "00045821", "lon": "-12.050000", "precision": "1", "focus_area_descr": "SP_NONE_APPLIES"}, {"outputID": "00071998", "output_locID": "00071998-6", "name": "Kono District", "focus_area": "0", "lat": "8.750000", "type": "ADM2", "awardID": "00045821", "lon": "-11.000000", "precision": "1", "focus_area_descr": "SP_NONE_APPLIES"}, {"outputID": "00071998", "output_locID": "00071998-7", "name": "Kenema", "focus_area": "0", "lat": "7.876670", "type": "PPLA", "awardID": "00045821", "lon": "-11.187500", "precision": "1", "focus_area_descr": "SP_NONE_APPLIES"}, {"outputID": "00071998", "output_locID": "00071998-8", "name": "Kenema", "focus_area": "0", "lat": "7.876670", "type": "PPLA", "awardID": "00045821", "lon": "-11.187500", "precision": "1", "focus_area_descr": "SP_NONE_APPLIES"}, {"outputID": "00071998", "output_locID": "00071998-9", "name": "Kambia", "focus_area": "0", "lat": "8.706390", "type": "PPL", "awardID": "00045821", "lon": "-13.071940", "precision": "1", "focus_area_descr": "SP_NONE_APPLIES"}, {"outputID": "00071998", "output_locID": "00071998-10", "name": "Freetown", "focus_area": "0", "lat": "8.484000", "type": "PPLC", "awardID": "00045821", "lon": "-13.229940", "precision": "1", "focus_area_descr": "SP_NONE_APPLIES"}, {"outputID": "00071998", "output_locID": "00071998-11", "name": "Freetown", "focus_area": "0", "lat": "8.484000", "type": "PPLC", "awardID": "00045821", "lon": "-13.229940", "precision": "1", "focus_area_descr": "SP_NONE_APPLIES"}, {"outputID": "00071998", "output_locID": "00071998-12", "name": "Bo", "focus_area": "0", "lat": "7.964720", "type": "PPLA", "awardID": "00045821", "lon": "-11.738330", "precision": "1", "focus_area_descr": "SP_NONE_APPLIES"}], "operating_unit": "Sierra Leone", "budget": 98832.0, "iati_op_id": "SL", "inst_descr": "DIRECT EXECUTION", "start": "2007-01-01", "operating_unit_id": "SLE", "expenditure": 80720.0, "document_name": [], "project_id": "00045821", "inst_type_id": "40", "operating_unit_website": null, "project_title": "un support to the national youth employment scheme"}