{"project_descr": "National Capacity Builfding for Disaster Risk Management", "fiscal_year": [2014, 2010, 2011, 2012, 2013], "end": "2013-10-31", "region_id": "RBAP", "operating_unit_email": "registry.pk@undp.org", "inst_id": "02366", "outputs": [{"output_id": "00057915", "crs": "99810", "donor_id": ["00141", "00551", "00012", "00055"], "focus_area": "-", "gender_descr": "Gender Equality", "output_title": "One UN DRM Programme", "budget": [0.0, 2303012.0, 1390144.0, 127407.0, 0.0], "fiscal_year": [2010, 2011, 2012, 2013, 2014], "gender_id": "1", "donor_name": ["Voluntary Contributions", "GOVERNMENT OF AUSTRALIA", "GOVERNMENT OF JAPAN", "DEPARTMENT FOR INTERNATIONAL DEVELOPMENT"], "award_id": "00047974", "output_descr": "Enhanced capacity of the Government of Pakistan at the Federal, Provincial and District levels in dealing with disaster risks in a systematic manner.", "donor_short": ["UNDP", "AUL", "JPN", "DFID"], "expenditure": [2364016.0, 1376404.0, 1277724.0, 110478.0, 0.0], "crs_descr": "Sectors Not Specified", "focus_area_descr": "-"}, {"output_id": "00080536", "crs": "74010", "donor_id": ["00141"], "focus_area": "3", "gender_descr": "Gender Equality", "output_title": "UNV suport to UNDP's Flood Res", "budget": [351789.0, 67310.0, 0.0], "fiscal_year": [2012, 2013, 2014], "gender_id": "1", "donor_name": ["GOVERNMENT OF JAPAN"], "award_id": "00047974", "output_descr": "The specific objective of this project is to complement the efforts of UNDP's Japan funded \"ER flood affected communities\"and intiative of \"One UNDRM\"programme by deploying IUVs and supprting main government counterparts and deploying nuvs in SindH.", "donor_short": ["JPN"], "expenditure": [324970.0, 69023.0, 3810.0], "crs_descr": "Disaster prevention and preparedness", "focus_area_descr": "Crisis prevention & recovery"}], "subnational": [{"outputID": "00057915", "output_locID": "00057915-1", "name": "Pakistan", "focus_area": "-", "lat": "30", "type": "PCL", "awardID": "00047974", "lon": "70", "precision": "9", "focus_area_descr": "-"}, {"outputID": "00057915", "output_locID": "00057915-2", "name": "Punjab", "focus_area": "-", "lat": "31.54972", "type": "ADM1", "awardID": "00047974", "lon": "74.34361", "precision": "4", "focus_area_descr": "-"}, {"outputID": "00057915", "output_locID": "00057915-3", "name": "Sindh", "focus_area": "-", "lat": "24.9056", "type": "PPLA", "awardID": "00047974", "lon": "67.0822", "precision": "3", "focus_area_descr": "-"}, {"outputID": "00057915", "output_locID": "00057915-4", "name": "Balochistan", "focus_area": "-", "lat": "28.2842", "type": "ADM1", "awardID": "00047974", "lon": "65.3836", "precision": "4", "focus_area_descr": "-"}, {"outputID": "00057915", "output_locID": "00057915-5", "name": "Khyber Pakhtunkhwa", "focus_area": "-", "lat": "34.008", "type": "PPLA", "awardID": "00047974", "lon": "71.57849", "precision": "3", "focus_area_descr": "-"}, {"outputID": "00057915", "output_locID": "00057915-6", "name": "Gilgit Baltistan", "focus_area": "-", "lat": "35.91868", "type": "PPLA", "awardID": "00047974", "lon": "74.31245", "precision": "3", "focus_area_descr": "-"}, {"outputID": "00057915", "output_locID": "00057915-7", "name": "Jammu and Kashmir", "focus_area": "-", "lat": "34.37002", "type": "PPLA", "awardID": "00047974", "lon": "73.47082", "precision": "3", "focus_area_descr": "-"}, {"outputID": "00057915", "output_locID": "00057915-8", "name": "Lahore", "focus_area": "-", "lat": "31.54972", "type": "PPLA", "awardID": "00047974", "lon": "74.34361", "precision": "3", "focus_area_descr": "-"}, {"outputID": "00057915", "output_locID": "00057915-9", "name": "Rajanpur", "focus_area": "-", "lat": "29.15928", "type": "ADM2", "awardID": "00047974", "lon": "70.15183", "precision": "3", "focus_area_descr": "-"}, {"outputID": "00057915", "output_locID": "00057915-10", "name": "Sialkot", "focus_area": "-", "lat": "32.5101", "type": "PPLA2", "awardID": "00047974", "lon": "74.54313", "precision": "3", "focus_area_descr": "-"}, {"outputID": "00057915", "output_locID": "00057915-11", "name": "Jhang", "focus_area": "-", "lat": "31.27154", "type": "PPLA2", "awardID": "00047974", "lon": "72.32842", "precision": "3", "focus_area_descr": "-"}, {"outputID": "00057915", "output_locID": "00057915-12", "name": "Dera Ghazi Khan", "focus_area": "-", "lat": "30.05614", "type": "PPLA2", "awardID": "00047974", "lon": "70.63477", "precision": "3", "focus_area_descr": "-"}, {"outputID": "00057915", "output_locID": "00057915-13", "name": "Muzaffargarh", "focus_area": "-", "lat": "30.07537", "type": "PPLA2", "awardID": "00047974", "lon": "71.19213", "precision": "3", "focus_area_descr": "-"}, {"outputID": "00057915", "output_locID": "00057915-14", "name": "Layyah", "focus_area": "-", "lat": "30.96707", "type": "ADM2", "awardID": "00047974", "lon": "71.25788", "precision": "3", "focus_area_descr": "-"}, {"outputID": "00057915", "output_locID": "00057915-15", "name": "Multan", "focus_area": "-", "lat": "30.19556", "type": "PPLA2", "awardID": "00047974", "lon": "71.47528", "precision": "3", "focus_area_descr": "-"}, {"outputID": "00057915", "output_locID": "00057915-16", "name": "Mianwali", "focus_area": "-", "lat": "32.5741", "type": "PPLA2", "awardID": "00047974", "lon": "71.52639", "precision": "3", "focus_area_descr": "-"}, {"outputID": "00057915", "output_locID": "00057915-17", "name": "Karachi", "focus_area": "-", "lat": "24.9056", "type": "PPLA", "awardID": "00047974", "lon": "67.0822", "precision": "3", "focus_area_descr": "-"}, {"outputID": "00057915", "output_locID": "00057915-18", "name": "Thatta", "focus_area": "-", "lat": "24.49026", "type": "ADM2", "awardID": "00047974", "lon": "67.92284", "precision": "3", "focus_area_descr": "-"}, {"outputID": "00057915", "output_locID": "00057915-19", "name": "Dadu", "focus_area": "-", "lat": "26.73286", "type": "PPLA2", "awardID": "00047974", "lon": "67.77631", "precision": "3", "focus_area_descr": "-"}, {"outputID": "00057915", "output_locID": "00057915-20", "name": "Sukkur", "focus_area": "-", "lat": "27.70516", "type": "PPLA2", "awardID": "00047974", "lon": "68.85738", "precision": "3", "focus_area_descr": "-"}, {"outputID": "00057915", "output_locID": "00057915-21", "name": "Hyderabad", "focus_area": "-", "lat": "25.39242", "type": "PPLA2", "awardID": "00047974", "lon": "68.37366", "precision": "3", "focus_area_descr": "-"}, {"outputID": "00057915", "output_locID": "00057915-22", "name": "Jacobabad", "focus_area": "-", "lat": "28.281", "type": "PPLA2", "awardID": "00047974", "lon": "68.43876", "precision": "3", "focus_area_descr": "-"}, {"outputID": "00057915", "output_locID": "00057915-23", "name": "Charsadda", "focus_area": "-", "lat": "34.14345", "type": "ADM2", "awardID": "00047974", "lon": "71.73173", "precision": "3", "focus_area_descr": "-"}, {"outputID": "00057915", "output_locID": "00057915-24", "name": "Dera Ismail Khan", "focus_area": "-", "lat": "31.83269", "type": "PPLA2", "awardID": "00047974", "lon": "70.9024", "precision": "3", "focus_area_descr": "-"}, {"outputID": "00057915", "output_locID": "00057915-25", "name": "Nowshera", "focus_area": "-", "lat": "33.92538", "type": "ADM2", "awardID": "00047974", "lon": "71.98092", "precision": "3", "focus_area_descr": "-"}, {"outputID": "00057915", "output_locID": "00057915-26", "name": "Haripur", "focus_area": "-", "lat": "33.99997", "type": "ADM2", "awardID": "00047974", "lon": "72.93409", "precision": "3", "focus_area_descr": "-"}, {"outputID": "00057915", "output_locID": "00057915-27", "name": "Gawadar", "focus_area": "-", "lat": "25.9301", "type": "RES", "awardID": "00047974", "lon": "63.6418", "precision": "4", "focus_area_descr": "-"}, {"outputID": "00057915", "output_locID": "00057915-28", "name": "Sibbi", "focus_area": "-", "lat": "28.5258", "type": "PPL", "awardID": "00047974", "lon": "65.5088", "precision": "3", "focus_area_descr": "-"}, {"outputID": "00057915", "output_locID": "00057915-29", "name": "Jaffarabad", "focus_area": "-", "lat": "32.02058", "type": "PPL", "awardID": "00047974", "lon": "74.68031", "precision": "3", "focus_area_descr": "-"}, {"outputID": "00057915", "output_locID": "00057915-30", "name": "Gilgit", "focus_area": "-", "lat": "35.88013", "type": "ADM2", "awardID": "00047974", "lon": "74.41232", "precision": "3", "focus_area_descr": "-"}, {"outputID": "00057915", "output_locID": "00057915-31", "name": "Skardu", "focus_area": "-", "lat": "35.40116", "type": "ADM2", "awardID": "00047974", "lon": "75.62633", "precision": "3", "focus_area_descr": "-"}, {"outputID": "00057915", "output_locID": "00057915-32", "name": "Hunza", "focus_area": "-", "lat": "36.49722", "type": "ADM2", "awardID": "00047974", "lon": "75.00414", "precision": "3", "focus_area_descr": "-"}, {"outputID": "00057915", "output_locID": "00057915-33", "name": "Nagar", "focus_area": "-", "lat": "36.49722", "type": "ADM2", "awardID": "00047974", "lon": "75.00414", "precision": "3", "focus_area_descr": "-"}, {"outputID": "00057915", "output_locID": "00057915-34", "name": "Muzaffarabad", "focus_area": "-", "lat": "34.37002", "type": "ADM2", "awardID": "00047974", "lon": "73.47082", "precision": "3", "focus_area_descr": "-"}, {"outputID": "00057915", "output_locID": "00057915-35", "name": "Neelum", "focus_area": "-", "lat": "34.93", "type": "ADM2", "awardID": "00047974", "lon": "74.504", "precision": "3", "focus_area_descr": "-"}, {"outputID": "00080536", "output_locID": "00080536-1", "name": "Pakistan", "focus_area": "3", "lat": "30", "type": "PCL", "awardID": "00047974", "lon": "70", "precision": "9", "focus_area_descr": "Crisis prevention & recovery"}], "operating_unit": "Pakistan", "budget": 4239662.0, "iati_op_id": "PK", "inst_descr": "National Execution", "start": "2007-08-30", "operating_unit_id": "PAK", "expenditure": 5526425.0, "document_name": [["00047974_One UN DRM Prodoc.pdf", "PAK%20CCPAP%20UNDP%20UNFPA%20UNICEF%202013-2017%20updated"], ["http://www.undp.org/content/dam/undp/documents/projects/PAK/00047974_One UN DRM Prodoc.pdf", "http://www.pk.undp.org/content/dam/pakistan/docs/Legal Framework/PAK CCPAP UNDP UNFPA UNICEF 2013-2017 updated.pdf"]], "project_id": "00047974", "inst_type_id": "10", "operating_unit_website": "http://undp.org.pk/", "project_title": "one un disaster risk management programme"}