{"project_descr": "Recovery of October 2005 earthquake affected population through addressing environmental issues like landslides and restoring livelihoods through natural resource management.", "fiscal_year": [2014, 2012, 2013], "end": "2013-05-31", "region_id": "RBAP", "operating_unit_email": "registry.pk@undp.org", "inst_id": "02373", "outputs": [{"output_id": "00055157", "crs": null, "donor_id": ["00012"], "focus_area": "-", "gender_descr": "Gender Equality", "output_title": "Environmental Recovery Program", "budget": [160000.0, 5984.0, 0.0], "fiscal_year": [2012, 2013, 2014], "gender_id": "1", "donor_name": ["Voluntary Contributions"], "award_id": "00046362", "output_descr": "Environmental Recovery Project for the Earthquake Affected Areas in Pakistan Administered Kashmir and Province of Khyber Pakhtunkhwa, in Pakistan.", "donor_short": ["UNDP"], "expenditure": [148212.0, 5940.0, 22.0], "crs_descr": null, "focus_area_descr": "-"}], "subnational": [{"outputID": "00055157", "output_locID": "00055157-1", "name": "Bagh District", "focus_area": "-", "lat": "33.996110", "type": "ADM2", "awardID": "00046362", "lon": "73.757690", "precision": "1", "focus_area_descr": "-"}, {"outputID": "00055157", "output_locID": "00055157-2", "name": "Azad Kashmir", "focus_area": "-", "lat": "33.947180", "type": "ADM1", "awardID": "00046362", "lon": "73.910400", "precision": "1", "focus_area_descr": "-"}, {"outputID": "00055157", "output_locID": "00055157-3", "name": "Khyber Pakhtunkhwa Province", "focus_area": "-", "lat": "34.459930", "type": "ADM1", "awardID": "00046362", "lon": "72.502370", "precision": "1", "focus_area_descr": "-"}, {"outputID": "00055157", "output_locID": "00055157-4", "name": "Khyber Pakhtunkhwa Province", "focus_area": "-", "lat": "34.459930", "type": "ADM1", "awardID": "00046362", "lon": "72.502370", "precision": "1", "focus_area_descr": "-"}, {"outputID": "00055157", "output_locID": "00055157-5", "name": "Mansehra District", "focus_area": "-", "lat": "34.648270", "type": "ADM2", "awardID": "00046362", "lon": "73.464700", "precision": "1", "focus_area_descr": "-"}, {"outputID": "00055157", "output_locID": "00055157-6", "name": "Muzaffarabad District", "focus_area": "-", "lat": "34.342800", "type": "ADM2", "awardID": "00046362", "lon": "73.589860", "precision": "1", "focus_area_descr": "-"}], "operating_unit": "Pakistan", "budget": 165984.0, "iati_op_id": "PK", "inst_descr": "UNDP (Direct Execution)", "start": "2007-02-05", "operating_unit_id": "PAK", "expenditure": 154174.0, "document_name": [["00046362_EnvRP prodoc  Final (Signed) (2)"], ["http://www.undp.org/content/dam/undp/documents/projects/PAK/00046362_EnvRP prodoc  Final (Signed) (2).pdf"], ["pdf"]], "project_id": "00046362", "inst_type_id": "40", "operating_unit_website": "http://undp.org.pk/", "project_title": "environmental recovery project"}