{"project_descr": "Emergency Medical Relief Initiative for the Public Health Care Facilities (EMRI)", "fiscal_year": [2013, 2012], "end": "2013-12-31", "region_id": "RBAS", "operating_unit_email": "registry.papp@undp.org", "inst_id": "02388", "outputs": [{"output_id": "00059147", "crs": "15112", "donor_id": ["00141"], "focus_area": "3", "gender_descr": "Gender Equality", "output_title": "West Bank Hospital Improvement", "budget": [70777.0, 98.0], "fiscal_year": [2012, 2013], "gender_id": "1", "donor_name": ["GOVERNMENT OF JAPAN"], "award_id": "00048824", "output_descr": "Health care services facilities, provision of medical equipment and supplements and capacities of three governorates hospitals are improved.", "donor_short": ["JPN"], "expenditure": [73431.0, 98.0], "crs_descr": null, "focus_area_descr": "Responsive Institutions"}], "subnational": [{"outputID": "00059147", "output_locID": "00059147-1", "name": "Tulkarm", "focus_area": "3", "lat": "32.310370", "type": "PPL", "awardID": "00048824", "lon": "35.028630", "precision": "1", "focus_area_descr": "Responsive Institutions"}, {"outputID": "00059147", "output_locID": "00059147-2", "name": "Ramallah", "focus_area": "3", "lat": "31.899640", "type": "PPL", "awardID": "00048824", "lon": "35.204220", "precision": "1", "focus_area_descr": "Responsive Institutions"}, {"outputID": "00059147", "output_locID": "00059147-3", "name": "Nablus", "focus_area": "3", "lat": "32.221110", "type": "PPL", "awardID": "00048824", "lon": "35.254440", "precision": "1", "focus_area_descr": "Responsive Institutions"}, {"outputID": "00059147", "output_locID": "00059147-4", "name": "Janin", "focus_area": "3", "lat": "32.459430", "type": "PPL", "awardID": "00048824", "lon": "35.300860", "precision": "1", "focus_area_descr": "Responsive Institutions"}, {"outputID": "00059147", "output_locID": "00059147-5", "name": "Jericho", "focus_area": "3", "lat": "31.866670", "type": "PPLA", "awardID": "00048824", "lon": "35.450000", "precision": "1", "focus_area_descr": "Responsive Institutions"}, {"outputID": "00059147", "output_locID": "00059147-6", "name": "Jericho", "focus_area": "3", "lat": "31.866670", "type": "PPLA", "awardID": "00048824", "lon": "35.450000", "precision": "1", "focus_area_descr": "Responsive Institutions"}, {"outputID": "00059147", "output_locID": "00059147-7", "name": "Hebron", "focus_area": "3", "lat": "31.529350", "type": "PPL", "awardID": "00048824", "lon": "35.093800", "precision": "1", "focus_area_descr": "Responsive Institutions"}], "operating_unit": "Prog for Palestinian People", "budget": 70875.0, "iati_op_id": "PS", "inst_descr": "UNDP - PAPP", "start": "2008-01-01", "operating_unit_id": "PAL", "expenditure": 73529.0, "document_name": [["00048824_EMRI_11th_Progress_Report_March_2011_Signed1", "00048824_EMRI_LPAC_signed_doc", "00048824_EMRI_progress_report_no_10"], ["https://info.undp.org/docs/pdc/Documents/PAL/00048824_EMRI_11th_Progress_Report_March_2011_Signed[1].pdf", "https://info.undp.org/docs/pdc/Documents/PAL/00048824_EMRI_LPAC_signed_doc.pdf", "https://info.undp.org/docs/pdc/Documents/PAL/00048824_EMRI_progress_report_no._10.pdf"], ["pdf", "pdf", "pdf"], [6, 0, 6]], "project_id": "00048824", "inst_type_id": "40", "operating_unit_website": null, "project_title": "emri - emergency medical relief initiative"}