{"project_descr": "Appui \u00e0 l'Elaboration de la Seconde Communication Natinale du Mali dans le cadre des Changements Climatiques (PIMS 3584 CC-EA _Mali SCN)", "fiscal_year": [2014, 2012, 2013], "end": "2011-12-31", "region_id": "RBA", "operating_unit_email": "registry.ml@undp.org", "inst_id": "99999", "outputs": [{"output_id": "00046812", "crs": "51010", "donor_id": ["10003"], "focus_area": "1", "gender_descr": "Gender Equality", "output_title": "PIMS 3584 CC-EA-SNC Mali", "budget": [3.0, 0.0, 0.0], "fiscal_year": [2012, 2013, 2014], "gender_id": "1", "donor_name": ["Global Environment Fund Truste"], "award_id": "00041127", "output_descr": "L\u2019objectif du projet est d\u2019accompagner le gouvernement du Mali dans l\u2019\u00e9laboration de la seconde communication du Mali dans le cadre de la mise en \u0153uvre de l\u2019UNCCCC.", "donor_short": ["GEFTrustee"], "expenditure": [-13926.0, 0.0, 0.0], "crs_descr": null, "focus_area_descr": "Inclusive & Sustainable Growth"}], "subnational": [{"outputID": "00046812", "output_locID": "00046812-1", "name": "Gao", "focus_area": "1", "lat": "16.271670", "type": "PPLA", "awardID": "00041127", "lon": "-0.044720", "precision": "1", "focus_area_descr": "Inclusive & Sustainable Growth"}, {"outputID": "00046812", "output_locID": "00046812-2", "name": "Kidal", "focus_area": "1", "lat": "18.441110", "type": "PPLA", "awardID": "00041127", "lon": "1.407780", "precision": "1", "focus_area_descr": "Inclusive & Sustainable Growth"}, {"outputID": "00046812", "output_locID": "00046812-3", "name": "Koulikoro", "focus_area": "1", "lat": "12.862730", "type": "PPLA", "awardID": "00041127", "lon": "-7.559850", "precision": "1", "focus_area_descr": "Inclusive & Sustainable Growth"}, {"outputID": "00046812", "output_locID": "00046812-4", "name": "Mopti", "focus_area": "1", "lat": "14.484300", "type": "PPLA", "awardID": "00041127", "lon": "-4.182960", "precision": "1", "focus_area_descr": "Inclusive & Sustainable Growth"}, {"outputID": "00046812", "output_locID": "00046812-5", "name": "Mopti", "focus_area": "1", "lat": "14.484300", "type": "PPLA", "awardID": "00041127", "lon": "-4.182960", "precision": "1", "focus_area_descr": "Inclusive & Sustainable Growth"}, {"outputID": "00046812", "output_locID": "00046812-6", "name": "Kayes", "focus_area": "1", "lat": "14.446930", "type": "PPLA", "awardID": "00041127", "lon": "-11.444480", "precision": "1", "focus_area_descr": "Inclusive & Sustainable Growth"}, {"outputID": "00046812", "output_locID": "00046812-7", "name": "S\u00e9gou", "focus_area": "1", "lat": "13.431700", "type": "PPLA", "awardID": "00041127", "lon": "-6.215700", "precision": "1", "focus_area_descr": "Inclusive & Sustainable Growth"}, {"outputID": "00046812", "output_locID": "00046812-8", "name": "S\u00e9gou", "focus_area": "1", "lat": "13.431700", "type": "PPLA", "awardID": "00041127", "lon": "-6.215700", "precision": "1", "focus_area_descr": "Inclusive & Sustainable Growth"}, {"outputID": "00046812", "output_locID": "00046812-9", "name": "Tombouctou Region", "focus_area": "1", "lat": "19.700000", "type": "ADM1", "awardID": "00041127", "lon": "-3.600000", "precision": "1", "focus_area_descr": "Inclusive & Sustainable Growth"}], "operating_unit": "Mali", "budget": 3.0, "iati_op_id": "ML", "inst_descr": "UNDP", "start": "2005-08-16", "operating_unit_id": "MLI", "expenditure": -13926.0, "document_name": [], "project_id": "00041127", "inst_type_id": "40", "operating_unit_website": "http://www.ml.undp.org/", "project_title": "pims 3584 cc-ea _mali scn"}