{"project_descr": " ", "fiscal_year": [2014, 2010, 2011, 2012], "end": "2011-12-31", "region_id": "RBA", "operating_unit_email": "registry.ml@undp.org", "inst_id": "02077", "outputs": [{"output_id": "00057041", "crs": "15110", "donor_id": ["00012"], "focus_area": "1", "gender_descr": "Gender Equality", "output_title": "Planificat. bas\u00e9e sur les OMDs", "budget": [0.0, 547525.0, 0.0, 0.0], "fiscal_year": [2010, 2011, 2012, 2014], "gender_id": "1", "donor_name": ["Voluntary Contributions"], "award_id": "00047476", "output_descr": "Projet de Renforcement des capacit\u00e9s des acteurs en planification locale pour l'acc\u00e9l\u00e9ration de l'atteinte des Objectifs du Mill\u00e9naire pour le D\u00e9veloppement dans les 166 communes du Programme National de S\u00e9curit\u00e9 Alimentaire.", "donor_short": ["UNDP"], "expenditure": [161323.0, 662201.0, 24279.0, 0.0], "crs_descr": "Public sector policy and administrative management", "focus_area_descr": "Poverty reduction & MDG achievement"}], "subnational": [{"outputID": "00057041", "output_locID": "00057041-1", "name": "Gao", "focus_area": "1", "lat": "16.27167", "type": "PPLA", "awardID": "00047476", "lon": "-0.04472", "precision": "3", "focus_area_descr": "Poverty reduction & MDG achievement"}, {"outputID": "00057041", "output_locID": "00057041-2", "name": "Kidal", "focus_area": "1", "lat": "18.44111", "type": "PPLA", "awardID": "00047476", "lon": "1.40778", "precision": "3", "focus_area_descr": "Poverty reduction & MDG achievement"}, {"outputID": "00057041", "output_locID": "00057041-3", "name": "Koulikoro", "focus_area": "1", "lat": "12.86273", "type": "PPLA", "awardID": "00047476", "lon": "-7.55985", "precision": "3", "focus_area_descr": "Poverty reduction & MDG achievement"}, {"outputID": "00057041", "output_locID": "00057041-4", "name": "Mopti", "focus_area": "1", "lat": "14.4843", "type": "PPLA", "awardID": "00047476", "lon": "-4.18296", "precision": "3", "focus_area_descr": "Poverty reduction & MDG achievement"}, {"outputID": "00057041", "output_locID": "00057041-5", "name": "Regions de Kayes", "focus_area": "1", "lat": "14.44693", "type": "PPLA", "awardID": "00047476", "lon": "-11.44448", "precision": "3", "focus_area_descr": "Poverty reduction & MDG achievement"}, {"outputID": "00057041", "output_locID": "00057041-6", "name": "Segou", "focus_area": "1", "lat": "13.4317", "type": "PPLA", "awardID": "00047476", "lon": "-6.2157", "precision": "3", "focus_area_descr": "Poverty reduction & MDG achievement"}, {"outputID": "00057041", "output_locID": "00057041-7", "name": "Tombouctou", "focus_area": "1", "lat": "18.54778", "type": "ADM1", "awardID": "00047476", "lon": "-2.33417", "precision": "4", "focus_area_descr": "Poverty reduction & MDG achievement"}], "operating_unit": "Mali", "budget": 547525.0, "iati_op_id": "ML", "inst_descr": "National Execution", "start": "2007-06-14", "operating_unit_id": "MLI", "expenditure": 847803.0, "document_name": [["00047476_Prodoc Renforcement des capacit\u00e9s des acteurs_OMD.pdf"], ["http://www.undp.org/content/dam/undp/documents/projects/MLI/00047476_Prodoc Renforcement des capacit\u00e9s des acteurs_OMD.pdf"]], "project_id": "00047476", "inst_type_id": "10", "operating_unit_website": "http://www.ml.undp.org/", "project_title": "aa4 renforcement des capacit\u00e9s des acteurs locaux  omd"}