{"project_descr": "Strengthening the Disaster Mitigation and Management System in Mongolia - Phase III", "fiscal_year": [2012], "end": "2013-07-31", "region_id": "RBAP", "operating_unit_email": "registry.mn@undp.org", "inst_id": "02129", "outputs": [{"output_id": "00058446", "crs": null, "donor_id": ["10314", "00155", "00012"], "focus_area": "-", "gender_descr": "Gender Equality", "output_title": "Disaster Mitigation-Phase III", "budget": [30555.0], "fiscal_year": [2012], "gender_id": "1", "donor_name": ["Voluntary Contributions", "GOVERNMENT OF LUXEMBOURG", "BRITISH EMBASSY"], "award_id": "00048358", "output_descr": "Legal/policy environment for disaster prevention is improved enabling community groups, local governments and national institutions to coordinate and enhance their systems for disaster preparedness and awareness of disaster preparedness and mitigation.", "donor_short": ["UNDP", "LUX", "BRITISH EM"], "expenditure": [30480.0], "crs_descr": null, "focus_area_descr": "-"}], "subnational": [{"outputID": "00058446", "output_locID": "00058446-1", "name": "Hovd", "focus_area": "-", "lat": "47.000000", "type": "ADM1", "awardID": "00048358", "lon": "92.500000", "precision": "1", "focus_area_descr": "-"}, {"outputID": "00058446", "output_locID": "00058446-2", "name": "Dzavhan Aymag", "focus_area": "-", "lat": "48.000000", "type": "ADM1", "awardID": "00048358", "lon": "96.000000", "precision": "1", "focus_area_descr": "-"}, {"outputID": "00058446", "output_locID": "00058446-3", "name": "Ulaanbaatar Hot", "focus_area": "-", "lat": "47.916670", "type": "ADM1", "awardID": "00048358", "lon": "106.916670", "precision": "1", "focus_area_descr": "-"}, {"outputID": "00058446", "output_locID": "00058446-4", "name": "H\u00f6vsg\u00f6l Aymag", "focus_area": "-", "lat": "50.000000", "type": "ADM1", "awardID": "00048358", "lon": "100.000000", "precision": "1", "focus_area_descr": "-"}, {"outputID": "00058446", "output_locID": "00058446-5", "name": "Hentiy Aymag", "focus_area": "-", "lat": "48.000000", "type": "ADM1", "awardID": "00048358", "lon": "110.500000", "precision": "1", "focus_area_descr": "-"}, {"outputID": "00058446", "output_locID": "00058446-6", "name": "Dornogovi Aymag", "focus_area": "-", "lat": "44.500000", "type": "ADM1", "awardID": "00048358", "lon": "110.000000", "precision": "1", "focus_area_descr": "-"}, {"outputID": "00058446", "output_locID": "00058446-7", "name": "Bulgan", "focus_area": "-", "lat": "49.000000", "type": "ADM1", "awardID": "00048358", "lon": "103.500000", "precision": "1", "focus_area_descr": "-"}], "operating_unit": "Mongolia", "budget": 30555.0, "iati_op_id": "MN", "inst_descr": "Office of the Prime Minister", "start": "2008-04-07", "operating_unit_id": "MNG", "expenditure": 30480.0, "document_name": [], "project_id": "00048358", "inst_type_id": "10", "operating_unit_website": null, "project_title": "disaster mitigation& management system iii"}