{"project_descr": "Integrated Land Use Management to Combat Land Degradation and Deforestation in Madhya Pradesh", "fiscal_year": [2014, 2012, 2013], "end": "2010-12-31", "region_id": "RBAP", "operating_unit_email": "info.in@undp.org", "inst_id": "03681", "outputs": [{"output_id": "00046257", "crs": "51010", "donor_id": ["10003"], "focus_area": "1", "gender_descr": "Gender Equality", "output_title": "Combat Land Degradation", "budget": [0.0, 0.0, 0.0], "fiscal_year": [2012, 2013, 2014], "gender_id": "1", "donor_name": ["Global Environment Fund Truste"], "award_id": "00040748", "output_descr": "Developing project strategy for integrated land use management to combat land degradation and deforestation in Madhya Pradesh to benefit small and marginal farmers", "donor_short": ["GEFTrustee"], "expenditure": [0.0, 0.0, 0.0], "crs_descr": null, "focus_area_descr": "Inclusive & Sustainable Growth"}], "subnational": [{"outputID": "00046257", "output_locID": "00046257-1", "name": "Betul", "focus_area": "1", "lat": "15.137110", "type": "PPL", "awardID": "00040748", "lon": "73.949180", "precision": "1", "focus_area_descr": "Inclusive & Sustainable Growth"}, {"outputID": "00046257", "output_locID": "00046257-2", "name": "Chhindwara", "focus_area": "1", "lat": "22.057950", "type": "PPL", "awardID": "00040748", "lon": "78.937630", "precision": "1", "focus_area_descr": "Inclusive & Sustainable Growth"}, {"outputID": "00046257", "output_locID": "00046257-3", "name": "Sidhi", "focus_area": "1", "lat": "24.393290", "type": "PPL", "awardID": "00040748", "lon": "81.879350", "precision": "1", "focus_area_descr": "Inclusive & Sustainable Growth"}, {"outputID": "00046257", "output_locID": "00046257-4", "name": "Singrauli", "focus_area": "1", "lat": "24.199730", "type": "PPL", "awardID": "00040748", "lon": "82.675350", "precision": "1", "focus_area_descr": "Inclusive & Sustainable Growth"}, {"outputID": "00046257", "output_locID": "00046257-5", "name": "Dumaria", "focus_area": "1", "lat": "26.765260", "type": "PPL", "awardID": "00040748", "lon": "84.404000", "precision": "1", "focus_area_descr": "Inclusive & Sustainable Growth"}], "operating_unit": "India", "budget": 0.0, "iati_op_id": "IN", "inst_descr": "IND-Forest Deptt.Government of", "start": "2005-07-01", "operating_unit_id": "IND", "expenditure": 0.0, "document_name": [], "project_id": "00040748", "inst_type_id": "10", "operating_unit_website": "http://www.in.undp.org/", "project_title": "combat land degradation"}