{"budget":[1188027.0],"document_name":[["54285_Memorandum_25.04.2008.pdf","54285_Memorandum_26.05.2009.pdf","54285_Memorandum_29.12.2008.pdf","54285_Project_Documents_registered.pdf","54285_Memorandum_11.01.2011.pdf","54285_Memorandum_23.06.11.pdf","54285_Memorandum_23.11.2009.pdf","54285_Memorandum_24.08.2010.pdf","barysau 073.jpg","barysau 065.jpg","barysau 061.jpg"],["http://www.undp.org/content/dam/undp/documents/projects/BLR/00045865/54285_Memorandum_25.04.2008.pdf","http://www.undp.org/content/dam/undp/documents/projects/BLR/00045865/54285_Memorandum_26.05.2009.pdf","http://www.undp.org/content/dam/undp/documents/projects/BLR/00045865/54285_Memorandum_29.12.2008.pdf","http://www.undp.org/content/dam/undp/documents/projects/BLR/00045865/54285_Project_Documents_registered.pdf","http://www.undp.org/content/dam/undp/documents/projects/BLR/00045865/54285_Memorandum_11.01.2011.pdf","http://www.undp.org/content/dam/undp/documents/projects/BLR/00045865/54285_Memorandum_23.06.11.pdf","http://www.undp.org/content/dam/undp/documents/projects/BLR/00045865/54285_Memorandum_23.11.2009.pdf","http://www.undp.org/content/dam/undp/documents/projects/BLR/00045865/54285_Memorandum_24.08.2010.pdf","http://www.undp.org/content/dam/undp/documents/projects/BLR/00045865/barysau 073.jpg","http://www.undp.org/content/dam/undp/documents/projects/BLR/00045865/barysau 065.jpg","http://www.undp.org/content/dam/undp/documents/projects/BLR/00045865/barysau 061.jpg"]],"end":"2014-12-31","expenditure":[1261242.0],"fiscal_year":["2013","2012","2011","2010"],"iati_op_id":"BY","inst_descr":"","inst_id":"","inst_type_id":"","operating_unit":"Belarus, Republic of","operating_unit_email":"dpi_by@undp.org","operating_unit_id":"BLR","operating_unit_website":"http://undp.by/en/","outputs":[{"award_id":"00045865","budget":[645095.0,278391.0,264541.0,null],"crs":"99810","crs_descr":"Sectors Not Specified","donor_id":["10159","10315"],"donor_name":["EUROPEAN COMMISSION","ORG FOR SECURITY AND COOPERATI"],"donor_short":["EUCOMM","OSCE"],"expenditure":[270863.0,255779.0,195966.0,538634.0],"fiscal_year":["2013","2012","2011","2010"],"focus_area":"2","focus_area_descr":"Democratic governance","gender_descr":"Gender Equality","gender_id":"1","output_descr":"The identification, recruitment and creation of an appropriately qualified and experienced project implementation team. The procurement and delivery of physical security improvements for the identified locations in accordance with the priorities, detailed budget and the OSCE SAV reports.","output_id":"00054285","output_title":"SMALL ARMS AND LIGHT WEAPONS"}],"project_descr":"CAPACITY BUILDING OF SMALL ARMS AND LIGHT WEAPONS STOCKPILE MANAGEMENT AND SECURITY","project_id":"00045865","project_title":"SMALL ARMS AND LIGHT WEAPONS","region_id":"RBEC","start":"2007-01-01","subnational":[{"awardID":"00045865","focus_area":"2","focus_area_descr":"Democratic governance","lat":"53.2933","lon":"28.6422","name":"Asipovicy","outputID":"00054285","output_locID":"00054285-1","precision":"3","type":"PPL"},{"awardID":"00045865","focus_area":"2","focus_area_descr":"Democratic governance","lat":"55.4841","lon":"27.5638","name":"Barouka","outputID":"00054285","output_locID":"00054285-2","precision":"3","type":"PPL"},{"awardID":"00045865","focus_area":"2","focus_area_descr":"Democratic governance","lat":"54.134","lon":"28.3018","name":"Barysau","outputID":"00054285","output_locID":"00054285-3","precision":"3","type":"PPLA2"},{"awardID":"00045865","focus_area":"2","focus_area_descr":"Democratic governance","lat":"52.551","lon":"23.4115","name":"Brest, Brestskaya Voblasts","outputID":"00054285","output_locID":"00054285-4","precision":"3","type":"PPLA"},{"awardID":"00045865","focus_area":"2","focus_area_descr":"Democratic governance","lat":"52.264","lon":"30.5831","name":"Homiel","outputID":"00054285","output_locID":"00054285-5","precision":"3","type":"PPLA"},{"awardID":"00045865","focus_area":"2","focus_area_descr":"Democratic governance","lat":"53.4118","lon":"23.4932","name":"Hrodna","outputID":"00054285","output_locID":"00054285-6","precision":"3","type":"PPLA"},{"awardID":"00045865","focus_area":"2","focus_area_descr":"Democratic governance","lat":"52.4529","lon":"25.919","name":"Kosava","outputID":"00054285","output_locID":"00054285-7","precision":"3","type":"PPLC"},{"awardID":"00045865","focus_area":"2","focus_area_descr":"Democratic governance","lat":"53.3032","lon":"28.849","name":"Marina Horka","outputID":"00054285","output_locID":"00054285-8","precision":"3","type":"PPL"},{"awardID":"00045865","focus_area":"2","focus_area_descr":"Democratic governance","lat":"53.54","lon":"27.34","name":"Minsk","outputID":"00054285","output_locID":"00054285-9","precision":"3","type":"PPLC"},{"awardID":"00045865","focus_area":"2","focus_area_descr":"Democratic governance","lat":"53.512","lon":"25.1858","name":"Slonim","outputID":"00054285","output_locID":"00054285-10","precision":"3","type":"PPLA2"},{"awardID":"00045865","focus_area":"2","focus_area_descr":"Democratic governance","lat":"55.1125","lon":"30.1217","name":"Vicebsk","outputID":"00054285","output_locID":"00054285-11","precision":"3","type":"PPLA"},{"awardID":"00045865","focus_area":"2","focus_area_descr":"Democratic governance","lat":"54.5339","lon":"28.5539","name":"Zaslonava","outputID":"00054285","output_locID":"00054285-12","precision":"3","type":"PPL"}]}