{"budget":[1147271.0],"document_name":[["PRODOC.pdf"],["http://www.undp.org/content/dam/undp/documents/projects/CHN/00043420/PRODOC.pdf"]],"end":"2014-12-31","expenditure":[1143184.0],"fiscal_year":["2013","2011","2010","2012"],"iati_op_id":"CN","inst_descr":"China International Centre For","inst_id":"00842","inst_type_id":"10","operating_unit":"China","operating_unit_id":"CHN","outputs":[{"award_id":"00043420","budget":[0.0,null,null],"crs":"99810","crs_descr":"Sectors Not Specified","donor_id":["00012","00089"],"donor_name":["Voluntary Contributions","GOVERNMENT OF CHINA"],"donor_short":["UNDP","CPR"],"expenditure":[0.0,-35.0,131485.0],"fiscal_year":["2013","2011","2010"],"focus_area":"-","focus_area_descr":"-","gender_descr":"Gender Equality","gender_id":"1","output_descr":"Outcome 1: Enabling environment and relevant policies for Technical Task Forcedevelopment created with new and innovative approaches of the Technical Task Force initiative at different levels suggested improving rural technological extension service deliveries for better rural livelihoods and poverty reduction.\n\nOutcome 2: Institutional and managerial capacity for the Technical Task Force Initiative built and strengthened through pilots of alternative Technical Task Force models, organisational settings and training programs to both the Technical Task Force practitioners and farmers.","output_id":"00050692","output_title":"Science & Techonolgy Support"},{"award_id":"00043420","budget":[103414.0,171000.0,872857.0],"crs":"15110","crs_descr":"Economic and development policy/planning","donor_id":["00012","00089"],"donor_name":["Voluntary Contributions","GOVERNMENT OF CHINA"],"donor_short":["UNDP","CPR"],"expenditure":[10906.0,155653.0,845175.0],"fiscal_year":["2013","2012","2011"],"focus_area":"1","focus_area_descr":"Poverty reduction & MDG achievement","gender_descr":"Gender Equality","gender_id":"1","output_descr":"This project is an extension of TTF first phase focusing on potato industry development, poverty alleviation and South-South cooperation.","output_id":"00074084","output_title":"TTF 2"}],"project_descr":"Promoting Innovative and Sustainable Science and Technology Support to Poverty Reduction in Rural China","project_id":"00043420","project_title":"Science and Techonolgy Support to Rural Development","region_id":"RBAP","start":"2006-03-09","subnational":[{"awardID":"00043420","lat":"29.56278","lon":"106.55278","name":"Chongqing","precision":"4","type":"ADM1"},{"awardID":"00043420","lat":"26.545","lon":"117.84278","name":"Fujian","precision":"4","type":"ADM1"},{"awardID":"00043420","lat":"22.81667","lon":"108.31667","name":"Guangxi","precision":"4","type":"ADM1"},{"awardID":"00043420","lat":"45.75","lon":"126.65","name":"Heilongjiang","precision":"4","type":"ADM1"},{"awardID":"00043420","lat":"34.75778","lon":"113.64861","name":"Henan","precision":"4","type":"ADM1"},{"awardID":"00043420","lat":"39.6086","lon":"109.78157","name":"Inner Mongolia","precision":"4","type":"ADM1"},{"awardID":"00043420","lat":"28.68333","lon":"115.88333","name":"Jiangxi","precision":"4","type":"ADM1"},{"awardID":"00043420","lat":"36.66833","lon":"116.99722","name":"Shandong","precision":"4","type":"ADM1"},{"awardID":"00043420","lat":"37","lon":"106","name":"Ningxia","precision":"4","type":"ADM1"},{"awardID":"00043420","lat":"39.14222","lon":"117.17667","name":"Tianjin","precision":"4","type":"ADM1"},{"awardID":"00043420","lat":"29.65","lon":"91.1","name":"Tibet","precision":"4","type":"ADM1"},{"awardID":"00043420","lat":"42.56917","lon":"85.45611","name":"Xinjiang","precision":"4","type":"ADM1"},{"awardID":"00043420","lat":"30.29365","lon":"120.16142","name":"Zhejiang","precision":"4","type":"ADM1"},{"awardID":"00043420","lat":"30.58333","lon":"114.26667","name":"Hubei","precision":"4","type":"ADM1"},{"awardID":"00043420","lat":"39.6086","lon":"109.78157","name":"Inner Mongolia","precision":"4","type":"ADM1"},{"awardID":"00043420","lat":"37","lon":"106","name":"Ningxia","precision":"4","type":"ADM1"},{"awardID":"00043420","lat":"34.25833","lon":"108.92861","name":"Shaanxi","precision":"4","type":"ADM1"},{"awardID":"00043420","lat":"25","lon":"102","name":"Yunnan","precision":"4","type":"ADM1"}]}