{"project_descr": "Reducing Pressure on Forest Resources and CO2 Emissions through Provision of Energy Efficient Housing Technologies (PEECH)", "fiscal_year": [2014, 2012, 2013], "end": "2013-10-31", "region_id": "RBAP", "operating_unit_email": "registry.pk@undp.org", "inst_id": "02368", "outputs": [{"output_id": "00059469", "crs": null, "donor_id": ["10003"], "focus_area": "-", "gender_descr": "Gender Equality", "output_title": "Promotion of Energy Efficient", "budget": [340857.0, 229581.0, 0.0], "fiscal_year": [2012, 2013, 2014], "gender_id": "1", "donor_name": ["Global Environment Fund Truste"], "award_id": "00048996", "output_descr": "Promotion of Energy Efficient Cooking, Heating and Housing Technologies", "donor_short": ["GEFTrustee"], "expenditure": [195372.0, 213852.0, 990.0], "crs_descr": null, "focus_area_descr": "-"}], "subnational": [{"outputID": "00059469", "output_locID": "00059469-1", "name": "Chitral District", "focus_area": "-", "lat": "36.258290", "type": "ADM2", "awardID": "00048996", "lon": "72.243020", "precision": "1", "focus_area_descr": "-"}, {"outputID": "00059469", "output_locID": "00059469-2", "name": "Gilgit", "focus_area": "-", "lat": "35.880130", "type": "ADM2", "awardID": "00048996", "lon": "74.412320", "precision": "1", "focus_area_descr": "-"}, {"outputID": "00059469", "output_locID": "00059469-3", "name": "Northern Areas", "focus_area": "-", "lat": "36.000000", "type": "ADM1", "awardID": "00048996", "lon": "75.000000", "precision": "1", "focus_area_descr": "-"}, {"outputID": "00059469", "output_locID": "00059469-4", "name": "Hunza-Nagar District", "focus_area": "-", "lat": "36.497220", "type": "ADM2", "awardID": "00048996", "lon": "75.004140", "precision": "1", "focus_area_descr": "-"}, {"outputID": "00059469", "output_locID": "00059469-5", "name": "Khyber Pakhtunkhwa Province", "focus_area": "-", "lat": "34.459930", "type": "ADM1", "awardID": "00048996", "lon": "72.502370", "precision": "1", "focus_area_descr": "-"}, {"outputID": "00059469", "output_locID": "00059469-6", "name": "Khyber Pakhtunkhwa Province", "focus_area": "-", "lat": "34.459930", "type": "ADM1", "awardID": "00048996", "lon": "72.502370", "precision": "1", "focus_area_descr": "-"}], "operating_unit": "Pakistan", "budget": 570438.0, "iati_op_id": "PK", "inst_descr": "Non-Governmental Organisation", "start": "2009-01-01", "operating_unit_id": "PAK", "expenditure": 410214.0, "document_name": [["00048996_Prodoc - PEECH"], ["http://www.undp.org/content/dam/undp/documents/projects/PAK/00048996_Prodoc - PEECH.pdf"], ["pdf"]], "project_id": "00048996", "inst_type_id": "22", "operating_unit_website": "http://undp.org.pk/", "project_title": "promotion of energy efficient cooking & housing (peech)"}