{"project_descr": "Programme d\u2019Appui \u00e0 la R\u00e9int\u00e9gration, \u00e0 la Reconstruction et \u00e0 la R\u00e9habilitation Communautaire", "fiscal_year": [2017, 2016, 2012], "end": "2017-01-31", "region_id": "RBA", "operating_unit_email": "registry.ci@undp.org", "inst_id": "01625", "outputs": [{"output_id": "00070211", "crs": "16010", "donor_id": ["10714", "00012"], "disbursement": [], "focus_area": "1", "gender_descr": "Gender Equality", "output_title": "PBF 1000 Micro-Projet", "budget": [3533.0, 3301.0, 65012.0], "fiscal_year": [2016, 2017, 2012], "gender_id": "1", "expenditure": [3531.0, -3309.0, 0.0], "award_id": "00048089", "output_descr": "PBF 1000 Micro-Projet", "donor_short": ["UNDP", "UNDP(JPAA)"], "donor_name": ["Voluntary Contributions", "UNDP AS ADMINISTRATIVE AGENT FOR A JOINT PROGRAMME PASS THROUGH ARRANGEMENT"], "crs_descr": null, "focus_area_descr": "Inclusive & Sustainable Growth"}, {"output_id": "00058085", "crs": null, "donor_id": ["00204", "00138", "00289"], "disbursement": [], "focus_area": "-", "gender_descr": "Gender Equality", "output_title": "Appui \u00e0 la R\u00e9int\u00e9gration", "budget": [29800.0], "fiscal_year": [2012], "gender_id": "1", "expenditure": [6981.0], "award_id": "00048089", "output_descr": "Programme d\u2019Appui \u00e0 la R\u00e9int\u00e9gration, \u00e0 la Reconstruction et \u00e0 la R\u00e9habilitation Communautaire", "donor_short": ["IVC", "ROK", "OAU"], "donor_name": ["GOVERNMENT OF COTE D'IVOIRE", "GOVERNMENT OF REPUBLIC OF KOREA", "ORGANIZATION OF AFRICAN UNITY"], "crs_descr": null, "focus_area_descr": "-"}], "subnational": [{"outputID": "00070211", "output_locID": "00070211-1", "name": "Korhogo", "focus_area": "1", "lat": "9.458030", "type": "PPLA", "awardID": "00048089", "lon": "-5.629610", "precision": "1", "focus_area_descr": "Inclusive & Sustainable Growth"}, {"outputID": "00058085", "output_locID": "00058085-1", "name": "Zouan-Hounien", "focus_area": "-", "lat": "6.919370", "type": "PPL", "awardID": "00048089", "lon": "-8.206500", "precision": "1", "focus_area_descr": "-"}, {"outputID": "00058085", "output_locID": "00058085-2", "name": "Zagn\u00e9", "focus_area": "-", "lat": "6.210160", "type": "PPL", "awardID": "00048089", "lon": "-7.482840", "precision": "1", "focus_area_descr": "-"}, {"outputID": "00058085", "output_locID": "00058085-3", "name": "Yamoussoukro", "focus_area": "-", "lat": "6.820550", "type": "PPLC", "awardID": "00048089", "lon": "-5.276740", "precision": "1", "focus_area_descr": "-"}, {"outputID": "00058085", "output_locID": "00058085-4", "name": "Vavoua", "focus_area": "-", "lat": "7.381940", "type": "PPL", "awardID": "00048089", "lon": "-6.477780", "precision": "1", "focus_area_descr": "-"}, {"outputID": "00058085", "output_locID": "00058085-5", "name": "Tabou\u00e9", "focus_area": "-", "lat": "5.271120", "type": "PPL", "awardID": "00048089", "lon": "-5.080870", "precision": "1", "focus_area_descr": "-"}, {"outputID": "00058085", "output_locID": "00058085-6", "name": "San-P\u00e9dro", "focus_area": "-", "lat": "4.748510", "type": "PPLA", "awardID": "00048089", "lon": "-6.636300", "precision": "1", "focus_area_descr": "-"}, {"outputID": "00058085", "output_locID": "00058085-7", "name": "Odienn\u00e9", "focus_area": "-", "lat": "9.505110", "type": "PPLA", "awardID": "00048089", "lon": "-7.564330", "precision": "1", "focus_area_descr": "-"}, {"outputID": "00058085", "output_locID": "00058085-8", "name": "Man", "focus_area": "-", "lat": "7.412510", "type": "PPLA", "awardID": "00048089", "lon": "-7.553830", "precision": "1", "focus_area_descr": "-"}, {"outputID": "00058085", "output_locID": "00058085-9", "name": "Lakota", "focus_area": "-", "lat": "5.847520", "type": "PPL", "awardID": "00048089", "lon": "-5.682000", "precision": "1", "focus_area_descr": "-"}, {"outputID": "00058085", "output_locID": "00058085-10", "name": "Kaniko", "focus_area": "-", "lat": "9.688060", "type": "PPL", "awardID": "00048089", "lon": "-6.838330", "precision": "1", "focus_area_descr": "-"}, {"outputID": "00058085", "output_locID": "00058085-11", "name": "Republic of C\u00f4te d\u2019Ivoire", "focus_area": "-", "lat": "8.000000", "type": "PCLI", "awardID": "00048089", "lon": "-5.500000", "precision": "1", "focus_area_descr": "-"}, {"outputID": "00058085", "output_locID": "00058085-12", "name": "Issia", "focus_area": "-", "lat": "6.492240", "type": "PPL", "awardID": "00048089", "lon": "-6.585580", "precision": "1", "focus_area_descr": "-"}, {"outputID": "00058085", "output_locID": "00058085-13", "name": "Di\u00e9igalafla", "focus_area": "-", "lat": "7.553160", "type": "PPL", "awardID": "00048089", "lon": "-5.889510", "precision": "1", "focus_area_descr": "-"}, {"outputID": "00058085", "output_locID": "00058085-14", "name": "Brobo", "focus_area": "-", "lat": "7.640260", "type": "PPL", "awardID": "00048089", "lon": "-4.825410", "precision": "1", "focus_area_descr": "-"}, {"outputID": "00058085", "output_locID": "00058085-15", "name": "Gagnoa", "focus_area": "-", "lat": "6.131930", "type": "PPLA", "awardID": "00048089", "lon": "-5.950600", "precision": "1", "focus_area_descr": "-"}, {"outputID": "00058085", "output_locID": "00058085-16", "name": "Ferkess\u00e9dougou", "focus_area": "-", "lat": "9.592800", "type": "PPL", "awardID": "00048089", "lon": "-5.194490", "precision": "1", "focus_area_descr": "-"}, {"outputID": "00058085", "output_locID": "00058085-17", "name": "Duekou\u00e9", "focus_area": "-", "lat": "6.742020", "type": "PPL", "awardID": "00048089", "lon": "-7.349180", "precision": "1", "focus_area_descr": "-"}, {"outputID": "00058085", "output_locID": "00058085-18", "name": "Danan\u00e9", "focus_area": "-", "lat": "7.259570", "type": "PPL", "awardID": "00048089", "lon": "-8.154980", "precision": "1", "focus_area_descr": "-"}, {"outputID": "00058085", "output_locID": "00058085-19", "name": "Daloa", "focus_area": "-", "lat": "6.877360", "type": "PPLA", "awardID": "00048089", "lon": "-6.450220", "precision": "1", "focus_area_descr": "-"}, {"outputID": "00058085", "output_locID": "00058085-20", "name": "Bouak\u00e9", "focus_area": "-", "lat": "7.693850", "type": "PPLA", "awardID": "00048089", "lon": "-5.030310", "precision": "1", "focus_area_descr": "-"}, {"outputID": "00058085", "output_locID": "00058085-21", "name": "Bondoukou", "focus_area": "-", "lat": "8.040200", "type": "PPLA", "awardID": "00048089", "lon": "-2.800030", "precision": "1", "focus_area_descr": "-"}, {"outputID": "00058085", "output_locID": "00058085-22", "name": "Blolequin", "focus_area": "-", "lat": "6.569130", "type": "PPL", "awardID": "00048089", "lon": "-8.002530", "precision": "1", "focus_area_descr": "-"}, {"outputID": "00058085", "output_locID": "00058085-23", "name": "Bangolo", "focus_area": "-", "lat": "7.012320", "type": "PPL", "awardID": "00048089", "lon": "-7.486400", "precision": "1", "focus_area_descr": "-"}, {"outputID": "00058085", "output_locID": "00058085-24", "name": "Abidjan", "focus_area": "-", "lat": "5.309660", "type": "PPLA", "awardID": "00048089", "lon": "-4.012660", "precision": "1", "focus_area_descr": "-"}, {"outputID": "00058085", "output_locID": "00058085-25", "name": "D\u00e9partement de Toul\u00e9pleu", "focus_area": "-", "lat": "6.500000", "type": "ADM2", "awardID": "00048089", "lon": "-8.416670", "precision": "1", "focus_area_descr": "-"}, {"outputID": "00058085", "output_locID": "00058085-26", "name": "S\u00e9gu\u00e9la", "focus_area": "-", "lat": "7.961110", "type": "PPLA", "awardID": "00048089", "lon": "-6.673060", "precision": "1", "focus_area_descr": "-"}], "operating_unit": "C\u00f4te d\u2019Ivoire", "budget": 101646.0, "iati_op_id": "CI", "inst_descr": null, "start": "2007-09-18", "operating_unit_id": "CIV", "expenditure": 7203.0, "document_name": [["00048089_CIV1000058085_Prodoc_PARC", "Evaluation finale du Programme d'Appui \u00e0 la r\u00e9int\u00e9gration \u00e0 la reconstruction et \u00e0 la r\u00e9habilitation communautaire", "Evaluation projet PBF 1000 micro-projets pour la r\u00e9int\u00e9gration des ex-combattants et ex-miliciens en C\u00f4te d'Ivoire", "PARC RAPPORT FINAL"], ["https://info.undp.org/docs/pdc/Documents/CIV/00048089_CIV10-00058085_Prodoc_PARC.pdf", "https://erc.undp.org/evaluation/evaluations/detail/6468", "https://erc.undp.org/evaluation/evaluations/detail/6470", "https://info.undp.org/docs/pdc/Documents/CIV/PARC RAPPORT FINAL.pdf"], ["pdf", "", "", "pdf"], [0, 5, 5, 5]], "project_id": "00048089", "inst_type_id": "40", "operating_unit_website": null, "project_title": "appui \u00e0 la r\u00e9int\u00e9gration communautaire"}