{"project_descr": "Appui \u00e0 l'Elaboration de la Seconde Communication Natinale du Mali dans le cadre des Changements Climatiques (PIMS 3584 CC-EA _Mali SCN)", "fiscal_year": [2013, 2010, 2011, 2012], "end": "2011-12-31", "region_id": "RBA", "operating_unit_email": "registry.ml@undp.org", "inst_id": "99999", "outputs": [{"output_id": "00046812", "crs": "41010", "donor_id": ["10003"], "focus_area": "5", "gender_descr": "Gender Equality", "output_title": "PIMS 3584 CC-EA-SNC Mali", "budget": [0.0, 0.0, 3.0, 0.0], "fiscal_year": [2010, 2011, 2012, 2013], "gender_id": "1", "donor_name": ["Global Environment Fund Truste"], "award_id": "00041127", "output_descr": "Permettre au Mali de s'acquitter de ses obligations en tant que partie \u00e0 la CCNUCC et au protocole de Kyoto en liaison avec ses objectifs de DD", "donor_short": ["GEFTrustee"], "expenditure": [71991.0, 64.0, -13926.0, 0.0], "crs_descr": "Environmental policy and administrative management", "focus_area_descr": "Climate Change & Disaster Resilience"}], "subnational": [{"outputID": "00046812", "output_locID": "00046812-1", "name": "Gao", "focus_area": "5", "lat": "16.27167", "type": "PPLA", "awardID": "00041127", "lon": "-0.04472", "precision": "3", "focus_area_descr": "Climate Change & Disaster Resilience"}, {"outputID": "00046812", "output_locID": "00046812-2", "name": "Kidal", "focus_area": "5", "lat": "18.44111", "type": "PPLA", "awardID": "00041127", "lon": "1.40778", "precision": "3", "focus_area_descr": "Climate Change & Disaster Resilience"}, {"outputID": "00046812", "output_locID": "00046812-3", "name": "Koulikoro", "focus_area": "5", "lat": "12.86273", "type": "PPLA", "awardID": "00041127", "lon": "-7.55985", "precision": "3", "focus_area_descr": "Climate Change & Disaster Resilience"}, {"outputID": "00046812", "output_locID": "00046812-4", "name": "Mopti", "focus_area": "5", "lat": "14.4843", "type": "PPLA", "awardID": "00041127", "lon": "-4.18296", "precision": "3", "focus_area_descr": "Climate Change & Disaster Resilience"}, {"outputID": "00046812", "output_locID": "00046812-5", "name": "Regions de Kayes", "focus_area": "5", "lat": "14.44693", "type": "PPLA", "awardID": "00041127", "lon": "-11.44448", "precision": "3", "focus_area_descr": "Climate Change & Disaster Resilience"}, {"outputID": "00046812", "output_locID": "00046812-6", "name": "Segou", "focus_area": "5", "lat": "13.4317", "type": "PPLA", "awardID": "00041127", "lon": "-6.2157", "precision": "3", "focus_area_descr": "Climate Change & Disaster Resilience"}, {"outputID": "00046812", "output_locID": "00046812-7", "name": "Tombouctou", "focus_area": "5", "lat": "18.54778", "type": "ADM1", "awardID": "00041127", "lon": "-2.33417", "precision": "4", "focus_area_descr": "Climate Change & Disaster Resilience"}], "operating_unit": "Mali", "budget": 3.0, "iati_op_id": "ML", "inst_descr": "UNDP", "start": "2005-08-16", "operating_unit_id": "MLI", "expenditure": 58129.0, "document_name": [], "project_id": "00041127", "inst_type_id": "40", "operating_unit_website": "http://www.ml.undp.org/", "project_title": "pims 3584 cc-ea _mali scn"}