{"project_descr": "enhancing community security and social cohesion in selected communities in Liberia", "fiscal_year": [2017, 2016, 2012, 2013, 2014, 2015], "end": "2016-12-21", "region_id": "RBA", "operating_unit_email": "registry.lr@undp.org", "inst_id": "XM-DAC-41114", "outputs": [{"output_id": "00061002", "crs": "15210", "donor_id": ["00141", "00551", "00095", "10714", "00134", "00187", "00117", "00012", "00253"], "disbursement": [], "focus_area": "3", "gender_descr": "Gender Equality", "output_title": "Enhancing Community Security", "budget": [122.0, 0.0, 885664.0, 388878.0, 35900.0, 122.0], "fiscal_year": [2016, 2017, 2012, 2013, 2014, 2015], "gender_id": "1", "expenditure": [-4385.0, 15209.0, 1465764.0, 164739.0, 31711.0, 2562.0], "award_id": "00049777", "output_descr": "Enhancing Community Security and Social Cohesion will strengthen and sustain the effort of the Government of Liberia (GoL) and  UNDP   in community security and social cohesion at the grass roots levels.", "donor_short": ["UNDP", "DEN", "GER", "IRE", "JPN", "NOR", "USA", "DFID", "UNDP(JPAA)"], "donor_name": ["Voluntary Contributions", "GOVERNMENT OF DENMARK", "GOVERNMENT OF GERMANY", "GOVERNMENT OF IRELAND", "GOVERNMENT OF JAPAN", "GOVERNMENT OF NORWAY", "GOVERNMENT OF UNITED STATES OF AMERICA", "DEPARTMENT FOR INTERNATIONAL DEVELOPMENT", "UNDP AS ADMINISTRATIVE AGENT FOR A JOINT PROGRAMME PASS THROUGH ARRANGEMENT"], "crs_descr": null, "focus_area_descr": "Basic Services"}], "subnational": [{"outputID": "00061002", "output_locID": "00061002-1", "name": "Zwedru", "focus_area": "3", "lat": "6.066670", "type": "PPLA", "awardID": "00049777", "lon": "-8.128060", "precision": "1", "focus_area_descr": "Basic Services"}, {"outputID": "00061002", "output_locID": "00061002-2", "name": "Sinje", "focus_area": "3", "lat": "6.546670", "type": "PPL", "awardID": "00049777", "lon": "-10.947500", "precision": "1", "focus_area_descr": "Basic Services"}, {"outputID": "00061002", "output_locID": "00061002-3", "name": "Paynesville", "focus_area": "3", "lat": "6.275560", "type": "PPL", "awardID": "00049777", "lon": "-10.717780", "precision": "1", "focus_area_descr": "Basic Services"}, {"outputID": "00061002", "output_locID": "00061002-4", "name": "New Kru Town", "focus_area": "3", "lat": "6.366670", "type": "PPL", "awardID": "00049777", "lon": "-10.783330", "precision": "1", "focus_area_descr": "Basic Services"}, {"outputID": "00061002", "output_locID": "00061002-5", "name": "Grand Gedeh County", "focus_area": "3", "lat": "5.916670", "type": "ADM1", "awardID": "00049777", "lon": "-8.083330", "precision": "1", "focus_area_descr": "Basic Services"}, {"outputID": "00061002", "output_locID": "00061002-6", "name": "Grand Bassa County", "focus_area": "3", "lat": "6.250000", "type": "ADM1", "awardID": "00049777", "lon": "-9.750000", "precision": "1", "focus_area_descr": "Basic Services"}, {"outputID": "00061002", "output_locID": "00061002-7", "name": "Gbarnga", "focus_area": "3", "lat": "6.995560", "type": "PPLA", "awardID": "00049777", "lon": "-9.472220", "precision": "1", "focus_area_descr": "Basic Services"}, {"outputID": "00061002", "output_locID": "00061002-8", "name": "Blaytoe", "focus_area": "3", "lat": "5.959170", "type": "PPL", "awardID": "00049777", "lon": "-9.131670", "precision": "1", "focus_area_descr": "Basic Services"}], "operating_unit": "Liberia", "budget": 1310686.0, "iati_op_id": "LR", "inst_descr": "United Nations Development Programme", "start": "2008-03-26", "operating_unit_id": "LBR", "expenditure": 1675600.0, "document_name": [["00049777_Project Document 61002"], ["https://info.undp.org/docs/pdc/Documents/LBR/00049777_Project Document (61002).pdf"], ["pdf"], [0]], "project_id": "00049777", "inst_type_id": "40", "operating_unit_website": null, "project_title": "enhancing community security and social cohesion"}