{"project_descr": "Extending the Coastal Forest Protected Area Subsystem in Tanzania.", "fiscal_year": [2014, 2012, 2013], "end": "2014-12-31", "region_id": "RBA", "operating_unit_email": "registry.tz@undp.org", "inst_id": "03228", "outputs": [{"output_id": "00073328", "crs": "41010", "donor_id": ["00012", "10003"], "focus_area": "2", "gender_descr": "Gender Equality", "output_title": "Coastal Forest protected areas", "budget": [1118704.0, 1100500.0, 749394.0], "fiscal_year": [2012, 2013, 2014], "gender_id": "1", "donor_name": ["Voluntary Contributions", "Global Environment Fund Truste"], "award_id": "00058855", "output_descr": "Extending Coastal Forests Protected Areas Sub-system in Tanzania", "donor_short": ["UNDP", "GEFTrustee"], "expenditure": [1098066.0, 994096.0, 579029.0], "crs_descr": null, "focus_area_descr": "Democratic Governance"}], "subnational": [{"outputID": "00073328", "output_locID": "00073328-1", "name": "Arusha Region", "focus_area": "2", "lat": "-3.000000", "type": "ADM1", "awardID": "00058855", "lon": "36.000000", "precision": "1", "focus_area_descr": "Democratic Governance"}, {"outputID": "00073328", "output_locID": "00073328-2", "name": "Tanga Region", "focus_area": "2", "lat": "-5.000000", "type": "ADM1", "awardID": "00058855", "lon": "38.250000", "precision": "1", "focus_area_descr": "Democratic Governance"}, {"outputID": "00073328", "output_locID": "00073328-3", "name": "Rukwa Region", "focus_area": "2", "lat": "-7.900000", "type": "ADM1", "awardID": "00058855", "lon": "31.333330", "precision": "1", "focus_area_descr": "Democratic Governance"}, {"outputID": "00073328", "output_locID": "00073328-4", "name": "Mwanza Region", "focus_area": "2", "lat": "-2.566670", "type": "ADM1", "awardID": "00058855", "lon": "32.900000", "precision": "1", "focus_area_descr": "Democratic Governance"}, {"outputID": "00073328", "output_locID": "00073328-5", "name": "Shinyanga Region", "focus_area": "2", "lat": "-3.750000", "type": "ADM1", "awardID": "00058855", "lon": "33.000000", "precision": "1", "focus_area_descr": "Democratic Governance"}, {"outputID": "00073328", "output_locID": "00073328-6", "name": "Morogoro Region", "focus_area": "2", "lat": "-8.000000", "type": "ADM1", "awardID": "00058855", "lon": "37.000000", "precision": "1", "focus_area_descr": "Democratic Governance"}, {"outputID": "00073328", "output_locID": "00073328-7", "name": "Mara Region", "focus_area": "2", "lat": "-1.750000", "type": "ADM1", "awardID": "00058855", "lon": "34.000000", "precision": "1", "focus_area_descr": "Democratic Governance"}, {"outputID": "00073328", "output_locID": "00073328-8", "name": "Kilimanjaro Region", "focus_area": "2", "lat": "-3.750000", "type": "ADM1", "awardID": "00058855", "lon": "37.750000", "precision": "1", "focus_area_descr": "Democratic Governance"}, {"outputID": "00073328", "output_locID": "00073328-9", "name": "Kigoma Region", "focus_area": "2", "lat": "-4.750000", "type": "ADM1", "awardID": "00058855", "lon": "30.500000", "precision": "1", "focus_area_descr": "Democratic Governance"}, {"outputID": "00073328", "output_locID": "00073328-10", "name": "Ruvuma Region", "focus_area": "2", "lat": "-11.000000", "type": "ADM1", "awardID": "00058855", "lon": "36.000000", "precision": "1", "focus_area_descr": "Democratic Governance"}, {"outputID": "00073328", "output_locID": "00073328-11", "name": "Mtwara Region", "focus_area": "2", "lat": "-10.666670", "type": "ADM1", "awardID": "00058855", "lon": "39.000000", "precision": "1", "focus_area_descr": "Democratic Governance"}], "operating_unit": "United Republic of Tanzania", "budget": 2968598.0, "iati_op_id": "TZ", "inst_descr": "National Execution", "start": "2010-01-01", "operating_unit_id": "TZA", "expenditure": 2671191.0, "document_name": [["Extending the coastal forest protected areas subsytem in Tanzania", "Approved Annual Workplan for the Coastal Forests Project", "201406241552 PO 12396", "201406241556 PO 12435", "201406241557 PO 12445"], ["http://www.undp.org/content/dam/undp/documents/TZA/Extending the coastal forest protected areas subsytem in Tanzania.pdf", "http://www.undp.org/content/dam/undp/documents/TZA/Approved GEF July 2011 to June 2012 AWP Coastal Forests Project.doc", "http://www.undp.org/content/dam/undp/documents/TZA/201406241552 PO 12396.pdf", "http://www.undp.org/content/dam/undp/documents/TZA/201406241556 PO 12435.pdf", "http://www.undp.org/content/dam/undp/documents/TZA/201406241557 PO 12445.pdf"]], "project_id": "00058855", "inst_type_id": "10", "operating_unit_website": "http://www.tz.undp.org/", "project_title": "extending  the coastal forests protected areas subsystem"}