{"budget":[2486239.0],"document_name":[],"end":"2012-12-31","expenditure":[4219684.0],"fiscal_year":["2013","2012","2011","2010"],"iati_op_id":"BJ","inst_descr":"National Execution","inst_id":"00238","inst_type_id":"10","operating_unit":"Benin","operating_unit_email":"registry.bj@undp.org","operating_unit_id":"BEN","operating_unit_website":"http://www.bj.undp.org/","outputs":[{"award_id":"00051397","budget":[53000.0,289975.0,2143264.0,null],"crs":"15110","crs_descr":"Economic and development policy/planning","donor_id":["00012","00062"],"donor_name":["Voluntary Contributions","GOVERNMENT OF BENIN"],"donor_short":["UNDP","BEN"],"expenditure":[52251.0,280300.0,2128720.0,1758413.0],"fiscal_year":["2013","2012","2011","2010"],"focus_area":"1","focus_area_descr":"Poverty reduction & MDG achievement","gender_descr":"Gender Equality","gender_id":"1","output_descr":"Le projet s'inscrit dans la phase d'urgence du programme d'approvisionnement en eau potable en milieu rural dans les d\u00e9partements de l'Atacora et de la Donga.","output_id":"00063975","output_title":"Hydraulique Villageoise"}],"project_descr":"Projet Hydraulique Villageoise","project_id":"00051397","project_title":"Hydraulique Villageoise","region_id":"RBA","start":"2009-01-01","subnational":[{"awardID":"00051397","focus_area":"1","focus_area_descr":"Poverty reduction & MDG achievement","lat":"9.00814","lon":"1.6654","name":"Bassila","outputID":"00063975","output_locID":"00063975-1","precision":"3","type":"PPL"},{"awardID":"00051397","focus_area":"1","focus_area_descr":"Poverty reduction & MDG achievement","lat":"10.17711","lon":"1.10621","name":"Boukoumbe","outputID":"00063975","output_locID":"00063975-2","precision":"3","type":"PPL"},{"awardID":"00051397","focus_area":"1","focus_area_descr":"Poverty reduction & MDG achievement","lat":"9.84108","lon":"1.54231","name":"Cobly","outputID":"00063975","output_locID":"00063975-3","precision":"3","type":"PPL"},{"awardID":"00051397","focus_area":"1","focus_area_descr":"Poverty reduction & MDG achievement","lat":"9.84108","lon":"1.54231","name":"Copargo","outputID":"00063975","output_locID":"00063975-4","precision":"3","type":"PPL"},{"awardID":"00051397","focus_area":"1","focus_area_descr":"Poverty reduction & MDG achievement","lat":"9.70853","lon":"1.66598","name":"Djougou","outputID":"00063975","output_locID":"00063975-5","precision":"3","type":"PPLA"},{"awardID":"00051397","focus_area":"1","focus_area_descr":"Poverty reduction & MDG achievement","lat":"10.91433","lon":"1.99153","name":"Kerou","outputID":"00063975","output_locID":"00063975-6","precision":"3","type":"ADM2"},{"awardID":"00051397","focus_area":"1","focus_area_descr":"Poverty reduction & MDG achievement","lat":"10.33639","lon":"1.69361","name":"Kouande","outputID":"00063975","output_locID":"00063975-7","precision":"3","type":"PPL"},{"awardID":"00051397","focus_area":"1","focus_area_descr":"Poverty reduction & MDG achievement","lat":"10.7986","lon":"1.02756","name":"Materi","outputID":"00063975","output_locID":"00063975-8","precision":"3","type":"ADM2"},{"awardID":"00051397","focus_area":"1","focus_area_descr":"Poverty reduction & MDG achievement","lat":"10.30416","lon":"1.37962","name":"Natitingou","outputID":"00063975","output_locID":"00063975-9","precision":"3","type":"PPLA"},{"awardID":"00051397","focus_area":"1","focus_area_descr":"Poverty reduction & MDG achievement","lat":"9.59959","lon":"1.43707","name":"Ouake","outputID":"00063975","output_locID":"00063975-10","precision":"3","type":"ADM2"},{"awardID":"00051397","focus_area":"1","focus_area_descr":"Poverty reduction & MDG achievement","lat":"10.22746","lon":"2.00192","name":"Pehunco","outputID":"00063975","output_locID":"00063975-11","precision":"3","type":"PPL"},{"awardID":"00051397","focus_area":"1","focus_area_descr":"Poverty reduction & MDG achievement","lat":"10.51424","lon":"1.45527","name":"Toukountouna","outputID":"00063975","output_locID":"00063975-12","precision":"3","type":"ADM2"}]}