{"project_descr": "Recovery Programming Support for Northern Ghana", "fiscal_year": [2013, 2010, 2011, 2012], "end": "2012-12-31", "region_id": "RBA", "operating_unit_email": "registry.gh@undp.org", "inst_id": "99999", "outputs": [{"output_id": "00071174", "crs": "41010", "donor_id": ["00187", "00012"], "focus_area": "5", "gender_descr": "Gender Equality", "output_title": "Recovery Programming Support", "budget": [0.0, 467075.0, 302061.0, 0.0], "fiscal_year": [2010, 2011, 2012, 2013], "gender_id": "1", "donor_name": ["Voluntary Contributions", "GOVERNMENT OF NORWAY"], "award_id": "00057556", "output_descr": "1. Existing coordination mechanisms enforced at the regional coordination offices of the three northern regions(i.e. northern, upper east and upper west).\n2. Series of livelihoods activities implemented in the most severely flood affected communities.\n3. Enhanced capacity development support for NADMO.", "donor_short": ["UNDP", "NOR"], "expenditure": [434896.0, 415396.0, 286383.0, 118.0], "crs_descr": "Environmental policy and administrative management", "focus_area_descr": "Climate Change & Disaster Resilience"}], "subnational": [{"outputID": "00071174", "output_locID": "00071174-1", "name": "Bunkpurugu", "focus_area": "5", "lat": "10.4846", "type": "ADM2", "awardID": "00057556", "lon": "-0.11207", "precision": "3", "focus_area_descr": "Climate Change & Disaster Resilience"}, {"outputID": "00071174", "output_locID": "00071174-2", "name": "Garu Tempani", "focus_area": "5", "lat": "10.4846", "type": "ADM2", "awardID": "00057556", "lon": "-0.11207", "precision": "3", "focus_area_descr": "Climate Change & Disaster Resilience"}, {"outputID": "00071174", "output_locID": "00071174-3", "name": "Karaga", "focus_area": "5", "lat": "9.90568", "type": "ADM2", "awardID": "00057556", "lon": "-0.53521", "precision": "3", "focus_area_descr": "Climate Change & Disaster Resilience"}, {"outputID": "00071174", "output_locID": "00071174-4", "name": "Sawla Tuna Kalba", "focus_area": "5", "lat": "9.27324", "type": "ADM2", "awardID": "00057556", "lon": "-2.41346", "precision": "3", "focus_area_descr": "Climate Change & Disaster Resilience"}, {"outputID": "00071174", "output_locID": "00071174-5", "name": "Sissala West", "focus_area": "5", "lat": "10.70514", "type": "ADM2", "awardID": "00057556", "lon": "-2.108", "precision": "3", "focus_area_descr": "Climate Change & Disaster Resilience"}, {"outputID": "00071174", "output_locID": "00071174-6", "name": "Talensi Nabdam", "focus_area": "5", "lat": "10.71667", "type": "ADM2", "awardID": "00057556", "lon": "-0.8", "precision": "3", "focus_area_descr": "Climate Change & Disaster Resilience"}, {"outputID": "00071174", "output_locID": "00071174-7", "name": "Wa West", "focus_area": "5", "lat": "10.06069", "type": "PPLA", "awardID": "00057556", "lon": "-2.50192", "precision": "3", "focus_area_descr": "Climate Change & Disaster Resilience"}, {"outputID": "00071174", "output_locID": "00071174-8", "name": "Yendi Municipality", "focus_area": "5", "lat": "9.44272", "type": "PPL", "awardID": "00057556", "lon": "-0.00991", "precision": "3", "focus_area_descr": "Climate Change & Disaster Resilience"}], "operating_unit": "Ghana", "budget": 769136.0, "iati_op_id": "GH", "inst_descr": "UNDP", "start": "2009-01-01", "operating_unit_id": "GHA", "expenditure": 1136793.0, "document_name": [["Ghana - Recovery Project in Northern Ghana_prodoc_Final_April21.2009.doc", "RECOVERY PRODOC 1.pdf"], ["http://www.undp.org/content/dam/undp/documents/projects/GHA/00057556/Ghana - Recovery Project in Northern Ghana_prodoc_Final_April21.2009.doc", "http://www.undp.org/content/dam/undp/documents/projects/GHA/00057556/RECOVERY PRODOC 1.pdf"], ["format", "format"]], "project_id": "00057556", "inst_type_id": "40", "operating_unit_website": "http://www.undp-gha.org/site/", "project_title": "recovery programming support for northern ghana"}