{"project_descr": "Supporting Integrated and Comprehensive Approaches to Climate Change Adaptation in Africa - Mainstreaming CCA in the National Sectoral Policies of Tanzania.", "fiscal_year": [2014, 2012, 2013], "end": "2014-12-31", "region_id": "RBA", "operating_unit_email": "registry.tz@undp.org", "inst_id": "03228", "outputs": [{"output_id": "00073448", "crs": "51010", "donor_id": ["00141", "00012"], "focus_area": "1", "gender_descr": "Gender Equality", "output_title": "Africa Adaptation Programme", "budget": [2162266.0, 75002.0, 164991.0], "fiscal_year": [2012, 2013, 2014], "gender_id": "1", "donor_name": ["GOVERNMENT OF JAPAN", "Voluntary Contributions"], "award_id": "00058939", "output_descr": "Supporting Integrated and Comprehensive Approaches to Climate Change Adaptation in Africa - Mainstreaming CCA in the National Sectoral Policies of Tanzania", "donor_short": ["JPN", "UNDP"], "expenditure": [2129256.0, 65474.0, 110012.0], "crs_descr": null, "focus_area_descr": "Inclusive & Sustainable Growth"}], "subnational": [{"outputID": "00073448", "output_locID": "00073448-1", "name": "Arusha Region", "focus_area": "1", "lat": "-3.000000", "type": "ADM1", "awardID": "00058939", "lon": "36.000000", "precision": "1", "focus_area_descr": "Inclusive & Sustainable Growth"}, {"outputID": "00073448", "output_locID": "00073448-2", "name": "Kigoma Region", "focus_area": "1", "lat": "-4.750000", "type": "ADM1", "awardID": "00058939", "lon": "30.500000", "precision": "1", "focus_area_descr": "Inclusive & Sustainable Growth"}, {"outputID": "00073448", "output_locID": "00073448-3", "name": "Kilimanjaro Region", "focus_area": "1", "lat": "-3.750000", "type": "ADM1", "awardID": "00058939", "lon": "37.750000", "precision": "1", "focus_area_descr": "Inclusive & Sustainable Growth"}, {"outputID": "00073448", "output_locID": "00073448-4", "name": "Mara Region", "focus_area": "1", "lat": "-1.750000", "type": "ADM1", "awardID": "00058939", "lon": "34.000000", "precision": "1", "focus_area_descr": "Inclusive & Sustainable Growth"}, {"outputID": "00073448", "output_locID": "00073448-5", "name": "Morogoro Region", "focus_area": "1", "lat": "-8.000000", "type": "ADM1", "awardID": "00058939", "lon": "37.000000", "precision": "1", "focus_area_descr": "Inclusive & Sustainable Growth"}, {"outputID": "00073448", "output_locID": "00073448-6", "name": "Mtwara Region", "focus_area": "1", "lat": "-10.666670", "type": "ADM1", "awardID": "00058939", "lon": "39.000000", "precision": "1", "focus_area_descr": "Inclusive & Sustainable Growth"}, {"outputID": "00073448", "output_locID": "00073448-7", "name": "Mwanza Region", "focus_area": "1", "lat": "-2.566670", "type": "ADM1", "awardID": "00058939", "lon": "32.900000", "precision": "1", "focus_area_descr": "Inclusive & Sustainable Growth"}, {"outputID": "00073448", "output_locID": "00073448-8", "name": "Rukwa Region", "focus_area": "1", "lat": "-7.900000", "type": "ADM1", "awardID": "00058939", "lon": "31.333330", "precision": "1", "focus_area_descr": "Inclusive & Sustainable Growth"}, {"outputID": "00073448", "output_locID": "00073448-9", "name": "Ruvuma Region", "focus_area": "1", "lat": "-11.000000", "type": "ADM1", "awardID": "00058939", "lon": "36.000000", "precision": "1", "focus_area_descr": "Inclusive & Sustainable Growth"}, {"outputID": "00073448", "output_locID": "00073448-10", "name": "Shinyanga Region", "focus_area": "1", "lat": "-3.750000", "type": "ADM1", "awardID": "00058939", "lon": "33.000000", "precision": "1", "focus_area_descr": "Inclusive & Sustainable Growth"}, {"outputID": "00073448", "output_locID": "00073448-11", "name": "Tanga Region", "focus_area": "1", "lat": "-5.000000", "type": "ADM1", "awardID": "00058939", "lon": "38.250000", "precision": "1", "focus_area_descr": "Inclusive & Sustainable Growth"}], "operating_unit": "United Republic of Tanzania", "budget": 2402259.0, "iati_op_id": "TZ", "inst_descr": "National Execution", "start": "2010-01-01", "operating_unit_id": "TZA", "expenditure": 2304742.0, "document_name": [["African Adaptation Programme", "Africa Adaptation Programme", "Africa Adaptation Programme", "Africa Adaptation Programme"], ["http://www.undp.org/content/dam/undp/documents/projects/TZA/AAP_PRODOC_PG_1-12.pdf", "http://www.undp.org/content/dam/undp/documents/projects/TZA/AAP_PRODOC_PG_22-43.pdf", "http://www.undp.org/content/dam/undp/documents/projects/TZA/AAP_PRODOC_PG_44-57.pdf", "http://www.undp.org/content/dam/undp/documents/projects/TZA/AAP_PRODOC_PG_59-69.pdf"], ["pdf", "pdf", "pdf", "pdf"]], "project_id": "00058939", "inst_type_id": "10", "operating_unit_website": "http://www.tz.undp.org/", "project_title": "mainstreaming climate change adaptation in policies"}