{"budget":[4004031.0],"document_name":[["Project Document JP GEWEE signed copy - 12 Feb 09MOGD_.pdf"],["http://www.undp.org/content/dam/undp/documents/projects/LBR/00057655/Project Document JP GEWEE signed copy - 12 Feb 09MOGD_.pdf"]],"end":"2012-12-31","expenditure":[4290912.0],"fiscal_year":["2013","2012","2011","2010"],"iati_op_id":"LR","inst_descr":"UNDP","inst_id":"99999","inst_type_id":"40","operating_unit":"Liberia","operating_unit_email":"registry.lr@undp.org_","operating_unit_id":"LBR","operating_unit_website":"http://www.lr.undp.org/","outputs":[{"award_id":"00057655","budget":[25914.0,2208390.0,1769727.0,null],"crs":"25010","crs_descr":"Business support services and institutions","donor_id":["00012"],"donor_name":["Voluntary Contributions"],"donor_short":["UNDP"],"expenditure":[1933.0,2288839.0,1086532.0,913608.0],"fiscal_year":["2013","2012","2011","2010"],"focus_area":"1","focus_area_descr":"Poverty reduction & MDG achievement","gender_descr":"Gender Equality","gender_id":"1","output_descr":"Capacity developed for the implementation of policies and programmes on gender equality and women\"s empowerment","output_id":"00071324","output_title":"Gender Equality and women's Ec"}],"project_descr":" ","project_id":"00057655","project_title":"Gender Equality and women's Economic Empowerment","region_id":"RBA","start":"2009-06-15","subnational":[{"awardID":"00057655","focus_area":"1","focus_area_descr":"Poverty reduction & MDG achievement","lat":"6.30054","lon":"-10.7969","name":"Montserrado","outputID":"00071324","output_locID":"00071324-1","precision":"3","type":"PPLC"},{"awardID":"00057655","focus_area":"1","focus_area_descr":"Poverty reduction & MDG achievement","lat":"6.99556","lon":"-9.47222","name":"Bong","outputID":"00071324","output_locID":"00071324-2","precision":"4","type":"ADM1"},{"awardID":"00057655","focus_area":"1","focus_area_descr":"Poverty reduction & MDG achievement","lat":"5.88083","lon":"-10.04667","name":"Grand Bassa","outputID":"00071324","output_locID":"00071324-3","precision":"4","type":"ADM1"},{"awardID":"00057655","focus_area":"1","focus_area_descr":"Poverty reduction & MDG achievement","lat":"7.16667","lon":"-11","name":"Grand Cape Mount","outputID":"00071324","output_locID":"00071324-4","precision":"4","type":"ADM1"},{"awardID":"00057655","focus_area":"1","focus_area_descr":"Poverty reduction & MDG achievement","lat":"7.16667","lon":"-11","name":"Grand Cape Mount","outputID":"00071324","output_locID":"00071324-5","precision":"4","type":"ADM1"},{"awardID":"00057655","focus_area":"1","focus_area_descr":"Poverty reduction & MDG achievement","lat":"8.42194","lon":"-9.74778","name":"Lofa","outputID":"00071324","output_locID":"00071324-6","precision":"4","type":"ADM1"},{"awardID":"00057655","focus_area":"1","focus_area_descr":"Poverty reduction & MDG achievement","lat":"6.53","lon":"-10.35167","name":"Margibi","outputID":"00071324","output_locID":"00071324-7","precision":"4","type":"ADM1"},{"awardID":"00057655","focus_area":"1","focus_area_descr":"Poverty reduction & MDG achievement","lat":"4.375","lon":"-7.71694","name":"Maryland","outputID":"00071324","output_locID":"00071324-8","precision":"4","type":"ADM1"},{"awardID":"00057655","focus_area":"1","focus_area_descr":"Poverty reduction & MDG achievement","lat":"5.01111","lon":"-9.03889","name":"Sinoe","outputID":"00071324","output_locID":"00071324-9","precision":"4","type":"ADM1"},{"awardID":"00057655","focus_area":"1","focus_area_descr":"Poverty reduction & MDG achievement","lat":"7.57944","lon":"-8.53778","name":"Nimba","outputID":"00071324","output_locID":"00071324-10","precision":"3","type":"PPL"}]}