{"project_descr": "Strengthening national capacity of Turkmenistan to protect and promote human rights.", "fiscal_year": [2014, 2012, 2013], "end": "2013-12-31", "region_id": "RBEC", "operating_unit_email": "registry.tm@undp.org", "inst_id": "99999", "outputs": [{"output_id": "00062152", "crs": "15160", "donor_id": ["00012", "00031", "00280"], "focus_area": "2", "gender_descr": "Gender Equality", "output_title": "National capacities on HR", "budget": [794339.0, 485618.0, 25539.0], "fiscal_year": [2012, 2013, 2014], "gender_id": "1", "donor_name": ["EUROPEAN ECONOMIC COMMUNITY", "Voluntary Contributions", "UNITED NATIONS POPULATION FUND"], "award_id": "00050338", "output_descr": "The overall objective of the project is to engage the Government of Turkmenistan on its duty and capacity to comply with its international human rights standards and to improve the knowledge and capacity of rights holders to claim their rights.", "donor_short": ["EU", "UNDP", "UNFPA"], "expenditure": [721211.0, 455491.0, 0.0], "crs_descr": null, "focus_area_descr": "Democratic Governance"}], "subnational": [{"outputID": "00062152", "output_locID": "00062152-1", "name": "Ahal", "focus_area": "2", "lat": "38.250000", "type": "ADM1", "awardID": "00050338", "lon": "59.750000", "precision": "1", "focus_area_descr": "Democratic Governance"}, {"outputID": "00062152", "output_locID": "00062152-2", "name": "Ashgabat", "focus_area": "2", "lat": "37.950000", "type": "PPLC", "awardID": "00050338", "lon": "58.383330", "precision": "1", "focus_area_descr": "Democratic Governance"}, {"outputID": "00062152", "output_locID": "00062152-3", "name": "Balkan", "focus_area": "2", "lat": "40.000000", "type": "ADM1", "awardID": "00050338", "lon": "54.500000", "precision": "1", "focus_area_descr": "Democratic Governance"}, {"outputID": "00062152", "output_locID": "00062152-4", "name": "Dasoguz", "focus_area": "2", "lat": "41.836250", "type": "PPLA", "awardID": "00050338", "lon": "59.966620", "precision": "1", "focus_area_descr": "Democratic Governance"}, {"outputID": "00062152", "output_locID": "00062152-5", "name": "Dasoguz", "focus_area": "2", "lat": "41.836250", "type": "PPLA", "awardID": "00050338", "lon": "59.966620", "precision": "1", "focus_area_descr": "Democratic Governance"}, {"outputID": "00062152", "output_locID": "00062152-6", "name": "Lebap", "focus_area": "2", "lat": "39.000000", "type": "ADM1", "awardID": "00050338", "lon": "63.000000", "precision": "1", "focus_area_descr": "Democratic Governance"}, {"outputID": "00062152", "output_locID": "00062152-7", "name": "Mary", "focus_area": "2", "lat": "37.000000", "type": "ADM1", "awardID": "00050338", "lon": "62.500000", "precision": "1", "focus_area_descr": "Democratic Governance"}], "operating_unit": "Turkmenistan", "budget": 1305496.0, "iati_op_id": "TM", "inst_descr": "UNDP", "start": "2009-09-01", "operating_unit_id": "TKM", "expenditure": 1176702.0, "document_name": [["Project Document-Annex", "00050338_Human Rights_ProDoc"], ["http://www.undp.org/content/dam/undp/documents/projects/TKM/00050338_Human Rights_Annex 1 to ProDoc.pdf", "http://www.undp.org/content/dam/undp/documents/projects/TKM/00050338_Human Rights_ProDoc.pdf"], ["pdf", "pdf"]], "project_id": "00050338", "inst_type_id": "40", "operating_unit_website": "http://www.tm.undp.org/", "project_title": "promotion and protection of human rights"}