{"budget":[3658717.0],"document_name":[["AWP-pta-pana-2013.pdf"],["http://www.undp.org/content/dam/undp/documents/projects/BEN/AWP-pta-pana-2013.pdf"]],"end":"2015-12-31","expenditure":[2791501.0],"fiscal_year":["2014","2013","2012","2011","2010"],"iati_op_id":"BJ","inst_descr":"National Execution","inst_id":"00238","inst_type_id":"10","operating_unit":"Benin","operating_unit_email":"registry.bj@undp.org","operating_unit_id":"BEN","operating_unit_website":"http://www.bj.undp.org/","outputs":[{"award_id":"00059395","budget":[825270.0,1731586.0,710235.0,391626.0,null],"crs":"99810","crs_descr":"Sectors Not Specified","donor_id":["00012","00062","10003"],"donor_name":["Voluntary Contributions","GOVERNMENT OF BENIN","Global Environment Fund Truste"],"donor_short":["UNDP","BEN","GEFTrustee"],"expenditure":[245820.0,1468372.0,700581.0,369121.0,7607.0],"fiscal_year":["2014","2013","2012","2011","2010"],"focus_area":"-","focus_area_descr":"-","gender_descr":"Gender Equality","gender_id":"1","output_descr":"1- les capasit\u00e9s de planification et de r\u00e9ponse aux changements climatiques dans le secteur agricole sont am\u00e9lior\u00e9es\r\n2- les impacts des risques sur la productivit\u00e9 agricole au niveau local sont r\u00e9duits;\r\n3- les le\u00e7ons apprises et les bonnes pratiques issues des activit\u00e9s pilotes, les initiatives de d\u00e9veloppement de capacit\u00e9 et les changments de poltiques sont diffus\u00e9es","output_id":"00074252","output_title":"PIMS 4047 - CLIMATE CHANGE - L"}],"project_descr":"PIMS 4047 -  CLIMATE CHANGE - LDCF  NAPA","project_id":"00059395","project_title":"PIMS 4047 -  CLIMATE CHANGE - LDCF  NAPA","region_id":"RBA","start":"2010-01-01","subnational":[{"awardID":"00059395","focus_area":"-","focus_area_descr":"-","lat":"6.71182","lon":"2.49399","name":"Adjohoun","outputID":"00074252","output_locID":"00074252-1","precision":"3","type":"ADM2"},{"awardID":"00059395","focus_area":"-","focus_area_descr":"-","lat":"6.93333","lon":"1.68333","name":"Aplahoue","outputID":"00074252","output_locID":"00074252-2","precision":"3","type":"PPL"},{"awardID":"00059395","focus_area":"-","focus_area_descr":"-","lat":"6.657","lon":"1.945","name":"Bopa","outputID":"00074252","output_locID":"00074252-3","precision":"3","type":"ADM2"},{"awardID":"00059395","focus_area":"-","focus_area_descr":"-","lat":"6.36536","lon":"2.41833","name":"Cotonou","outputID":"00074252","output_locID":"00074252-4","precision":"3","type":"PPLA"},{"awardID":"00059395","focus_area":"-","focus_area_descr":"-","lat":"11.86819","lon":"3.38327","name":"Malanville","outputID":"00074252","output_locID":"00074252-5","precision":"3","type":"PPL"},{"awardID":"00059395","focus_area":"-","focus_area_descr":"-","lat":"10.7986","lon":"1.02756","name":"Materi","outputID":"00074252","output_locID":"00074252-6","precision":"3","type":"ADM2"},{"awardID":"00059395","focus_area":"-","focus_area_descr":"-","lat":"9.59959","lon":"1.43707","name":"Ouake","outputID":"00074252","output_locID":"00074252-7","precision":"3","type":"ADM2"},{"awardID":"00059395","focus_area":"-","focus_area_descr":"-","lat":"7.068","lon":"2.468","name":"Ouinhi","outputID":"00074252","output_locID":"00074252-8","precision":"3","type":"ADM2"},{"awardID":"00059395","focus_area":"-","focus_area_descr":"-","lat":"7.92807","lon":"1.97558","name":"Savalou","outputID":"00074252","output_locID":"00074252-9","precision":"3","type":"PPLA"},{"awardID":"00059395","focus_area":"-","focus_area_descr":"-","lat":"6.50159","lon":"2.42707","name":"So-Ava","outputID":"00074252","output_locID":"00074252-10","precision":"3","type":"ADM2"}]}