{"budget":[509434.0],"document_name":[["10-04-19_Rural_project_document.pdf"],["http://www.undp.org/content/dam/undp/documents/projects/SRB/00059772/10-04-19_Rural_project_document.pdf"]],"end":"2013-12-31","expenditure":[455529.0],"fiscal_year":["2013","2012","2011","2010"],"iati_op_id":"SRB","inst_descr":"Govt. of Rep. Of Serbia","inst_id":"03803","inst_type_id":"10","operating_unit":"Serbia","operating_unit_email":"registry.rs@undp.org","operating_unit_id":"SRB","operating_unit_website":"http://www.undp.org.rs/","outputs":[{"award_id":"00059772","budget":[94694.0,218023.0,196717.0,null],"crs":"15110","crs_descr":"Economic and development policy/planning","donor_id":["00205"],"donor_name":["GOVERNMENT OF ROMANIA"],"donor_short":["ROM"],"expenditure":[73392.0,165062.0,157046.0,60029.0],"fiscal_year":["2013","2012","2011","2010"],"focus_area":"1","focus_area_descr":"Poverty reduction & MDG achievement","gender_descr":"Gender Equality","gender_id":"1","output_descr":"Through a combination of different capacity development methods, such as trainings and pilot projects, this project will help prepare Serbia for implementation of upcoming programmes such as the EU's Instrument for Pre-Assistance for Rural Development (IPARD). Project activities will target the municipalities of Alibunar (including Seleus), Vrsac (including Markovac), Cuprija (including Isakovo) and Bor (including Slatina).","output_id":"00074920","output_title":"Rural Areas"}],"project_descr":"Partnership for Revitalization of Rural Areas\r\nThe purpose of this project is to share the experience of new EU member states with Serbian municipalities regarding preparations for development and implementation of rural development policies.","project_id":"00059772","project_title":"Revitalization of Rural Areas","region_id":"RBEC","start":"2010-04-20","subnational":[{"awardID":"00059772","focus_area":"1","focus_area_descr":"Poverty reduction & MDG achievement","lat":"45.08083","lon":"20.96583","name":"Alibunar, Serbia","outputID":"00074920","output_locID":"00074920-1","precision":"3","type":"PPLA2"},{"awardID":"00059772","focus_area":"1","focus_area_descr":"Poverty reduction & MDG achievement","lat":"45.08083","lon":"20.96583","name":"Alibunar, Serbia","outputID":"00074920","output_locID":"00074920-2","precision":"3","type":"PPLA2"},{"awardID":"00059772","focus_area":"1","focus_area_descr":"Poverty reduction & MDG achievement","lat":"44.07488","lon":"22.09591","name":"Bor, Serbia","outputID":"00074920","output_locID":"00074920-3","precision":"3","type":"PPLA2"},{"awardID":"00059772","focus_area":"1","focus_area_descr":"Poverty reduction & MDG achievement","lat":"43.74977","lon":"19.71273","name":"Cajetina, Serbia","outputID":"00074920","output_locID":"00074920-4","precision":"3","type":"PPLA2"},{"awardID":"00059772","focus_area":"1","focus_area_descr":"Poverty reduction & MDG achievement","lat":"44.65296","lon":"21.63199","name":"Golubac, Serbia","outputID":"00074920","output_locID":"00074920-5","precision":"3","type":"PPLA2"},{"awardID":"00059772","focus_area":"1","focus_area_descr":"Poverty reduction & MDG achievement","lat":"44.47293","lon":"21.66452","name":"Kucevo, Serbia","outputID":"00074920","output_locID":"00074920-6","precision":"3","type":"ADM2"},{"awardID":"00059772","focus_area":"1","focus_area_descr":"Poverty reduction & MDG achievement","lat":"45.11667","lon":"21.30361","name":"Vrsac, Serbia","outputID":"00074920","output_locID":"00074920-7","precision":"3","type":"PPLA2"},{"awardID":"00059772","focus_area":"1","focus_area_descr":"Poverty reduction & MDG achievement","lat":"44.19654","lon":"21.78692","name":"Zagubica, Serbia","outputID":"00074920","output_locID":"00074920-8","precision":"3","type":"ADM2"}]}