{"project_descr": "Strengthening Protected Area Financing and Management Systems", "fiscal_year": [2014, 2010, 2011, 2012, 2013], "end": "2016-12-31", "region_id": "RBAS", "operating_unit_email": "registry.eg@undp.org", "inst_id": "01028", "outputs": [{"output_id": "00071131", "crs": "41010", "donor_id": ["11285", "00012", "10003"], "focus_area": "4", "gender_descr": "Gender Equality", "output_title": "Protected Areas Fin&Mgmt Syst", "budget": [0.0, 100100.0, 403033.0, 320910.0, 499751.0], "fiscal_year": [2010, 2011, 2012, 2013, 2014], "gender_id": "1", "donor_name": ["Voluntary Contributions", "Global Environment Fund Truste", "Egypt - Ministry of State for Environmental Affairs"], "award_id": "00057529", "output_descr": "Legal,  Policy, Institutional and Regulatory Framework in place; Financial Resources Adequate; Business Plan&Cost Effective System in Place.", "donor_short": ["UNDP", "GEFTrustee", "EGY-MinEnv"], "expenditure": [23.0, 59451.0, 322403.0, 287055.0, 225658.0], "crs_descr": "Environmental policy and administrative management", "focus_area_descr": "Environment & sustainable development"}], "subnational": [{"outputID": "00071131", "output_locID": "00071131-1", "name": "Arabian Desert", "focus_area": "4", "lat": "28", "type": "RES", "awardID": "00057529", "lon": "32", "precision": "4", "focus_area_descr": "Environment & sustainable development"}, {"outputID": "00071131", "output_locID": "00071131-2", "name": "Farafra", "focus_area": "4", "lat": "27.0568", "type": "PPL", "awardID": "00057529", "lon": "27.96979", "precision": "3", "focus_area_descr": "Environment & sustainable development"}, {"outputID": "00071131", "output_locID": "00071131-3", "name": "Ghazal", "focus_area": "4", "lat": "30.72304", "type": "PPL", "awardID": "00057529", "lon": "31.04846", "precision": "3", "focus_area_descr": "Environment & sustainable development"}, {"outputID": "00071131", "output_locID": "00071131-4", "name": "Hurghada", "focus_area": "4", "lat": "27.25738", "type": "PPLA", "awardID": "00057529", "lon": "33.81291", "precision": "3", "focus_area_descr": "Environment & sustainable development"}, {"outputID": "00071131", "output_locID": "00071131-5", "name": "Maadi Cornish", "focus_area": "4", "lat": "29.9782", "type": "PPL", "awardID": "00057529", "lon": "31.2332", "precision": "3", "focus_area_descr": "Environment & sustainable development"}, {"outputID": "00071131", "output_locID": "00071131-6", "name": "Nabq", "focus_area": "4", "lat": "28.06958", "type": "PPL", "awardID": "00057529", "lon": "34.42654", "precision": "3", "focus_area_descr": "Environment & sustainable development"}, {"outputID": "00071131", "output_locID": "00071131-7", "name": "Ras Mohammad", "focus_area": "4", "lat": "27.73251", "type": "PPL", "awardID": "00057529", "lon": "34.25904", "precision": "3", "focus_area_descr": "Environment & sustainable development"}, {"outputID": "00071131", "output_locID": "00071131-8", "name": "Sannur", "focus_area": "4", "lat": "28.98224", "type": "PPL", "awardID": "00057529", "lon": "31.04981", "precision": "3", "focus_area_descr": "Environment & sustainable development"}, {"outputID": "00071131", "output_locID": "00071131-9", "name": "Sidi Muhammad al Ahrash", "focus_area": "4", "lat": "27.8", "type": "PPL", "awardID": "00057529", "lon": "30.83333", "precision": "3", "focus_area_descr": "Environment & sustainable development"}, {"outputID": "00071131", "output_locID": "00071131-10", "name": "Taba", "focus_area": "4", "lat": "29.49199", "type": "PPL", "awardID": "00057529", "lon": "34.89572", "precision": "3", "focus_area_descr": "Environment & sustainable development"}, {"outputID": "00071131", "output_locID": "00071131-11", "name": "Abu Galum", "focus_area": "4", "lat": "28.62478", "type": "RES", "awardID": "00057529", "lon": "34.57443", "precision": "4", "focus_area_descr": "Environment & sustainable development"}, {"outputID": "00071131", "output_locID": "00071131-12", "name": "Ashtum El Gamil", "focus_area": "4", "lat": "31.28528", "type": "RES", "awardID": "00057529", "lon": "32.19167", "precision": "4", "focus_area_descr": "Environment & sustainable development"}, {"outputID": "00071131", "output_locID": "00071131-13", "name": "Burullus", "focus_area": "4", "lat": "31.47722", "type": "RES", "awardID": "00057529", "lon": "30.85228", "precision": "4", "focus_area_descr": "Environment & sustainable development"}, {"outputID": "00071131", "output_locID": "00071131-14", "name": "Elba", "focus_area": "4", "lat": "22.2", "type": "RES", "awardID": "00057529", "lon": "36.33333", "precision": "4", "focus_area_descr": "Environment & sustainable development"}, {"outputID": "00071131", "output_locID": "00071131-15", "name": "Hassana", "focus_area": "4", "lat": "30.5218", "type": "RES", "awardID": "00057529", "lon": "33.79145", "precision": "4", "focus_area_descr": "Environment & sustainable development"}, {"outputID": "00071131", "output_locID": "00071131-16", "name": "Maadi", "focus_area": "4", "lat": "30.9", "type": "RES", "awardID": "00057529", "lon": "29.38333", "precision": "4", "focus_area_descr": "Environment & sustainable development"}, {"outputID": "00071131", "output_locID": "00071131-17", "name": "Red Sea", "focus_area": "4", "lat": "27.18624", "type": "ADM1", "awardID": "00057529", "lon": "33.78845", "precision": "4", "focus_area_descr": "Environment & sustainable development"}, {"outputID": "00071131", "output_locID": "00071131-18", "name": "Saluga", "focus_area": "4", "lat": "24.0724", "type": "RES", "awardID": "00057529", "lon": "32.86565", "precision": "4", "focus_area_descr": "Environment & sustainable development"}, {"outputID": "00071131", "output_locID": "00071131-19", "name": "Siwa", "focus_area": "4", "lat": "29.19226", "type": "RES", "awardID": "00057529", "lon": "25.52753", "precision": "4", "focus_area_descr": "Environment & sustainable development"}, {"outputID": "00071131", "output_locID": "00071131-20", "name": "St. Katherine", "focus_area": "4", "lat": "28.51", "type": "RES", "awardID": "00057529", "lon": "33.95463", "precision": "4", "focus_area_descr": "Environment & sustainable development"}, {"outputID": "00071131", "output_locID": "00071131-21", "name": "Wadi Allaqi", "focus_area": "4", "lat": "22.96667", "type": "RES", "awardID": "00057529", "lon": "32.9", "precision": "4", "focus_area_descr": "Environment & sustainable development"}, {"outputID": "00071131", "output_locID": "00071131-22", "name": "Wadi El Rayan", "focus_area": "4", "lat": "29.15", "type": "RES", "awardID": "00057529", "lon": "30.41667", "precision": "4", "focus_area_descr": "Environment & sustainable development"}, {"outputID": "00071131", "output_locID": "00071131-23", "name": "Zaranik", "focus_area": "4", "lat": "30.69651", "type": "RES", "awardID": "00057529", "lon": "33.97038", "precision": "4", "focus_area_descr": "Environment & sustainable development"}], "operating_unit": "Egypt", "budget": 1323794.0, "iati_op_id": "EG", "inst_descr": "Egyptian Environmental Affairs", "start": "2009-05-27", "operating_unit_id": "EGY", "expenditure": 894590.0, "document_name": [["57529 - Final Project Document - Protected Areas.pdf", "00057529_Final Project Document - Protected Areas.pdf", "57529 Signed Budget Revision Mar 2014.pdf", "Audit", "CPAP%20Egypt%202013%202017%20Signed"], ["http://www.undp.org/content/dam/undp/documents/projects/EGY/57529 - Final Project Document - Protected Areas.pdf", "http://www.undp.org/content/dam/undp/documents/projects/EGY/00057529_Final Project Document - Protected Areas.pdf", "http://www.undp.org/content/dam/undp/documents/projects/EGY/57529 Signed Budget Revision Mar 2014.pdf", "http://www.undp.org/content/dam/undp/documents/projects/EGY/57529.pdf", "http://www.eg.undp.org/content/dam/egypt/docs/LegalFramework/CPAP Egypt 2013 2017 Signed.pdf"]], "project_id": "00057529", "inst_type_id": "10", "operating_unit_website": "http://www.eg.undp.org/", "project_title": "strengthening protected areas finance&mgmt systems"}