{"project_descr": " ", "fiscal_year": [2013, 2010, 2011, 2012], "end": "2012-12-31", "region_id": "RBA", "operating_unit_email": "registry.lr@undp.org_", "inst_id": "99999", "outputs": [{"output_id": "00071324", "crs": "25010", "donor_id": ["00012"], "focus_area": "1", "gender_descr": "Gender Equality", "output_title": "Gender Equality and women's Ec", "budget": [0.0, 1769727.0, 2208390.0, 25914.0], "fiscal_year": [2010, 2011, 2012, 2013], "gender_id": "1", "donor_name": ["Voluntary Contributions"], "award_id": "00057655", "output_descr": "Capacity developed for the implementation of policies and programmes on gender equality and women\"s empowerment", "donor_short": ["UNDP"], "expenditure": [913608.0, 1086532.0, 2288839.0, 1933.0], "crs_descr": "Business support services and institutions", "focus_area_descr": "Inclusive & Sustainable Growth"}], "subnational": [{"outputID": "00071324", "output_locID": "00071324-1", "name": "Montserrado", "focus_area": "1", "lat": "6.30054", "type": "PPLC", "awardID": "00057655", "lon": "-10.7969", "precision": "3", "focus_area_descr": "Inclusive & Sustainable Growth"}, {"outputID": "00071324", "output_locID": "00071324-2", "name": "Bong", "focus_area": "1", "lat": "6.99556", "type": "ADM1", "awardID": "00057655", "lon": "-9.47222", "precision": "4", "focus_area_descr": "Inclusive & Sustainable Growth"}, {"outputID": "00071324", "output_locID": "00071324-3", "name": "Grand Bassa", "focus_area": "1", "lat": "5.88083", "type": "ADM1", "awardID": "00057655", "lon": "-10.04667", "precision": "4", "focus_area_descr": "Inclusive & Sustainable Growth"}, {"outputID": "00071324", "output_locID": "00071324-4", "name": "Grand Cape Mount", "focus_area": "1", "lat": "7.16667", "type": "ADM1", "awardID": "00057655", "lon": "-11", "precision": "4", "focus_area_descr": "Inclusive & Sustainable Growth"}, {"outputID": "00071324", "output_locID": "00071324-5", "name": "Grand Cape Mount", "focus_area": "1", "lat": "7.16667", "type": "ADM1", "awardID": "00057655", "lon": "-11", "precision": "4", "focus_area_descr": "Inclusive & Sustainable Growth"}, {"outputID": "00071324", "output_locID": "00071324-6", "name": "Lofa", "focus_area": "1", "lat": "8.42194", "type": "ADM1", "awardID": "00057655", "lon": "-9.74778", "precision": "4", "focus_area_descr": "Inclusive & Sustainable Growth"}, {"outputID": "00071324", "output_locID": "00071324-7", "name": "Margibi", "focus_area": "1", "lat": "6.53", "type": "ADM1", "awardID": "00057655", "lon": "-10.35167", "precision": "4", "focus_area_descr": "Inclusive & Sustainable Growth"}, {"outputID": "00071324", "output_locID": "00071324-8", "name": "Maryland", "focus_area": "1", "lat": "4.375", "type": "ADM1", "awardID": "00057655", "lon": "-7.71694", "precision": "4", "focus_area_descr": "Inclusive & Sustainable Growth"}, {"outputID": "00071324", "output_locID": "00071324-9", "name": "Sinoe", "focus_area": "1", "lat": "5.01111", "type": "ADM1", "awardID": "00057655", "lon": "-9.03889", "precision": "4", "focus_area_descr": "Inclusive & Sustainable Growth"}, {"outputID": "00071324", "output_locID": "00071324-10", "name": "Nimba", "focus_area": "1", "lat": "7.57944", "type": "PPL", "awardID": "00057655", "lon": "-8.53778", "precision": "3", "focus_area_descr": "Inclusive & Sustainable Growth"}], "operating_unit": "Liberia", "budget": 4004031.0, "iati_op_id": "LR", "inst_descr": "UNDP", "start": "2009-06-15", "operating_unit_id": "LBR", "expenditure": 4290912.0, "document_name": [["Project Document JP GEWEE signed copy - 12 Feb 09MOGD_.pdf"], ["http://www.undp.org/content/dam/undp/documents/projects/LBR/00057655/Project Document JP GEWEE signed copy - 12 Feb 09MOGD_.pdf"], ["format"]], "project_id": "00057655", "inst_type_id": "40", "operating_unit_website": "http://www.lr.undp.org/", "project_title": "gender equality and women's economic empowerment"}