{"budget":[1323794.0],"document_name":[["57529 - Final Project Document - Protected Areas.pdf","00057529_Final Project Document - Protected Areas.pdf","57529 Signed Budget Revision Mar 2014.pdf","Audit","CPAP%20Egypt%202013%202017%20Signed"],["http://www.undp.org/content/dam/undp/documents/projects/EGY/57529 - Final Project Document - Protected Areas.pdf","http://www.undp.org/content/dam/undp/documents/projects/EGY/00057529_Final Project Document - Protected Areas.pdf","http://www.undp.org/content/dam/undp/documents/projects/EGY/57529 Signed Budget Revision Mar 2014.pdf","http://www.undp.org/content/dam/undp/documents/projects/EGY/57529.pdf","http://www.eg.undp.org/content/dam/egypt/docs/LegalFramework/CPAP Egypt 2013 2017 Signed.pdf"]],"end":"2016-12-31","expenditure":[820257.0],"fiscal_year":["2014","2013","2012","2011","2010"],"iati_op_id":"EG","inst_descr":"Egyptian Environmental Affairs","inst_id":"01028","inst_type_id":"10","operating_unit":"Egypt","operating_unit_email":"registry.eg@undp.org","operating_unit_id":"EGY","operating_unit_website":"http://www.eg.undp.org/","outputs":[{"award_id":"00057529","budget":[499751.0,320910.0,403033.0,100100.0,null],"crs":"41010","crs_descr":"Environmental policy and administrative management","donor_id":["00012","10003","11285"],"donor_name":["Voluntary Contributions","Global Environment Fund Truste","Egypt - Ministry of State for Environmental Affairs"],"donor_short":["UNDP","GEFTrustee","EGY-MinEnv"],"expenditure":[151325.0,287055.0,322403.0,59451.0,23.0],"fiscal_year":["2014","2013","2012","2011","2010"],"focus_area":"4","focus_area_descr":"Environment & sustainable development","gender_descr":"Gender Equality","gender_id":"1","output_descr":"Legal,  Policy, Institutional and Regulatory Framework in place; Financial Resources Adequate; Business Plan&Cost Effective System in Place.","output_id":"00071131","output_title":"Protected Areas Fin&Mgmt Syst"}],"project_descr":"Strengthening Protected Area Financing and Management Systems","project_id":"00057529","project_title":"Strengthening Protected Areas Finance&Mgmt Systems","region_id":"RBAS","start":"2009-05-27","subnational":[{"awardID":"00057529","focus_area":"4","focus_area_descr":"Environment & sustainable development","lat":"28","lon":"32","name":"Arabian Desert","outputID":"00071131","output_locID":"00071131-1","precision":"4","type":"RES"},{"awardID":"00057529","focus_area":"4","focus_area_descr":"Environment & sustainable development","lat":"27.0568","lon":"27.96979","name":"Farafra","outputID":"00071131","output_locID":"00071131-2","precision":"3","type":"PPL"},{"awardID":"00057529","focus_area":"4","focus_area_descr":"Environment & sustainable development","lat":"30.72304","lon":"31.04846","name":"Ghazal","outputID":"00071131","output_locID":"00071131-3","precision":"3","type":"PPL"},{"awardID":"00057529","focus_area":"4","focus_area_descr":"Environment & sustainable development","lat":"27.25738","lon":"33.81291","name":"Hurghada","outputID":"00071131","output_locID":"00071131-4","precision":"3","type":"PPLA"},{"awardID":"00057529","focus_area":"4","focus_area_descr":"Environment & sustainable development","lat":"29.9782","lon":"31.2332","name":"Maadi Cornish","outputID":"00071131","output_locID":"00071131-5","precision":"3","type":"PPL"},{"awardID":"00057529","focus_area":"4","focus_area_descr":"Environment & sustainable development","lat":"28.06958","lon":"34.42654","name":"Nabq","outputID":"00071131","output_locID":"00071131-6","precision":"3","type":"PPL"},{"awardID":"00057529","focus_area":"4","focus_area_descr":"Environment & sustainable development","lat":"27.73251","lon":"34.25904","name":"Ras Mohammad","outputID":"00071131","output_locID":"00071131-7","precision":"3","type":"PPL"},{"awardID":"00057529","focus_area":"4","focus_area_descr":"Environment & sustainable development","lat":"28.98224","lon":"31.04981","name":"Sannur","outputID":"00071131","output_locID":"00071131-8","precision":"3","type":"PPL"},{"awardID":"00057529","focus_area":"4","focus_area_descr":"Environment & sustainable development","lat":"27.8","lon":"30.83333","name":"Sidi Muhammad al Ahrash","outputID":"00071131","output_locID":"00071131-9","precision":"3","type":"PPL"},{"awardID":"00057529","focus_area":"4","focus_area_descr":"Environment & sustainable development","lat":"29.49199","lon":"34.89572","name":"Taba","outputID":"00071131","output_locID":"00071131-10","precision":"3","type":"PPL"},{"awardID":"00057529","focus_area":"4","focus_area_descr":"Environment & sustainable development","lat":"28.62478","lon":"34.57443","name":"Abu Galum","outputID":"00071131","output_locID":"00071131-11","precision":"4","type":"RES"},{"awardID":"00057529","focus_area":"4","focus_area_descr":"Environment & sustainable development","lat":"31.28528","lon":"32.19167","name":"Ashtum El Gamil","outputID":"00071131","output_locID":"00071131-12","precision":"4","type":"RES"},{"awardID":"00057529","focus_area":"4","focus_area_descr":"Environment & sustainable development","lat":"31.47722","lon":"30.85228","name":"Burullus","outputID":"00071131","output_locID":"00071131-13","precision":"4","type":"RES"},{"awardID":"00057529","focus_area":"4","focus_area_descr":"Environment & sustainable development","lat":"22.2","lon":"36.33333","name":"Elba","outputID":"00071131","output_locID":"00071131-14","precision":"4","type":"RES"},{"awardID":"00057529","focus_area":"4","focus_area_descr":"Environment & sustainable development","lat":"30.5218","lon":"33.79145","name":"Hassana","outputID":"00071131","output_locID":"00071131-15","precision":"4","type":"RES"},{"awardID":"00057529","focus_area":"4","focus_area_descr":"Environment & sustainable development","lat":"30.9","lon":"29.38333","name":"Maadi","outputID":"00071131","output_locID":"00071131-16","precision":"4","type":"RES"},{"awardID":"00057529","focus_area":"4","focus_area_descr":"Environment & sustainable development","lat":"27.18624","lon":"33.78845","name":"Red Sea","outputID":"00071131","output_locID":"00071131-17","precision":"4","type":"ADM1"},{"awardID":"00057529","focus_area":"4","focus_area_descr":"Environment & sustainable development","lat":"24.0724","lon":"32.86565","name":"Saluga","outputID":"00071131","output_locID":"00071131-18","precision":"4","type":"RES"},{"awardID":"00057529","focus_area":"4","focus_area_descr":"Environment & sustainable development","lat":"29.19226","lon":"25.52753","name":"Siwa","outputID":"00071131","output_locID":"00071131-19","precision":"4","type":"RES"},{"awardID":"00057529","focus_area":"4","focus_area_descr":"Environment & sustainable development","lat":"28.51","lon":"33.95463","name":"St. Katherine","outputID":"00071131","output_locID":"00071131-20","precision":"4","type":"RES"},{"awardID":"00057529","focus_area":"4","focus_area_descr":"Environment & sustainable development","lat":"22.96667","lon":"32.9","name":"Wadi Allaqi","outputID":"00071131","output_locID":"00071131-21","precision":"4","type":"RES"},{"awardID":"00057529","focus_area":"4","focus_area_descr":"Environment & sustainable development","lat":"29.15","lon":"30.41667","name":"Wadi El Rayan","outputID":"00071131","output_locID":"00071131-22","precision":"4","type":"RES"},{"awardID":"00057529","focus_area":"4","focus_area_descr":"Environment & sustainable development","lat":"30.69651","lon":"33.97038","name":"Zaranik","outputID":"00071131","output_locID":"00071131-23","precision":"4","type":"RES"}]}