{"project_descr": "Principaux objectifs du PRET sont: i) la Restauration de l\u2019Etat de droit; ii) le Redressement \u00e9conomique et am\u00e9lioration des conditions de vie des populations.", "fiscal_year": [2014, 2012, 2013], "end": "2013-03-31", "region_id": "RBA", "operating_unit_email": "registry.td@undp.org", "inst_id": "00540", "outputs": [{"output_id": "00064106", "crs": null, "donor_id": ["00012"], "focus_area": "-", "gender_descr": "Gender Equality", "output_title": "Programme de Rel\u00e8vement \u00e0 l'Es", "budget": [3211320.0, 593145.0, 0.0], "fiscal_year": [2012, 2013, 2014], "gender_id": "1", "donor_name": ["Voluntary Contributions"], "award_id": "00051466", "output_descr": "Le Programme a \u00e9t\u00e9 con\u00e7u suite aux \u00e9v\u00e9nements au Darfour et dans le but d'apporter un soutien aux r\u00e9fugi\u00e9s et populations h\u00f4tes", "donor_short": ["UNDP"], "expenditure": [1010322.0, 299317.0, -15704.0], "crs_descr": null, "focus_area_descr": "-"}], "subnational": [{"outputID": "00064106", "output_locID": "00064106-1", "name": "Ab\u00e9ch\u00e9", "focus_area": "-", "lat": "13.829160", "type": "PPLA", "awardID": "00051466", "lon": "20.832400", "precision": "1", "focus_area_descr": "-"}, {"outputID": "00064106", "output_locID": "00064106-2", "name": "Goz Be\u00efda", "focus_area": "-", "lat": "12.216670", "type": "PPLA", "awardID": "00051466", "lon": "21.416670", "precision": "1", "focus_area_descr": "-"}, {"outputID": "00064106", "output_locID": "00064106-3", "name": "Ouaddai Region", "focus_area": "-", "lat": "13.500000", "type": "ADM1", "awardID": "00051466", "lon": "21.250000", "precision": "1", "focus_area_descr": "-"}, {"outputID": "00064106", "output_locID": "00064106-4", "name": "Salamat Region", "focus_area": "-", "lat": "11.000000", "type": "ADM1", "awardID": "00051466", "lon": "20.500000", "precision": "1", "focus_area_descr": "-"}, {"outputID": "00064106", "output_locID": "00064106-5", "name": "Sila", "focus_area": "-", "lat": "12.250000", "type": "ADM1", "awardID": "00051466", "lon": "21.500000", "precision": "1", "focus_area_descr": "-"}], "operating_unit": "Chad", "budget": 3804465.0, "iati_op_id": "TD", "inst_descr": "UNDP (Direct Execution)", "start": "2009-01-01", "operating_unit_id": "TCD", "expenditure": 1293935.0, "document_name": [], "project_id": "00051466", "inst_type_id": "40", "operating_unit_website": "http://www.td.undp.org/", "project_title": "programme de rel\u00e8vement \u00e0 l'est"}