{"budget":[4798847.0],"document_name":[["Budget","Contract"],["http://www.undp.org/content/dam/undp/documents/IATI/Budget.xlsx","http://www.undp.org/content/dam/undp/documents/IATI/Contract.xlsx"]],"end":"2014-12-31","expenditure":[3485172.0],"fiscal_year":["2014","2013","2012","2011","2010"],"iati_op_id":"TZ","inst_descr":"National Execution","inst_id":"03228","inst_type_id":"10","operating_unit":"United Republic of Tanzania","operating_unit_email":"registry.tz@undp.org","operating_unit_id":"TZA","operating_unit_website":"http://www.tz.undp.org/","outputs":[{"award_id":"00058939","budget":[4.0,75002.0,2162266.0,2561575.0,null],"crs":"41010","crs_descr":"Environmental policy and administrative management","donor_id":["00141"],"donor_name":["GOVERNMENT OF JAPAN"],"donor_short":["JPN"],"expenditure":[0.0,91574.0,2129255.0,894507.0,369836.0],"fiscal_year":["2014","2013","2012","2011","2010"],"focus_area":"4","focus_area_descr":"Environment & sustainable development","gender_descr":"Gender Equality","gender_id":"1","output_descr":"Supporting Integrated and Comprehensive Approaches to Climate Change Adaptation in Africa - Mainstreaming CCA in the National Sectoral Policies of Tanzania","output_id":"00073448","output_title":"Africa Adaptation Programme"}],"project_descr":"Supporting Integrated and Comprehensive Approaches to Climate Change Adaptation in Africa - Mainstreaming CCA in the National Sectoral Policies of Tanzania.","project_id":"00058939","project_title":"Mainstreaming Climate Change Adaptation in Policies","region_id":"RBA","start":"2010-01-01","subnational":[{"awardID":"00058939","focus_area":"4","focus_area_descr":"Environment & sustainable development","lat":"-3.36667","lon":"36.68333","name":"Arusha","outputID":"00073448","output_locID":"00073448-1","precision":"4","type":"ADM1"},{"awardID":"00058939","focus_area":"4","focus_area_descr":"Environment & sustainable development","lat":"-4.87694","lon":"29.62667","name":"Kigoma","outputID":"00073448","output_locID":"00073448-2","precision":"4","type":"ADM1"},{"awardID":"00058939","focus_area":"4","focus_area_descr":"Environment & sustainable development","lat":"-3.75","lon":"37.75","name":"Kilimanjaro","outputID":"00073448","output_locID":"00073448-3","precision":"4","type":"ADM1"},{"awardID":"00058939","focus_area":"4","focus_area_descr":"Environment & sustainable development","lat":"-1.75","lon":"34","name":"Mara","outputID":"00073448","output_locID":"00073448-4","precision":"4","type":"ADM1"},{"awardID":"00058939","focus_area":"4","focus_area_descr":"Environment & sustainable development","lat":"-6.82102","lon":"37.66122","name":"Morogoro","outputID":"00073448","output_locID":"00073448-5","precision":"4","type":"ADM1"},{"awardID":"00058939","focus_area":"4","focus_area_descr":"Environment & sustainable development","lat":"-10.26667","lon":"40.18333","name":"Mtwara","outputID":"00073448","output_locID":"00073448-6","precision":"4","type":"ADM1"},{"awardID":"00058939","focus_area":"4","focus_area_descr":"Environment & sustainable development","lat":"-2.51667","lon":"32.9","name":"Mwanza","outputID":"00073448","output_locID":"00073448-7","precision":"4","type":"ADM1"},{"awardID":"00058939","focus_area":"4","focus_area_descr":"Environment & sustainable development","lat":"-7.9","lon":"31.33333","name":"Rukwa","outputID":"00073448","output_locID":"00073448-8","precision":"4","type":"ADM1"},{"awardID":"00058939","focus_area":"4","focus_area_descr":"Environment & sustainable development","lat":"-11","lon":"36","name":"Ruvuma","outputID":"00073448","output_locID":"00073448-9","precision":"4","type":"ADM1"},{"awardID":"00058939","focus_area":"4","focus_area_descr":"Environment & sustainable development","lat":"-3.66393","lon":"33.42118","name":"Shinyanga","outputID":"00073448","output_locID":"00073448-10","precision":"4","type":"ADM1"},{"awardID":"00058939","focus_area":"4","focus_area_descr":"Environment & sustainable development","lat":"-5.06893","lon":"39.09875","name":"Tanga","outputID":"00073448","output_locID":"00073448-11","precision":"4","type":"ADM1"}]}