{"project_descr": "Mediante los esfuerzos conjuntos del DNP y el PNUD, este proyecto pretende fortalecer las capacidades de gesti\u00f3n p\u00fablica territorial y nacional con el fin de asegurar el control, la vigilancia, la implementaci\u00f3n de procedimientos correctivos y evaluaci\u00f3n", "fiscal_year": [2017, 2016, 2012, 2013, 2014, 2015], "end": "2017-12-31", "region_id": "RBLAC", "operating_unit_email": "fo.col@undp.org", "inst_id": "00720", "outputs": [{"output_id": "00073393", "crs": "15112", "donor_id": ["00877"], "disbursement": [], "focus_area": "3", "gender_descr": "Gender Equality", "output_title": "Control Vigilancia Evaluacion", "budget": [4476303.0, 12280380.0, 20290721.0, 20126926.0, 7901965.0, 4614293.0], "fiscal_year": [2016, 2017, 2012, 2013, 2014, 2015], "gender_id": "1", "expenditure": [3967092.0, 1911425.0, 19220648.0, 18782520.0, 7796122.0, 4061734.0], "award_id": "00058906", "output_descr": "Control, vigilancia y evaluaci\u00f3n de impacto de las regal\u00edas", "donor_short": ["DNP"], "donor_name": ["COL-DEPARTAMENTO NACIONAL DE P"], "crs_descr": null, "focus_area_descr": "Responsive Institutions"}], "subnational": [{"outputID": "00073393", "output_locID": "00073393-1", "name": "Departamento del Vichada", "focus_area": "3", "lat": "5.000000", "type": "ADM1", "awardID": "00058906", "lon": "-69.500000", "precision": "1", "focus_area_descr": "Responsive Institutions"}, {"outputID": "00073393", "output_locID": "00073393-2", "name": "Departamento del Vaup\u00e9s", "focus_area": "3", "lat": "0.750000", "type": "ADM1", "awardID": "00058906", "lon": "-70.750000", "precision": "1", "focus_area_descr": "Responsive Institutions"}, {"outputID": "00073393", "output_locID": "00073393-3", "name": "Valle del Cauca", "focus_area": "3", "lat": "3.750000", "type": "ADM1", "awardID": "00058906", "lon": "-76.500000", "precision": "1", "focus_area_descr": "Responsive Institutions"}, {"outputID": "00073393", "output_locID": "00073393-4", "name": "Departamento de Tolima", "focus_area": "3", "lat": "4.000000", "type": "ADM1", "awardID": "00058906", "lon": "-75.250000", "precision": "1", "focus_area_descr": "Responsive Institutions"}, {"outputID": "00073393", "output_locID": "00073393-5", "name": "Departamento de Sucre", "focus_area": "3", "lat": "9.000000", "type": "ADM1", "awardID": "00058906", "lon": "-75.000000", "precision": "1", "focus_area_descr": "Responsive Institutions"}, {"outputID": "00073393", "output_locID": "00073393-6", "name": "Departamento de Santander", "focus_area": "3", "lat": "6.833330", "type": "ADM1", "awardID": "00058906", "lon": "-73.416670", "precision": "1", "focus_area_descr": "Responsive Institutions"}, {"outputID": "00073393", "output_locID": "00073393-7", "name": "Departamento de Risaralda", "focus_area": "3", "lat": "5.000000", "type": "ADM1", "awardID": "00058906", "lon": "-76.000000", "precision": "1", "focus_area_descr": "Responsive Institutions"}, {"outputID": "00073393", "output_locID": "00073393-8", "name": "Quind\u00edo Department", "focus_area": "3", "lat": "4.500000", "type": "ADM1", "awardID": "00058906", "lon": "-75.666670", "precision": "1", "focus_area_descr": "Responsive Institutions"}, {"outputID": "00073393", "output_locID": "00073393-9", "name": "Departamento del Putumayo", "focus_area": "3", "lat": "0.500000", "type": "ADM1", "awardID": "00058906", "lon": "-76.000000", "precision": "1", "focus_area_descr": "Responsive Institutions"}, {"outputID": "00073393", "output_locID": "00073393-10", "name": "Norte de Santander", "focus_area": "3", "lat": "8.000000", "type": "ADM1", "awardID": "00058906", "lon": "-73.000000", "precision": "1", "focus_area_descr": "Responsive Institutions"}, {"outputID": "00073393", "output_locID": "00073393-11", "name": "Departamento de Nari\u00f1o", "focus_area": "3", "lat": "1.500000", "type": "ADM1", "awardID": "00058906", "lon": "-78.000000", "precision": "1", "focus_area_descr": "Responsive Institutions"}, {"outputID": "00073393", "output_locID": "00073393-12", "name": "Departamento del Meta", "focus_area": "3", "lat": "3.500000", "type": "ADM1", "awardID": "00058906", "lon": "-73.000000", "precision": "1", "focus_area_descr": "Responsive Institutions"}, {"outputID": "00073393", "output_locID": "00073393-13", "name": "Departamento del Magdalena", "focus_area": "3", "lat": "10.000000", "type": "ADM1", "awardID": "00058906", "lon": "-74.500000", "precision": "1", "focus_area_descr": "Responsive Institutions"}, {"outputID": "00073393", "output_locID": "00073393-14", "name": "Departamento de La Guajira", "focus_area": "3", "lat": "11.500000", "type": "ADM1", "awardID": "00058906", "lon": "-72.500000", "precision": "1", "focus_area_descr": "Responsive Institutions"}, {"outputID": "00073393", "output_locID": "00073393-15", "name": "Departamento del Huila", "focus_area": "3", "lat": "2.500000", "type": "ADM1", "awardID": "00058906", "lon": "-75.583330", "precision": "1", "focus_area_descr": "Responsive Institutions"}, {"outputID": "00073393", "output_locID": "00073393-16", "name": "Departamento del Guaviare", "focus_area": "3", "lat": "1.916670", "type": "ADM1", "awardID": "00058906", "lon": "-72.000000", "precision": "1", "focus_area_descr": "Responsive Institutions"}, {"outputID": "00073393", "output_locID": "00073393-17", "name": "Departamento del Guain\u00eda", "focus_area": "3", "lat": "2.500000", "type": "ADM1", "awardID": "00058906", "lon": "-69.000000", "precision": "1", "focus_area_descr": "Responsive Institutions"}, {"outputID": "00073393", "output_locID": "00073393-18", "name": "Cundinamarca", "focus_area": "3", "lat": "5.000000", "type": "ADM1", "awardID": "00058906", "lon": "-74.166670", "precision": "1", "focus_area_descr": "Responsive Institutions"}, {"outputID": "00073393", "output_locID": "00073393-19", "name": "Departamento de C\u00f3rdoba", "focus_area": "3", "lat": "8.333330", "type": "ADM1", "awardID": "00058906", "lon": "-75.666670", "precision": "1", "focus_area_descr": "Responsive Institutions"}, {"outputID": "00073393", "output_locID": "00073393-20", "name": "Colombia", "focus_area": "3", "lat": "4.000000", "type": "PCLI", "awardID": "00058906", "lon": "-73.250000", "precision": "1", "focus_area_descr": "Responsive Institutions"}, {"outputID": "00073393", "output_locID": "00073393-21", "name": "Departamento del Choc\u00f3", "focus_area": "3", "lat": "6.000000", "type": "ADM1", "awardID": "00058906", "lon": "-77.000000", "precision": "1", "focus_area_descr": "Responsive Institutions"}, {"outputID": "00073393", "output_locID": "00073393-22", "name": "Departamento del Cesar", "focus_area": "3", "lat": "9.333330", "type": "ADM1", "awardID": "00058906", "lon": "-73.500000", "precision": "1", "focus_area_descr": "Responsive Institutions"}, {"outputID": "00073393", "output_locID": "00073393-23", "name": "Departamento del Cauca", "focus_area": "3", "lat": "2.500000", "type": "ADM1", "awardID": "00058906", "lon": "-76.833330", "precision": "1", "focus_area_descr": "Responsive Institutions"}, {"outputID": "00073393", "output_locID": "00073393-24", "name": "Departamento del Caquet\u00e1", "focus_area": "3", "lat": "0.750000", "type": "ADM1", "awardID": "00058906", "lon": "-74.000000", "precision": "1", "focus_area_descr": "Responsive Institutions"}, {"outputID": "00073393", "output_locID": "00073393-25", "name": "Departamento de Caldas", "focus_area": "3", "lat": "5.266670", "type": "ADM1", "awardID": "00058906", "lon": "-75.333330", "precision": "1", "focus_area_descr": "Responsive Institutions"}, {"outputID": "00073393", "output_locID": "00073393-26", "name": "Departamento de Boyac\u00e1", "focus_area": "3", "lat": "5.666670", "type": "ADM1", "awardID": "00058906", "lon": "-73.000000", "precision": "1", "focus_area_descr": "Responsive Institutions"}, {"outputID": "00073393", "output_locID": "00073393-27", "name": "Departamento de Bol\u00edvar", "focus_area": "3", "lat": "9.000000", "type": "ADM1", "awardID": "00058906", "lon": "-74.333330", "precision": "1", "focus_area_descr": "Responsive Institutions"}, {"outputID": "00073393", "output_locID": "00073393-28", "name": "Atl\u00e1ntico", "focus_area": "3", "lat": "10.750000", "type": "ADM1", "awardID": "00058906", "lon": "-75.000000", "precision": "1", "focus_area_descr": "Responsive Institutions"}, {"outputID": "00073393", "output_locID": "00073393-29", "name": "Departamento de Arauca", "focus_area": "3", "lat": "6.666670", "type": "ADM1", "awardID": "00058906", "lon": "-71.000000", "precision": "1", "focus_area_descr": "Responsive Institutions"}, {"outputID": "00073393", "output_locID": "00073393-30", "name": "Antioquia", "focus_area": "3", "lat": "7.000000", "type": "ADM1", "awardID": "00058906", "lon": "-75.500000", "precision": "1", "focus_area_descr": "Responsive Institutions"}, {"outputID": "00073393", "output_locID": "00073393-31", "name": "Amazonas", "focus_area": "3", "lat": "-1.166670", "type": "ADM1", "awardID": "00058906", "lon": "-71.500000", "precision": "1", "focus_area_descr": "Responsive Institutions"}], "operating_unit": "Colombia", "budget": 69690588.0, "iati_op_id": "CO", "inst_descr": "DEPARTAMENTO NACIONAL DE PLANE", "start": "2010-01-01", "operating_unit_id": "COL", "expenditure": 55739541.0, "document_name": [["00058906_060110_PRODOC___PAC_REGALIAS", "COMITE REGALIAS 73393 05032013", "COMITE REGALIAS 73393 05062013", "COMITE REGALIAS 73393 08042011", "COMITE REGALIAS 73393 16052012", "COMITE REGALIAS 73393 18022011", "COMITE REGALIAS 73393 20122012", "COMITE REGALIAS 73393 30082012", "58906 POA", "SPR 2015 00073393", "Acuerdo_B_sico_de_cooperaci_n_PNUD", "Control, vigilancia y evaluaci\\xF3n de impacto regalias"], ["https://info.undp.org/docs/pdc/Documents/COL/00058906_060110_PRODOC___PAC_REGALIAS.pdf", "https://info.undp.org/docs/pdc/Documents/COL/COMITE REGALIAS 73393 05032013.pdf", "https://info.undp.org/docs/pdc/Documents/COL/COMITE REGALIAS 73393 05062013.pdf", "https://info.undp.org/docs/pdc/Documents/COL/COMITE REGALIAS 73393 08042011.pdf", "https://info.undp.org/docs/pdc/Documents/COL/COMITE REGALIAS 73393 16052012.pdf", "https://info.undp.org/docs/pdc/Documents/COL/COMITE REGALIAS 73393 18022011.pdf", "https://info.undp.org/docs/pdc/Documents/COL/COMITE REGALIAS 73393 20122012.pdf", "https://info.undp.org/docs/pdc/Documents/COL/COMITE REGALIAS 73393 30082012.pdf", "https://info.undp.org/docs/pdc/Documents/COL/58906 POA.pdf", "https://info.undp.org/docs/pdc/Documents/COL/73393 Regalias SPR 2015.pdf", "http://www.pnud.org.co//img_upload/36353463616361636163616361636163/Acuerdo_B_sico_de_cooperaci_n_PNUD.pdf", "http://procurement-notices.undp.org/view_notice.cfm?notice_id=36737"], ["pdf", "pdf", "pdf", "pdf", "pdf", "pdf", "pdf", "pdf", "pdf", "pdf", "pdf", ""], [0, 5, 5, 5, 5, 5, 5, 5, 6, 6, 7, 10]], "project_id": "00058906", "inst_type_id": "10", "operating_unit_website": null, "project_title": "control, vigilancia y evaluaci\u00f3n de impacto regalias"}