{"project_descr": "Gender Equality", "fiscal_year": [2015, 2012, 2013], "end": "2015-12-31", "region_id": "RBA", "operating_unit_email": "registry.lr@undp.org", "inst_id": "99999", "outputs": [{"output_id": "00071324", "crs": "99810", "donor_id": ["11340", "00012"], "disbursement": [], "focus_area": "0", "gender_descr": "Gender Equality", "output_title": "Gender Equality and women's Ec", "budget": [2208390.0, 25914.0, 44939.0], "fiscal_year": [2012, 2013, 2015], "gender_id": "1", "expenditure": [2288838.0, 3883.0, 0.0], "award_id": "00057655", "output_descr": "DANIDA support to MDG3. The Joint Programmne GEWEE is supporting the Ministry of Gender and Development to empower women socially and economically and also build the capacity of MOGD.", "donor_short": ["UNDP", "LBR_Gen_Eq"], "donor_name": ["Voluntary Contributions", "MDTFO/JP_LBR_Gender_Equality"], "crs_descr": null, "focus_area_descr": "SP_NONE_APPLIES"}], "subnational": [{"outputID": "00071324", "output_locID": "00071324-1", "name": "Sinoe County", "focus_area": "0", "lat": "5.333330", "type": "ADM1", "awardID": "00057655", "lon": "-8.666670", "precision": "1", "focus_area_descr": "SP_NONE_APPLIES"}, {"outputID": "00071324", "output_locID": "00071324-2", "name": "Nimba Number One", "focus_area": "0", "lat": "7.554170", "type": "PPL", "awardID": "00057655", "lon": "-8.563060", "precision": "1", "focus_area_descr": "SP_NONE_APPLIES"}, {"outputID": "00071324", "output_locID": "00071324-3", "name": "Monrovia", "focus_area": "0", "lat": "6.300540", "type": "PPLC", "awardID": "00057655", "lon": "-10.796900", "precision": "1", "focus_area_descr": "SP_NONE_APPLIES"}, {"outputID": "00071324", "output_locID": "00071324-4", "name": "Maryland County", "focus_area": "0", "lat": "4.750000", "type": "ADM1", "awardID": "00057655", "lon": "-7.750000", "precision": "1", "focus_area_descr": "SP_NONE_APPLIES"}, {"outputID": "00071324", "output_locID": "00071324-5", "name": "Lofa County", "focus_area": "0", "lat": "7.916670", "type": "ADM1", "awardID": "00057655", "lon": "-10.000000", "precision": "1", "focus_area_descr": "SP_NONE_APPLIES"}, {"outputID": "00071324", "output_locID": "00071324-6", "name": "Grand Cape Mount County", "focus_area": "0", "lat": "7.166670", "type": "ADM1", "awardID": "00057655", "lon": "-11.000000", "precision": "1", "focus_area_descr": "SP_NONE_APPLIES"}, {"outputID": "00071324", "output_locID": "00071324-7", "name": "Grand Bassa County", "focus_area": "0", "lat": "6.250000", "type": "ADM1", "awardID": "00057655", "lon": "-9.750000", "precision": "1", "focus_area_descr": "SP_NONE_APPLIES"}, {"outputID": "00071324", "output_locID": "00071324-8", "name": "Bong County", "focus_area": "0", "lat": "7.000000", "type": "ADM1", "awardID": "00057655", "lon": "-9.666670", "precision": "1", "focus_area_descr": "SP_NONE_APPLIES"}, {"outputID": "00071324", "output_locID": "00071324-9", "name": "Margibi County", "focus_area": "0", "lat": "6.500000", "type": "ADM1", "awardID": "00057655", "lon": "-10.250000", "precision": "1", "focus_area_descr": "SP_NONE_APPLIES"}], "operating_unit": "Liberia", "budget": 2279243.0, "iati_op_id": "LR", "inst_descr": "UNDP", "start": "2009-06-15", "operating_unit_id": "LBR", "expenditure": 2292721.0, "document_name": [["00057655_Project Document JP GEWEE signed copy  12 Feb 09MOGD_", "UNDP%20Liberia%20UNDAF%202013-2017", "Request for Procurement"], ["https://info.undp.org/docs/pdc/Documents/LBR/00057655_Project Document JP GEWEE signed copy - 12 Feb 09MOGD_.pdf", "http://www.lr.undp.org/content/dam/liberia/docs/UNDP Liberia UNDAF 2013-2017.pdf", "http://procurement-notices.undp.org/index.cfm"], ["pdf", "pdf", ""], [0, 7, 10]], "project_id": "00057655", "inst_type_id": "40", "operating_unit_website": null, "project_title": "gender equality and women's economic empowerment"}