{"project_descr": "PIMS 4047 -  CLIMATE CHANGE - LDCF  NAPA", "fiscal_year": [2015, 2012, 2013, 2014], "end": "2015-12-31", "region_id": "RBA", "operating_unit_email": "registry.bj@undp.org", "inst_id": "00238", "outputs": [{"output_id": "00074252", "crs": "41010", "donor_id": ["10714", "00012", "00062", "10003"], "focus_area": "2", "gender_descr": "Gender Equality", "output_title": "PIMS 4047 - CLIMATE CHANGE - L", "budget": [710235.0, 1731586.0, 958504.0, 648583.0], "fiscal_year": [2012, 2013, 2014, 2015], "gender_id": "1", "donor_name": ["GOVERNMENT OF BENIN", "Global Environment Fund Truste", "UNDP AS ADMINISTRATIVE AGENT FOR A JOINT PROGRAMME PASS THROUGH ARRANGEMENT", "Voluntary Contributions"], "award_id": "00059395", "output_descr": "PIMS 4047 - CLIMATE CHANGE - L", "donor_short": ["BEN", "GEFTrustee", "UNDP(JPAA)", "UNDP"], "expenditure": [0.0, 1544481.0, 951245.0, 186120.0], "crs_descr": null, "focus_area_descr": "Democratic Governance"}], "subnational": [{"outputID": "00074252", "output_locID": "00074252-1", "name": "Aplahou\u00e9", "focus_area": "2", "lat": "6.933330", "type": "PPL", "awardID": "00059395", "lon": "1.683330", "precision": "1", "focus_area_descr": "Democratic Governance"}, {"outputID": "00074252", "output_locID": "00074252-2", "name": "Cotonou", "focus_area": "2", "lat": "6.365360", "type": "PPLA", "awardID": "00059395", "lon": "2.418330", "precision": "1", "focus_area_descr": "Democratic Governance"}, {"outputID": "00074252", "output_locID": "00074252-3", "name": "Savalou", "focus_area": "2", "lat": "7.928070", "type": "PPLA", "awardID": "00059395", "lon": "1.975580", "precision": "1", "focus_area_descr": "Democratic Governance"}, {"outputID": "00074252", "output_locID": "00074252-4", "name": "Malanville", "focus_area": "2", "lat": "11.868190", "type": "PPL", "awardID": "00059395", "lon": "3.383270", "precision": "1", "focus_area_descr": "Democratic Governance"}, {"outputID": "00074252", "output_locID": "00074252-5", "name": "Commune of Bopa", "focus_area": "2", "lat": "6.657000", "type": "ADM2", "awardID": "00059395", "lon": "1.945000", "precision": "1", "focus_area_descr": "Democratic Governance"}, {"outputID": "00074252", "output_locID": "00074252-6", "name": "Ouake", "focus_area": "2", "lat": "9.599590", "type": "ADM2", "awardID": "00059395", "lon": "1.437070", "precision": "1", "focus_area_descr": "Democratic Governance"}, {"outputID": "00074252", "output_locID": "00074252-7", "name": "Commune of Ouinhi", "focus_area": "2", "lat": "7.068000", "type": "ADM2", "awardID": "00059395", "lon": "2.468000", "precision": "1", "focus_area_descr": "Democratic Governance"}, {"outputID": "00074252", "output_locID": "00074252-8", "name": "Commune of Adjohoun", "focus_area": "2", "lat": "6.711820", "type": "ADM2", "awardID": "00059395", "lon": "2.493990", "precision": "1", "focus_area_descr": "Democratic Governance"}, {"outputID": "00074252", "output_locID": "00074252-9", "name": "Materi", "focus_area": "2", "lat": "10.798600", "type": "ADM2", "awardID": "00059395", "lon": "1.027560", "precision": "1", "focus_area_descr": "Democratic Governance"}, {"outputID": "00074252", "output_locID": "00074252-10", "name": "Commune of So-Ava", "focus_area": "2", "lat": "6.501590", "type": "ADM2", "awardID": "00059395", "lon": "2.427070", "precision": "1", "focus_area_descr": "Democratic Governance"}], "operating_unit": "Benin", "budget": 4048908.0, "iati_op_id": "BJ", "inst_descr": "National Execution", "start": "2010-01-01", "operating_unit_id": "BEN", "expenditure": 2681846.0, "document_name": [["AWP-pta-pana-2013"], ["http://www.undp.org/content/dam/undp/documents/projects/BEN/AWP-pta-pana-2013.pdf"], ["pdf"]], "project_id": "00059395", "inst_type_id": "10", "operating_unit_website": "http://www.bj.undp.org/", "project_title": "pims 4047 -  climate change - ldcf  napa"}