{"budget":[3460711.0],"document_name":[],"end":"2014-12-31","expenditure":[3042999.0],"fiscal_year":["2013","2012","2011","2010"],"iati_op_id":"TZ","inst_descr":"National Execution","inst_id":"03228","inst_type_id":"10","operating_unit":"United Republic of Tanzania","operating_unit_email":"registry.tz@undp.org","operating_unit_id":"TZA","operating_unit_website":"http://www.tz.undp.org/","outputs":[{"award_id":"00058855","budget":[1100500.0,1118704.0,1241507.0,null],"crs":"41010","crs_descr":"Environmental policy and administrative management","donor_id":["00012","10003"],"donor_name":["Voluntary Contributions","Global Environment Fund Truste"],"donor_short":["UNDP","GEFTrustee"],"expenditure":[770563.0,1098066.0,1194711.0,-20341.0],"fiscal_year":["2013","2012","2011","2010"],"focus_area":"4","focus_area_descr":"Environment & sustainable development","gender_descr":"Gender Equality","gender_id":"1","output_descr":"This project works with Government, largely through the forest sector, WWF and other NGOs; to strengthen overall conservation and management of the Coastal Forests of Tanzania, focusing on both Zanzibar and three priority landscapes in south-eastern Tanzania. The project is designed to run for four years through National Execution Modalities, with government sub-contracting WWF to undertake some specific functions. The project will increase the extent of Protected Areas, upgrade key areas to higher status and seek innovative funding mechanisms for the Hot-Spot.  Carbon offers some opportunity for such funding.","output_id":"00073328","output_title":"Coastal Forest protected areas"}],"project_descr":"Extending the Coastal Forest Protected Area Subsystem in Tanzania.","project_id":"00058855","project_title":"Extending  Coastal Forests Protected Areas","region_id":"RBA","start":"2010-01-01","subnational":[{"awardID":"00058855","focus_area":"4","focus_area_descr":"Environment & sustainable development","lat":"-3.36667","lon":"36.68333","name":"Arusha","outputID":"00073328","output_locID":"00073328-1","precision":"4","type":"ADM1"},{"awardID":"00058855","focus_area":"4","focus_area_descr":"Environment & sustainable development","lat":"-4.87694","lon":"29.62667","name":"Kigoma","outputID":"00073328","output_locID":"00073328-2","precision":"4","type":"ADM1"},{"awardID":"00058855","focus_area":"4","focus_area_descr":"Environment & sustainable development","lat":"-3.75","lon":"37.75","name":"Kilimanjaro","outputID":"00073328","output_locID":"00073328-3","precision":"4","type":"ADM1"},{"awardID":"00058855","focus_area":"4","focus_area_descr":"Environment & sustainable development","lat":"-3.75","lon":"37.75","name":"Kilimanjaro","outputID":"00073328","output_locID":"00073328-4","precision":"4","type":"ADM1"},{"awardID":"00058855","focus_area":"4","focus_area_descr":"Environment & sustainable development","lat":"-1.75","lon":"34","name":"Mara","outputID":"00073328","output_locID":"00073328-5","precision":"4","type":"ADM1"},{"awardID":"00058855","focus_area":"4","focus_area_descr":"Environment & sustainable development","lat":"-6.82102","lon":"37.66122","name":"Morogoro","outputID":"00073328","output_locID":"00073328-6","precision":"4","type":"ADM1"},{"awardID":"00058855","focus_area":"4","focus_area_descr":"Environment & sustainable development","lat":"-10.26667","lon":"40.18333","name":"Mtwara","outputID":"00073328","output_locID":"00073328-7","precision":"4","type":"ADM1"},{"awardID":"00058855","focus_area":"4","focus_area_descr":"Environment & sustainable development","lat":"-2.51667","lon":"32.9","name":"Mwanza","outputID":"00073328","output_locID":"00073328-8","precision":"4","type":"ADM1"},{"awardID":"00058855","focus_area":"4","focus_area_descr":"Environment & sustainable development","lat":"-7.9","lon":"31.33333","name":"Rukwa","outputID":"00073328","output_locID":"00073328-9","precision":"4","type":"ADM1"},{"awardID":"00058855","focus_area":"4","focus_area_descr":"Environment & sustainable development","lat":"-11","lon":"36","name":"Ruvuma","outputID":"00073328","output_locID":"00073328-10","precision":"4","type":"ADM1"},{"awardID":"00058855","focus_area":"4","focus_area_descr":"Environment & sustainable development","lat":"-3.66393","lon":"33.42118","name":"Shinyanga","outputID":"00073328","output_locID":"00073328-11","precision":"4","type":"ADM1"},{"awardID":"00058855","focus_area":"4","focus_area_descr":"Environment & sustainable development","lat":"-5.06893","lon":"39.09875","name":"Tanga","outputID":"00073328","output_locID":"00073328-12","precision":"4","type":"ADM1"}]}