{"project_descr": "Extending the Coastal Forest Protected Area Subsystem in Tanzania.", "fiscal_year": [2013, 2010, 2011, 2012], "end": "2014-12-31", "region_id": "RBA", "operating_unit_email": "registry.tz@undp.org", "inst_id": "03228", "outputs": [{"output_id": "00073328", "crs": "41010", "donor_id": ["00012", "10003"], "focus_area": "5", "gender_descr": "Gender Equality", "output_title": "Coastal Forest protected areas", "budget": [0.0, 1241507.0, 1118704.0, 1100500.0], "fiscal_year": [2010, 2011, 2012, 2013], "gender_id": "1", "donor_name": ["Voluntary Contributions", "Global Environment Fund Truste"], "award_id": "00058855", "output_descr": "This project works with Government, largely through the forest sector, WWF and other NGOs; to strengthen overall conservation and management of the Coastal Forests of Tanzania, focusing on both Zanzibar and three priority landscapes in south-eastern Tanzania. The project is designed to run for four years through National Execution Modalities, with government sub-contracting WWF to undertake some specific functions. The project will increase the extent of Protected Areas, upgrade key areas to higher status and seek innovative funding mechanisms for the Hot-Spot.  Carbon offers some opportunity for such funding.", "donor_short": ["UNDP", "GEFTrustee"], "expenditure": [-20341.0, 1194711.0, 1098066.0, 770563.0], "crs_descr": "Environmental policy and administrative management", "focus_area_descr": "Climate Change & Disaster Resilience"}], "subnational": [{"outputID": "00073328", "output_locID": "00073328-1", "name": "Arusha", "focus_area": "5", "lat": "-3.36667", "type": "ADM1", "awardID": "00058855", "lon": "36.68333", "precision": "4", "focus_area_descr": "Climate Change & Disaster Resilience"}, {"outputID": "00073328", "output_locID": "00073328-2", "name": "Kigoma", "focus_area": "5", "lat": "-4.87694", "type": "ADM1", "awardID": "00058855", "lon": "29.62667", "precision": "4", "focus_area_descr": "Climate Change & Disaster Resilience"}, {"outputID": "00073328", "output_locID": "00073328-3", "name": "Kilimanjaro", "focus_area": "5", "lat": "-3.75", "type": "ADM1", "awardID": "00058855", "lon": "37.75", "precision": "4", "focus_area_descr": "Climate Change & Disaster Resilience"}, {"outputID": "00073328", "output_locID": "00073328-4", "name": "Kilimanjaro", "focus_area": "5", "lat": "-3.75", "type": "ADM1", "awardID": "00058855", "lon": "37.75", "precision": "4", "focus_area_descr": "Climate Change & Disaster Resilience"}, {"outputID": "00073328", "output_locID": "00073328-5", "name": "Mara", "focus_area": "5", "lat": "-1.75", "type": "ADM1", "awardID": "00058855", "lon": "34", "precision": "4", "focus_area_descr": "Climate Change & Disaster Resilience"}, {"outputID": "00073328", "output_locID": "00073328-6", "name": "Morogoro", "focus_area": "5", "lat": "-6.82102", "type": "ADM1", "awardID": "00058855", "lon": "37.66122", "precision": "4", "focus_area_descr": "Climate Change & Disaster Resilience"}, {"outputID": "00073328", "output_locID": "00073328-7", "name": "Mtwara", "focus_area": "5", "lat": "-10.26667", "type": "ADM1", "awardID": "00058855", "lon": "40.18333", "precision": "4", "focus_area_descr": "Climate Change & Disaster Resilience"}, {"outputID": "00073328", "output_locID": "00073328-8", "name": "Mwanza", "focus_area": "5", "lat": "-2.51667", "type": "ADM1", "awardID": "00058855", "lon": "32.9", "precision": "4", "focus_area_descr": "Climate Change & Disaster Resilience"}, {"outputID": "00073328", "output_locID": "00073328-9", "name": "Rukwa", "focus_area": "5", "lat": "-7.9", "type": "ADM1", "awardID": "00058855", "lon": "31.33333", "precision": "4", "focus_area_descr": "Climate Change & Disaster Resilience"}, {"outputID": "00073328", "output_locID": "00073328-10", "name": "Ruvuma", "focus_area": "5", "lat": "-11", "type": "ADM1", "awardID": "00058855", "lon": "36", "precision": "4", "focus_area_descr": "Climate Change & Disaster Resilience"}, {"outputID": "00073328", "output_locID": "00073328-11", "name": "Shinyanga", "focus_area": "5", "lat": "-3.66393", "type": "ADM1", "awardID": "00058855", "lon": "33.42118", "precision": "4", "focus_area_descr": "Climate Change & Disaster Resilience"}, {"outputID": "00073328", "output_locID": "00073328-12", "name": "Tanga", "focus_area": "5", "lat": "-5.06893", "type": "ADM1", "awardID": "00058855", "lon": "39.09875", "precision": "4", "focus_area_descr": "Climate Change & Disaster Resilience"}], "operating_unit": "United Republic of Tanzania", "budget": 3460711.0, "iati_op_id": "TZ", "inst_descr": "National Execution", "start": "2010-01-01", "operating_unit_id": "TZA", "expenditure": 3042999.0, "document_name": [], "project_id": "00058855", "inst_type_id": "10", "operating_unit_website": "http://www.tz.undp.org/", "project_title": "extending  coastal forests protected areas"}