{"project_descr": "Partnership for Revitalization of Rural Areas\r\nThe purpose of this project is to share the experience of new EU member states with Serbian municipalities regarding preparations for development and implementation of rural development policies.", "fiscal_year": [2013, 2010, 2011, 2012], "end": "2013-12-31", "region_id": "RBEC", "operating_unit_email": "registry.rs@undp.org", "inst_id": "03803", "outputs": [{"output_id": "00074920", "crs": "15110", "donor_id": ["00205"], "focus_area": "1", "gender_descr": "Gender Equality", "output_title": "Rural Areas", "budget": [0.0, 196717.0, 218023.0, 94694.0], "fiscal_year": [2010, 2011, 2012, 2013], "gender_id": "1", "donor_name": ["GOVERNMENT OF ROMANIA"], "award_id": "00059772", "output_descr": "Through a combination of different capacity development methods, such as trainings and pilot projects, this project will help prepare Serbia for implementation of upcoming programmes such as the EU's Instrument for Pre-Assistance for Rural Development (IPARD). Project activities will target the municipalities of Alibunar (including Seleus), Vrsac (including Markovac), Cuprija (including Isakovo) and Bor (including Slatina).", "donor_short": ["ROM"], "expenditure": [60029.0, 157046.0, 165062.0, 73392.0], "crs_descr": "Economic and development policy/planning", "focus_area_descr": "Inclusive & Sustainable Growth"}], "subnational": [{"outputID": "00074920", "output_locID": "00074920-1", "name": "Alibunar, Serbia", "focus_area": "1", "lat": "45.08083", "type": "PPLA2", "awardID": "00059772", "lon": "20.96583", "precision": "3", "focus_area_descr": "Inclusive & Sustainable Growth"}, {"outputID": "00074920", "output_locID": "00074920-2", "name": "Alibunar, Serbia", "focus_area": "1", "lat": "45.08083", "type": "PPLA2", "awardID": "00059772", "lon": "20.96583", "precision": "3", "focus_area_descr": "Inclusive & Sustainable Growth"}, {"outputID": "00074920", "output_locID": "00074920-3", "name": "Bor, Serbia", "focus_area": "1", "lat": "44.07488", "type": "PPLA2", "awardID": "00059772", "lon": "22.09591", "precision": "3", "focus_area_descr": "Inclusive & Sustainable Growth"}, {"outputID": "00074920", "output_locID": "00074920-4", "name": "Cajetina, Serbia", "focus_area": "1", "lat": "43.74977", "type": "PPLA2", "awardID": "00059772", "lon": "19.71273", "precision": "3", "focus_area_descr": "Inclusive & Sustainable Growth"}, {"outputID": "00074920", "output_locID": "00074920-5", "name": "Golubac, Serbia", "focus_area": "1", "lat": "44.65296", "type": "PPLA2", "awardID": "00059772", "lon": "21.63199", "precision": "3", "focus_area_descr": "Inclusive & Sustainable Growth"}, {"outputID": "00074920", "output_locID": "00074920-6", "name": "Kucevo, Serbia", "focus_area": "1", "lat": "44.47293", "type": "ADM2", "awardID": "00059772", "lon": "21.66452", "precision": "3", "focus_area_descr": "Inclusive & Sustainable Growth"}, {"outputID": "00074920", "output_locID": "00074920-7", "name": "Vrsac, Serbia", "focus_area": "1", "lat": "45.11667", "type": "PPLA2", "awardID": "00059772", "lon": "21.30361", "precision": "3", "focus_area_descr": "Inclusive & Sustainable Growth"}, {"outputID": "00074920", "output_locID": "00074920-8", "name": "Zagubica, Serbia", "focus_area": "1", "lat": "44.19654", "type": "ADM2", "awardID": "00059772", "lon": "21.78692", "precision": "3", "focus_area_descr": "Inclusive & Sustainable Growth"}], "operating_unit": "Serbia", "budget": 509434.0, "iati_op_id": "SRB", "inst_descr": "Govt. of Rep. Of Serbia", "start": "2010-04-20", "operating_unit_id": "SRB", "expenditure": 455529.0, "document_name": [["10-04-19_Rural_project_document.pdf"], ["http://www.undp.org/content/dam/undp/documents/projects/SRB/00059772/10-04-19_Rural_project_document.pdf"], ["format"]], "project_id": "00059772", "inst_type_id": "10", "operating_unit_website": "http://www.undp.org.rs/", "project_title": "revitalization of rural areas"}