{"project_descr": "Strengthening Protected Area Financing and Management Systems", "fiscal_year": [2015, 2012, 2013, 2014], "end": "2017-12-31", "region_id": "RBAS", "operating_unit_email": "registry.eg@undp.org", "inst_id": "01028", "outputs": [{"output_id": "00071131", "crs": "41010", "donor_id": ["00012", "11285", "10003"], "focus_area": "2", "gender_descr": "Gender Equality", "output_title": "Protected Areas Fin&Mgmt Syst", "budget": [403033.0, 345910.0, 396756.0, 1168808.0], "fiscal_year": [2012, 2013, 2014, 2015], "gender_id": "1", "donor_name": ["Global Environment Fund Truste", "Egypt - Ministry of State for Environmental Affairs", "Voluntary Contributions"], "award_id": "00057529", "output_descr": "Legal,  Policy, Institutional and Regulatory Framework in place; Financial Resources Adequate; Business Plan&amp;Cost Effective System in Place.", "donor_short": ["GEFTrustee", "EGY-MinEnv", "UNDP"], "expenditure": [0.0, 326552.0, 390809.0, 62356.0], "crs_descr": null, "focus_area_descr": "Democratic Governance"}], "subnational": [{"outputID": "00071131", "output_locID": "00071131-1", "name": "Ra\u2018s Abu Qalum", "focus_area": "2", "lat": "28.624780", "type": "PT", "awardID": "00057529", "lon": "34.574430", "precision": "1", "focus_area_descr": "Democratic Governance"}, {"outputID": "00071131", "output_locID": "00071131-2", "name": "Hurghada", "focus_area": "2", "lat": "27.257380", "type": "PPLA", "awardID": "00057529", "lon": "33.812910", "precision": "1", "focus_area_descr": "Democratic Governance"}, {"outputID": "00071131", "output_locID": "00071131-3", "name": "Red Sea Governorate", "focus_area": "2", "lat": "27.186240", "type": "ADM1", "awardID": "00057529", "lon": "33.788450", "precision": "1", "focus_area_descr": "Democratic Governance"}, {"outputID": "00071131", "output_locID": "00071131-4", "name": "Al Ma\u2018adi", "focus_area": "2", "lat": "29.966670", "type": "PPL", "awardID": "00057529", "lon": "31.250000", "precision": "1", "focus_area_descr": "Democratic Governance"}, {"outputID": "00071131", "output_locID": "00071131-5", "name": "Wadi al \u2018Allaqi", "focus_area": "2", "lat": "22.966670", "type": "WAD", "awardID": "00057529", "lon": "32.900000", "precision": "1", "focus_area_descr": "Democratic Governance"}, {"outputID": "00071131", "output_locID": "00071131-6", "name": "Bughaz Ashtum al Jamil", "focus_area": "2", "lat": "31.285280", "type": "CHN", "awardID": "00057529", "lon": "32.191670", "precision": "1", "focus_area_descr": "Democratic Governance"}, {"outputID": "00071131", "output_locID": "00071131-7", "name": "Maadi Cornish", "focus_area": "2", "lat": "29.978200", "type": "PPL", "awardID": "00057529", "lon": "31.233200", "precision": "1", "focus_area_descr": "Democratic Governance"}, {"outputID": "00071131", "output_locID": "00071131-8", "name": "Bu?ayrat al Burullus", "focus_area": "2", "lat": "31.477220", "type": "LK", "awardID": "00057529", "lon": "30.852280", "precision": "1", "focus_area_descr": "Democratic Governance"}, {"outputID": "00071131", "output_locID": "00071131-9", "name": "Wadi Umm Zaranik", "focus_area": "2", "lat": "30.798250", "type": "WAD", "awardID": "00057529", "lon": "33.900020", "precision": "1", "focus_area_descr": "Democratic Governance"}, {"outputID": "00071131", "output_locID": "00071131-10", "name": "Taba", "focus_area": "2", "lat": "29.491990", "type": "PPL", "awardID": "00057529", "lon": "34.895720", "precision": "1", "focus_area_descr": "Democratic Governance"}, {"outputID": "00071131", "output_locID": "00071131-11", "name": "Siwa Oasis", "focus_area": "2", "lat": "29.192260", "type": "OAS", "awardID": "00057529", "lon": "25.527530", "precision": "1", "focus_area_descr": "Democratic Governance"}, {"outputID": "00071131", "output_locID": "00071131-12", "name": "Qasr al Farafirah", "focus_area": "2", "lat": "27.056800", "type": "PPL", "awardID": "00057529", "lon": "27.969790", "precision": "1", "focus_area_descr": "Democratic Governance"}, {"outputID": "00071131", "output_locID": "00071131-13", "name": "Nag\u2018 Ghazali", "focus_area": "2", "lat": "26.083330", "type": "PPL", "awardID": "00057529", "lon": "32.750000", "precision": "1", "focus_area_descr": "Democratic Governance"}, {"outputID": "00071131", "output_locID": "00071131-14", "name": "Nabq Bay", "focus_area": "2", "lat": "28.040700", "type": "BAY", "awardID": "00057529", "lon": "34.432610", "precision": "1", "focus_area_descr": "Democratic Governance"}, {"outputID": "00071131", "output_locID": "00071131-15", "name": "Ra\u2019s Mu?ammad", "focus_area": "2", "lat": "27.732510", "type": "PT", "awardID": "00057529", "lon": "34.259040", "precision": "1", "focus_area_descr": "Democratic Governance"}, {"outputID": "00071131", "output_locID": "00071131-16", "name": "Arabian Desert", "focus_area": "2", "lat": "28.000000", "type": "DSRT", "awardID": "00057529", "lon": "32.000000", "precision": "1", "focus_area_descr": "Democratic Governance"}, {"outputID": "00071131", "output_locID": "00071131-17", "name": "Sannur", "focus_area": "2", "lat": "28.982240", "type": "PPL", "awardID": "00057529", "lon": "31.049810", "precision": "1", "focus_area_descr": "Democratic Governance"}, {"outputID": "00071131", "output_locID": "00071131-18", "name": "Jazirat Salujah", "focus_area": "2", "lat": "24.072400", "type": "ISL", "awardID": "00057529", "lon": "32.865650", "precision": "1", "focus_area_descr": "Democratic Governance"}, {"outputID": "00071131", "output_locID": "00071131-19", "name": "Wadi ar Rayyan", "focus_area": "2", "lat": "29.150000", "type": "DPR", "awardID": "00057529", "lon": "30.416670", "precision": "1", "focus_area_descr": "Democratic Governance"}, {"outputID": "00071131", "output_locID": "00071131-20", "name": "Wadi ar Rayyan", "focus_area": "2", "lat": "29.150000", "type": "DPR", "awardID": "00057529", "lon": "30.416670", "precision": "1", "focus_area_descr": "Democratic Governance"}, {"outputID": "00071131", "output_locID": "00071131-21", "name": "Sidi Mu?ammad al A?rash", "focus_area": "2", "lat": "27.800000", "type": "TMB", "awardID": "00057529", "lon": "30.833330", "precision": "1", "focus_area_descr": "Democratic Governance"}, {"outputID": "00071131", "output_locID": "00071131-22", "name": "Jabal \u2018Ilbah", "focus_area": "2", "lat": "22.200000", "type": "MT", "awardID": "00057529", "lon": "36.333330", "precision": "1", "focus_area_descr": "Democratic Governance"}, {"outputID": "00071131", "output_locID": "00071131-23", "name": "Wadi al ?asanah", "focus_area": "2", "lat": "30.521800", "type": "WAD", "awardID": "00057529", "lon": "33.791450", "precision": "1", "focus_area_descr": "Democratic Governance"}, {"outputID": "00071131", "output_locID": "00071131-24", "name": "Saint Catherine", "focus_area": "2", "lat": "28.561910", "type": "PPL", "awardID": "00057529", "lon": "33.949340", "precision": "1", "focus_area_descr": "Democratic Governance"}], "operating_unit": "Egypt", "budget": 2314507.0, "iati_op_id": "EG", "inst_descr": "Egyptian Environmental Affairs", "start": "2009-05-27", "operating_unit_id": "EGY", "expenditure": 779717.0, "document_name": [["00057529_Final Project Document - Protected Areas", "57529 Signed Budget Revision Mar 2014", "57529 - Final Project Document - Protected Areas", "Audit"], ["http://www.undp.org/content/dam/undp/documents/projects/EGY/00057529_Final Project Document - Protected Areas.pdf", "http://www.undp.org/content/dam/undp/documents/projects/EGY/57529 Signed Budget Revision Mar 2014.pdf", "http://www.undp.org/content/dam/undp/documents/projects/EGY/57529 - Final Project Document - Protected Areas.pdf", "http://www.undp.org/content/dam/undp/documents/projects/EGY/57529.pdf"], ["pdf", "pdf", "pdf", "pdf"]], "project_id": "00057529", "inst_type_id": "10", "operating_unit_website": "http://www.eg.undp.org/", "project_title": "strengthening protected areas finance&mgmt systems"}