{"project_descr": "Recovery Programming Support for Northern Ghana", "fiscal_year": [2014, 2012, 2013], "end": "2012-12-31", "region_id": "RBA", "operating_unit_email": "registry.gh@undp.org", "inst_id": "99999", "outputs": [{"output_id": "00071174", "crs": "23010", "donor_id": ["00187", "00012"], "focus_area": "1", "gender_descr": "Gender Equality", "output_title": "Recovery Programming Support", "budget": [302061.0, 0.0, 0.0], "fiscal_year": [2012, 2013, 2014], "gender_id": "1", "donor_name": ["GOVERNMENT OF NORWAY", "Voluntary Contributions"], "award_id": "00057556", "output_descr": "Disaster risk planning and programme institutionalized in national planning processes", "donor_short": ["NOR", "UNDP"], "expenditure": [286383.0, 213.0, 89.0], "crs_descr": null, "focus_area_descr": "Inclusive & Sustainable Growth"}], "subnational": [{"outputID": "00071174", "output_locID": "00071174-1", "name": "Bunkpurugu-Yunyoo", "focus_area": "1", "lat": "10.484600", "type": "ADM2", "awardID": "00057556", "lon": "-0.112070", "precision": "1", "focus_area_descr": "Inclusive & Sustainable Growth"}, {"outputID": "00071174", "output_locID": "00071174-2", "name": "Garu-Tempane", "focus_area": "1", "lat": "10.850000", "type": "ADM2", "awardID": "00057556", "lon": "-0.183330", "precision": "1", "focus_area_descr": "Inclusive & Sustainable Growth"}, {"outputID": "00071174", "output_locID": "00071174-3", "name": "Karaga", "focus_area": "1", "lat": "9.905680", "type": "ADM2", "awardID": "00057556", "lon": "-0.535210", "precision": "1", "focus_area_descr": "Inclusive & Sustainable Growth"}, {"outputID": "00071174", "output_locID": "00071174-4", "name": "Sawla-Tuna-Kalba", "focus_area": "1", "lat": "9.273240", "type": "ADM2", "awardID": "00057556", "lon": "-2.413460", "precision": "1", "focus_area_descr": "Inclusive & Sustainable Growth"}, {"outputID": "00071174", "output_locID": "00071174-5", "name": "Sissala West", "focus_area": "1", "lat": "10.705140", "type": "ADM2", "awardID": "00057556", "lon": "-2.108000", "precision": "1", "focus_area_descr": "Inclusive & Sustainable Growth"}, {"outputID": "00071174", "output_locID": "00071174-6", "name": "Talensi-Nabdam", "focus_area": "1", "lat": "10.716670", "type": "ADM2", "awardID": "00057556", "lon": "-0.800000", "precision": "1", "focus_area_descr": "Inclusive & Sustainable Growth"}, {"outputID": "00071174", "output_locID": "00071174-7", "name": "Wa", "focus_area": "1", "lat": "10.060690", "type": "PPLA", "awardID": "00057556", "lon": "-2.501920", "precision": "1", "focus_area_descr": "Inclusive & Sustainable Growth"}, {"outputID": "00071174", "output_locID": "00071174-8", "name": "Yendi", "focus_area": "1", "lat": "9.442720", "type": "PPL", "awardID": "00057556", "lon": "-0.009910", "precision": "1", "focus_area_descr": "Inclusive & Sustainable Growth"}], "operating_unit": "Ghana", "budget": 302061.0, "iati_op_id": "GH", "inst_descr": "UNDP", "start": "2009-01-01", "operating_unit_id": "GHA", "expenditure": 286685.0, "document_name": [["00057556_Ghana - Recovery Project in Northern Ghana_prodoc_Final_April21.2009", "00057556_RECOVERY PRODOC 1"], ["http://www.undp.org/content/dam/undp/documents/projects/GHA/00057556_Ghana - Recovery Project in Northern Ghana_prodoc_Final_April21.2009.doc", "http://www.undp.org/content/dam/undp/documents/projects/GHA/00057556_RECOVERY PRODOC 1.pdf"], ["doc", "pdf"]], "project_id": "00057556", "inst_type_id": "40", "operating_unit_website": "http://www.gh.undp.org/", "project_title": "recovery programming support for northern ghana"}