{"project_descr": "Projet Hydraulique Villageoise", "fiscal_year": [2013, 2010, 2011, 2012], "end": "2012-12-31", "region_id": "RBA", "operating_unit_email": "registry.bj@undp.org", "inst_id": "00238", "outputs": [{"output_id": "00063975", "crs": "15110", "donor_id": ["00012", "00062"], "focus_area": "1", "gender_descr": "Gender Equality", "output_title": "Hydraulique Villageoise", "budget": [0.0, 2143264.0, 289975.0, 53000.0], "fiscal_year": [2010, 2011, 2012, 2013], "gender_id": "1", "donor_name": ["Voluntary Contributions", "GOVERNMENT OF BENIN"], "award_id": "00051397", "output_descr": "Le projet s'inscrit dans la phase d'urgence du programme d'approvisionnement en eau potable en milieu rural dans les d\u00e9partements de l'Atacora et de la Donga.", "donor_short": ["UNDP", "BEN"], "expenditure": [1758413.0, 2128720.0, 280300.0, 52251.0], "crs_descr": "Economic and development policy/planning", "focus_area_descr": "Inclusive & Sustainable Growth"}], "subnational": [{"outputID": "00063975", "output_locID": "00063975-1", "name": "Bassila", "focus_area": "1", "lat": "9.00814", "type": "PPL", "awardID": "00051397", "lon": "1.6654", "precision": "3", "focus_area_descr": "Inclusive & Sustainable Growth"}, {"outputID": "00063975", "output_locID": "00063975-2", "name": "Boukoumbe", "focus_area": "1", "lat": "10.17711", "type": "PPL", "awardID": "00051397", "lon": "1.10621", "precision": "3", "focus_area_descr": "Inclusive & Sustainable Growth"}, {"outputID": "00063975", "output_locID": "00063975-3", "name": "Cobly", "focus_area": "1", "lat": "9.84108", "type": "PPL", "awardID": "00051397", "lon": "1.54231", "precision": "3", "focus_area_descr": "Inclusive & Sustainable Growth"}, {"outputID": "00063975", "output_locID": "00063975-4", "name": "Copargo", "focus_area": "1", "lat": "9.84108", "type": "PPL", "awardID": "00051397", "lon": "1.54231", "precision": "3", "focus_area_descr": "Inclusive & Sustainable Growth"}, {"outputID": "00063975", "output_locID": "00063975-5", "name": "Djougou", "focus_area": "1", "lat": "9.70853", "type": "PPLA", "awardID": "00051397", "lon": "1.66598", "precision": "3", "focus_area_descr": "Inclusive & Sustainable Growth"}, {"outputID": "00063975", "output_locID": "00063975-6", "name": "Kerou", "focus_area": "1", "lat": "10.91433", "type": "ADM2", "awardID": "00051397", "lon": "1.99153", "precision": "3", "focus_area_descr": "Inclusive & Sustainable Growth"}, {"outputID": "00063975", "output_locID": "00063975-7", "name": "Kouande", "focus_area": "1", "lat": "10.33639", "type": "PPL", "awardID": "00051397", "lon": "1.69361", "precision": "3", "focus_area_descr": "Inclusive & Sustainable Growth"}, {"outputID": "00063975", "output_locID": "00063975-8", "name": "Materi", "focus_area": "1", "lat": "10.7986", "type": "ADM2", "awardID": "00051397", "lon": "1.02756", "precision": "3", "focus_area_descr": "Inclusive & Sustainable Growth"}, {"outputID": "00063975", "output_locID": "00063975-9", "name": "Natitingou", "focus_area": "1", "lat": "10.30416", "type": "PPLA", "awardID": "00051397", "lon": "1.37962", "precision": "3", "focus_area_descr": "Inclusive & Sustainable Growth"}, {"outputID": "00063975", "output_locID": "00063975-10", "name": "Ouake", "focus_area": "1", "lat": "9.59959", "type": "ADM2", "awardID": "00051397", "lon": "1.43707", "precision": "3", "focus_area_descr": "Inclusive & Sustainable Growth"}, {"outputID": "00063975", "output_locID": "00063975-11", "name": "Pehunco", "focus_area": "1", "lat": "10.22746", "type": "PPL", "awardID": "00051397", "lon": "2.00192", "precision": "3", "focus_area_descr": "Inclusive & Sustainable Growth"}, {"outputID": "00063975", "output_locID": "00063975-12", "name": "Toukountouna", "focus_area": "1", "lat": "10.51424", "type": "ADM2", "awardID": "00051397", "lon": "1.45527", "precision": "3", "focus_area_descr": "Inclusive & Sustainable Growth"}], "operating_unit": "Benin", "budget": 2486239.0, "iati_op_id": "BJ", "inst_descr": "National Execution", "start": "2009-01-01", "operating_unit_id": "BEN", "expenditure": 4219684.0, "document_name": [], "project_id": "00051397", "inst_type_id": "10", "operating_unit_website": "http://www.bj.undp.org/", "project_title": "hydraulique villageoise"}