{"budget":[769136.0],"document_name":[["Ghana - Recovery Project in Northern Ghana_prodoc_Final_April21.2009.doc","RECOVERY PRODOC 1.pdf"],["http://www.undp.org/content/dam/undp/documents/projects/GHA/00057556/Ghana - Recovery Project in Northern Ghana_prodoc_Final_April21.2009.doc","http://www.undp.org/content/dam/undp/documents/projects/GHA/00057556/RECOVERY PRODOC 1.pdf"]],"end":"2012-12-31","expenditure":[1136793.0],"fiscal_year":["2013","2012","2011","2010"],"iati_op_id":"GH","inst_descr":"UNDP","inst_id":"99999","inst_type_id":"40","operating_unit":"Ghana","operating_unit_email":"registry.gh@undp.org","operating_unit_id":"GHA","operating_unit_website":"http://www.undp-gha.org/site/","outputs":[{"award_id":"00057556","budget":[0.0,302061.0,467075.0,null],"crs":"41010","crs_descr":"Environmental policy and administrative management","donor_id":["00012","00187"],"donor_name":["Voluntary Contributions","GOVERNMENT OF NORWAY"],"donor_short":["UNDP","NOR"],"expenditure":[118.0,286383.0,415396.0,434896.0],"fiscal_year":["2013","2012","2011","2010"],"focus_area":"4","focus_area_descr":"Environment & sustainable development","gender_descr":"Gender Equality","gender_id":"1","output_descr":"1. Existing coordination mechanisms enforced at the regional coordination offices of the three northern regions(i.e. northern, upper east and upper west).\n2. Series of livelihoods activities implemented in the most severely flood affected communities.\n3. Enhanced capacity development support for NADMO.","output_id":"00071174","output_title":"Recovery Programming Support"}],"project_descr":"Recovery Programming Support for Northern Ghana","project_id":"00057556","project_title":"Recovery Programming Support for Northern Ghana","region_id":"RBA","start":"2009-01-01","subnational":[{"awardID":"00057556","focus_area":"4","focus_area_descr":"Environment & sustainable development","lat":"10.4846","lon":"-0.11207","name":"Bunkpurugu","outputID":"00071174","output_locID":"00071174-1","precision":"3","type":"ADM2"},{"awardID":"00057556","focus_area":"4","focus_area_descr":"Environment & sustainable development","lat":"10.4846","lon":"-0.11207","name":"Garu Tempani","outputID":"00071174","output_locID":"00071174-2","precision":"3","type":"ADM2"},{"awardID":"00057556","focus_area":"4","focus_area_descr":"Environment & sustainable development","lat":"9.90568","lon":"-0.53521","name":"Karaga","outputID":"00071174","output_locID":"00071174-3","precision":"3","type":"ADM2"},{"awardID":"00057556","focus_area":"4","focus_area_descr":"Environment & sustainable development","lat":"9.27324","lon":"-2.41346","name":"Sawla Tuna Kalba","outputID":"00071174","output_locID":"00071174-4","precision":"3","type":"ADM2"},{"awardID":"00057556","focus_area":"4","focus_area_descr":"Environment & sustainable development","lat":"10.70514","lon":"-2.108","name":"Sissala West","outputID":"00071174","output_locID":"00071174-5","precision":"3","type":"ADM2"},{"awardID":"00057556","focus_area":"4","focus_area_descr":"Environment & sustainable development","lat":"10.71667","lon":"-0.8","name":"Talensi Nabdam","outputID":"00071174","output_locID":"00071174-6","precision":"3","type":"ADM2"},{"awardID":"00057556","focus_area":"4","focus_area_descr":"Environment & sustainable development","lat":"10.06069","lon":"-2.50192","name":"Wa West","outputID":"00071174","output_locID":"00071174-7","precision":"3","type":"PPLA"},{"awardID":"00057556","focus_area":"4","focus_area_descr":"Environment & sustainable development","lat":"9.44272","lon":"-0.00991","name":"Yendi Municipality","outputID":"00071174","output_locID":"00071174-8","precision":"3","type":"PPL"}]}