{"budget":[1705537.0],"document_name":[["Prodoc ERSAP.pdf"],["http://www.undp.org/content/dam/undp/documents/projects/MLI/00060646/Prodoc ERSAP.pdf"]],"end":"2016-12-31","expenditure":[1034849.0],"fiscal_year":["2013","2012","2011"],"iati_op_id":"ML","inst_descr":"National Execution","inst_id":"02077","inst_type_id":"10","operating_unit":"Mali","operating_unit_email":"registry.ml@undp.org","operating_unit_id":"MLI","operating_unit_website":"http://www.ml.undp.org/","outputs":[{"award_id":"00060646","budget":[490675.0,681195.0,533667.0],"crs":"41010","crs_descr":"Environmental policy and administrative management","donor_id":["00012","00167","10003"],"donor_name":["Voluntary Contributions","GOVERNMENT OF MALI","Global Environment Fund Truste"],"donor_short":["UNDP","MLI","GEFTrustee"],"expenditure":[383134.0,465607.0,186108.0],"fiscal_year":["2013","2012","2011"],"focus_area":"4","focus_area_descr":"Environment & sustainable development","gender_descr":"Gender Equality","gender_id":"1","output_descr":"Le projet vise \u00e0 \u00e9tendre le domaine prot\u00e9g\u00e9 et renforcer l'efficacit\u00e9 de la gestion du syst\u00e8me d'aires prot\u00e9g\u00e9es dans la r\u00e9gion du Sud-ouest et en exp\u00e9rimentant de nouveaux mod\u00e8les de gestion.","output_id":"00076446","output_title":"Expansion et renforcement AP"}],"project_descr":"Le projet vise \u00e0 accro\u00eetre d'une fa\u00e7on significative la couverture des aires prot\u00e9g\u00e9es du Mali, et \u00e0 renforcer l'efficacit\u00e9 du syst\u00e8me de la gestion des aires prot\u00e9g\u00e9es en mettant l'accent sur la r\u00e9gion Sud-Ouest.","project_id":"00060646","project_title":"Aires Prot\u00e9g\u00e9es ERSAP MALI","region_id":"RBA","start":"2011-02-28","subnational":[{"awardID":"00060646","focus_area":"4","focus_area_descr":"Environment & sustainable development","lat":"13.8106","lon":"-10.8264","name":"Bafing","outputID":"00076446","output_locID":"00076446-1","precision":"4","type":"RES"},{"awardID":"00060646","focus_area":"4","focus_area_descr":"Environment & sustainable development","lat":"13.7901","lon":"-9.1777","name":"Boucle du Baoule","outputID":"00076446","output_locID":"00076446-2","precision":"4","type":"RES"},{"awardID":"00060646","focus_area":"4","focus_area_descr":"Environment & sustainable development","lat":"10.85","lon":"-6.8","name":"Digan","outputID":"00076446","output_locID":"00076446-3","precision":"4","type":"PPL"},{"awardID":"00060646","focus_area":"4","focus_area_descr":"Environment & sustainable development","lat":"14.8702","lon":"-6.7629","name":"Gadougou","outputID":"00076446","output_locID":"00076446-4","precision":"4","type":"PPL"},{"awardID":"00060646","focus_area":"4","focus_area_descr":"Environment & sustainable development","lat":"12.58333","lon":"-9.5","name":"Gale","outputID":"00076446","output_locID":"00076446-5","precision":"4","type":"RES"},{"awardID":"00060646","focus_area":"4","focus_area_descr":"Environment & sustainable development","lat":"13.38","lon":"-8.96","name":"Kouroufing","outputID":"00076446","output_locID":"00076446-6","precision":"4","type":"RES"},{"awardID":"00060646","focus_area":"4","focus_area_descr":"Environment & sustainable development","lat":"12.58333","lon":"-10.05","name":"Limakole","outputID":"00076446","output_locID":"00076446-7","precision":"4","type":"RES"},{"awardID":"00060646","focus_area":"4","focus_area_descr":"Environment & sustainable development","lat":"14.68907","lon":"-3.10363","name":"Mande","outputID":"00076446","output_locID":"00076446-8","precision":"4","type":"RES"},{"awardID":"00060646","focus_area":"4","focus_area_descr":"Environment & sustainable development","lat":"14.4843","lon":"-4.18296","name":"Mopti","outputID":"00076446","output_locID":"00076446-9","precision":"4","type":"RES"},{"awardID":"00060646","focus_area":"4","focus_area_descr":"Environment & sustainable development","lat":"13.6278","lon":"-3.7434","name":"Nema","outputID":"00076446","output_locID":"00076446-10","precision":"4","type":"RES"},{"awardID":"00060646","focus_area":"4","focus_area_descr":"Environment & sustainable development","lat":"13.4317","lon":"-6.2157","name":"Segou","outputID":"00076446","output_locID":"00076446-11","precision":"4","type":"RES"},{"awardID":"00060646","focus_area":"4","focus_area_descr":"Environment & sustainable development","lat":"18.54778","lon":"-2.33417","name":"Tombouctou","outputID":"00076446","output_locID":"00076446-12","precision":"4","type":"RES"},{"awardID":"00060646","focus_area":"4","focus_area_descr":"Environment & sustainable development","lat":"12.897","lon":"-10.76","name":"Wongo","outputID":"00076446","output_locID":"00076446-13","precision":"4","type":"RES"},{"awardID":"00060646","focus_area":"4","focus_area_descr":"Environment & sustainable development","lat":"14.8702","lon":"-6.7629","name":"Wula","outputID":"00076446","output_locID":"00076446-14","precision":"4","type":"PPL"}]}