{"project_descr": "Institutional Support to the Judiciary of Southern Sudan (JoSS)", "fiscal_year": [2012, 2016], "end": "2014-12-31", "region_id": "RBA", "operating_unit_email": "info.ssd@undp.org", "inst_id": "02885", "outputs": [{"output_id": "00077717", "crs": "99810", "donor_id": ["00182"], "focus_area": "0", "gender_descr": "Gender Equality", "output_title": "Infrastructure of the JOSS", "budget": [0.0], "fiscal_year": [2016], "gender_id": "1", "donor_name": ["GOVERNMENT OF NETHERLANDS"], "award_id": "00061368", "output_descr": "Development of Infrastructure of the JOSS", "donor_short": ["NET"], "expenditure": [-351.0], "crs_descr": null, "focus_area_descr": "SP_NONE_APPLIES"}, {"output_id": "00077718", "crs": "99810", "donor_id": ["00551", "00182", "10281"], "focus_area": "0", "gender_descr": "Gender Equality", "output_title": "Capacity of Staff Strengthened", "budget": [76893.0], "fiscal_year": [2016], "gender_id": "1", "donor_name": ["GOVERNMENT OF NETHERLANDS", "DEPARTMENT FOR INTERNATIONAL DEVELOPMENT", "DEPARTMENT OF FOREIGN AFFAIRS AND INTERNATIONAL TRADE (DFAIT) GOVERMENT OF CANADA"], "award_id": "00061368", "output_descr": "Strengthen Judiciary of South Sudan staff Capacity", "donor_short": ["NET", "DFID", "DFAIT"], "expenditure": [4825.0], "crs_descr": null, "focus_area_descr": "SP_NONE_APPLIES"}], "subnational": [{"outputID": "00077717", "output_locID": "00077717-1", "name": "Yambio", "focus_area": "0", "lat": "4.572130", "type": "PPLA", "awardID": "00061368", "lon": "28.395490", "precision": "1", "focus_area_descr": "SP_NONE_APPLIES"}, {"outputID": "00077717", "output_locID": "00077717-2", "name": "Qaryat Qoz Rajab", "focus_area": "0", "lat": "16.067200", "type": "PPL", "awardID": "00061368", "lon": "35.555000", "precision": "1", "focus_area_descr": "SP_NONE_APPLIES"}, {"outputID": "00077717", "output_locID": "00077717-3", "name": "Malakal", "focus_area": "0", "lat": "9.533420", "type": "PPLA", "awardID": "00061368", "lon": "31.660480", "precision": "1", "focus_area_descr": "SP_NONE_APPLIES"}, {"outputID": "00077717", "output_locID": "00077717-4", "name": "Juba", "focus_area": "0", "lat": "4.851650", "type": "PPLC", "awardID": "00061368", "lon": "31.582470", "precision": "1", "focus_area_descr": "SP_NONE_APPLIES"}, {"outputID": "00077717", "output_locID": "00077717-5", "name": "Juba", "focus_area": "0", "lat": "4.851650", "type": "PPLC", "awardID": "00061368", "lon": "31.582470", "precision": "1", "focus_area_descr": "SP_NONE_APPLIES"}, {"outputID": "00077717", "output_locID": "00077717-6", "name": "Bor", "focus_area": "0", "lat": "6.205930", "type": "PPLA", "awardID": "00061368", "lon": "31.556330", "precision": "1", "focus_area_descr": "SP_NONE_APPLIES"}, {"outputID": "00077717", "output_locID": "00077717-7", "name": "Western Equatoria", "focus_area": "0", "lat": "5.400000", "type": "ADM1", "awardID": "00061368", "lon": "28.400000", "precision": "1", "focus_area_descr": "SP_NONE_APPLIES"}, {"outputID": "00077717", "output_locID": "00077717-8", "name": "Eastern Equatoria", "focus_area": "0", "lat": "4.900000", "type": "ADM1", "awardID": "00061368", "lon": "33.800000", "precision": "1", "focus_area_descr": "SP_NONE_APPLIES"}, {"outputID": "00077718", "output_locID": "00077718-1", "name": "Yambio", "focus_area": "0", "lat": "4.572130", "type": "PPLA", "awardID": "00061368", "lon": "28.395490", "precision": "1", "focus_area_descr": "SP_NONE_APPLIES"}, {"outputID": "00077718", "output_locID": "00077718-2", "name": "Malakal", "focus_area": "0", "lat": "9.533420", "type": "PPLA", "awardID": "00061368", "lon": "31.660480", "precision": "1", "focus_area_descr": "SP_NONE_APPLIES"}, {"outputID": "00077718", "output_locID": "00077718-3", "name": "Juba", "focus_area": "0", "lat": "4.851650", "type": "PPLC", "awardID": "00061368", "lon": "31.582470", "precision": "1", "focus_area_descr": "SP_NONE_APPLIES"}, {"outputID": "00077718", "output_locID": "00077718-4", "name": "Juba", "focus_area": "0", "lat": "4.851650", "type": "PPLC", "awardID": "00061368", "lon": "31.582470", "precision": "1", "focus_area_descr": "SP_NONE_APPLIES"}, {"outputID": "00077718", "output_locID": "00077718-5", "name": "Al Ferejab Rajab", "focus_area": "0", "lat": "14.566600", "type": "PPL", "awardID": "00061368", "lon": "33.006800", "precision": "1", "focus_area_descr": "SP_NONE_APPLIES"}, {"outputID": "00077718", "output_locID": "00077718-6", "name": "Bor", "focus_area": "0", "lat": "6.205930", "type": "PPLA", "awardID": "00061368", "lon": "31.556330", "precision": "1", "focus_area_descr": "SP_NONE_APPLIES"}, {"outputID": "00077718", "output_locID": "00077718-7", "name": "Western Equatoria", "focus_area": "0", "lat": "5.400000", "type": "ADM1", "awardID": "00061368", "lon": "28.400000", "precision": "1", "focus_area_descr": "SP_NONE_APPLIES"}, {"outputID": "00077718", "output_locID": "00077718-8", "name": "Eastern Equatoria", "focus_area": "0", "lat": "4.900000", "type": "ADM1", "awardID": "00061368", "lon": "33.800000", "precision": "1", "focus_area_descr": "SP_NONE_APPLIES"}], "operating_unit": "South Sudan, Republic of", "budget": 76893.0, "iati_op_id": "SS", "inst_descr": "UNDP (Direct Execution)", "start": "2006-01-01", "operating_unit_id": "SSD", "expenditure": 4474.0, "document_name": [["00061368_JoSS"], ["https://info.undp.org/docs/pdc/Documents/SSD/00061368_JoSS.pdf"], ["pdf"], [3]], "project_id": "00061368", "inst_type_id": "40", "operating_unit_website": null, "project_title": "institutional support to judiciary of southern sudan"}