{"project_descr": "Le projet vise \u00e0 accro\u00eetre d\u2019une fa\u00e7on significative la couverture des aires prot\u00e9g\u00e9es du Mali, et \u00e0 renforcer l\u2019efficacit\u00e9 du syst\u00e8me de la gestion des aires prot\u00e9g\u00e9es en mettant l\u2019accent sur la r\u00e9gion Sud-Ouest.", "fiscal_year": [2015, 2012, 2013, 2014], "end": "2016-12-31", "region_id": "RBA", "operating_unit_email": "registry.ml@undp.org", "inst_id": "02077", "outputs": [{"output_id": "00076446", "crs": null, "donor_id": ["00012", "00167", "10003"], "focus_area": "-", "gender_descr": "Gender Equality", "output_title": "Expansion et renforcement AP", "budget": [587505.0, 490675.0, 746971.0, 605048.0], "fiscal_year": [2012, 2013, 2014, 2015], "gender_id": "1", "donor_name": ["GOVERNMENT OF MALI", "Voluntary Contributions", "Global Environment Fund Truste"], "award_id": "00060646", "output_descr": "Le projet vise \u00e0 accro\u00eetre d\u2019une fa\u00e7on significative la couverture des aires prot\u00e9g\u00e9es du Mali, et \u00e0 renforcer l\u2019efficacit\u00e9 du syst\u00e8me de la gestion des aires prot\u00e9g\u00e9es en mettant l\u2019accent sur la r\u00e9gion Sud-Ouest.", "donor_short": ["MLI", "UNDP", "GEFTrustee"], "expenditure": [465606.0, 383133.0, 822831.0, 577960.0], "crs_descr": null, "focus_area_descr": "-"}], "subnational": [{"outputID": "00076446", "output_locID": "00076446-1", "name": "S\u00e9gou", "focus_area": "-", "lat": "13.431700", "type": "PPLA", "awardID": "00060646", "lon": "-6.215700", "precision": "1", "focus_area_descr": "-"}, {"outputID": "00076446", "output_locID": "00076446-2", "name": "S\u00e9gou", "focus_area": "-", "lat": "13.431700", "type": "PPLA", "awardID": "00060646", "lon": "-6.215700", "precision": "1", "focus_area_descr": "-"}, {"outputID": "00076446", "output_locID": "00076446-3", "name": "For\u00eat Class\u00e9e de Gal\u00e9", "focus_area": "-", "lat": "12.666670", "type": "RESF", "awardID": "00060646", "lon": "-9.416670", "precision": "1", "focus_area_descr": "-"}, {"outputID": "00076446", "output_locID": "00076446-4", "name": "Digan", "focus_area": "-", "lat": "12.130500", "type": "PPL", "awardID": "00060646", "lon": "-7.781610", "precision": "1", "focus_area_descr": "-"}, {"outputID": "00076446", "output_locID": "00076446-5", "name": "Fangadougou", "focus_area": "-", "lat": "14.152000", "type": "PPL", "awardID": "00060646", "lon": "-4.062780", "precision": "1", "focus_area_descr": "-"}, {"outputID": "00076446", "output_locID": "00076446-6", "name": "N\u00e9ma", "focus_area": "-", "lat": "13.627800", "type": "PPL", "awardID": "00060646", "lon": "-3.743400", "precision": "1", "focus_area_descr": "-"}, {"outputID": "00076446", "output_locID": "00076446-7", "name": "Azaou\u00e2d", "focus_area": "-", "lat": "18.547780", "type": "RGN", "awardID": "00060646", "lon": "-2.334170", "precision": "1", "focus_area_descr": "-"}, {"outputID": "00076446", "output_locID": "00076446-8", "name": "Gadougou", "focus_area": "-", "lat": "14.870200", "type": "PPL", "awardID": "00060646", "lon": "-6.762900", "precision": "1", "focus_area_descr": "-"}, {"outputID": "00076446", "output_locID": "00076446-9", "name": "Mand\u00e9", "focus_area": "-", "lat": "14.689070", "type": "PPL", "awardID": "00060646", "lon": "-3.103630", "precision": "1", "focus_area_descr": "-"}, {"outputID": "00076446", "output_locID": "00076446-10", "name": "Bafoulabe Cercle", "focus_area": "-", "lat": "13.666670", "type": "ADM2", "awardID": "00060646", "lon": "-10.666670", "precision": "1", "focus_area_descr": "-"}, {"outputID": "00076446", "output_locID": "00076446-11", "name": "Bafing", "focus_area": "-", "lat": "13.810600", "type": "STM", "awardID": "00060646", "lon": "-10.826400", "precision": "1", "focus_area_descr": "-"}, {"outputID": "00076446", "output_locID": "00076446-12", "name": "Parc National de la Boucle", "focus_area": "-", "lat": "13.790100", "type": "PRK", "awardID": "00060646", "lon": "-9.177700", "precision": "1", "focus_area_descr": "-"}, {"outputID": "00076446", "output_locID": "00076446-13", "name": "Kenieba Cercle", "focus_area": "-", "lat": "12.666670", "type": "ADM2", "awardID": "00060646", "lon": "-11.000000", "precision": "1", "focus_area_descr": "-"}, {"outputID": "00076446", "output_locID": "00076446-14", "name": "Limakol\u00e9", "focus_area": "-", "lat": "12.583330", "type": "PPL", "awardID": "00060646", "lon": "-10.050000", "precision": "1", "focus_area_descr": "-"}, {"outputID": "00076446", "output_locID": "00076446-15", "name": "Mopti", "focus_area": "-", "lat": "14.484300", "type": "PPLA", "awardID": "00060646", "lon": "-4.182960", "precision": "1", "focus_area_descr": "-"}, {"outputID": "00076446", "output_locID": "00076446-16", "name": "Mopti", "focus_area": "-", "lat": "14.484300", "type": "PPLA", "awardID": "00060646", "lon": "-4.182960", "precision": "1", "focus_area_descr": "-"}], "operating_unit": "Mali", "budget": 2430199.0, "iati_op_id": "ML", "inst_descr": "National Execution", "start": "2011-02-28", "operating_unit_id": "MLI", "expenditure": 2249530.0, "document_name": [["00060646_Prodoc ERSAP", "Evaluation \u00e0 mi-parcours du projet Extension et Renforcement du Syst\u00e8me des Aires Prot\u00e9g\u00e9es au Mali (ERSAP)"], ["https://info.undp.org/docs/pdc/Documents/MLI/00060646_Prodoc ERSAP.pdf", "http://erc.undp.org/evaluationadmin/manageevaluation/viewevaluationdetail.html?evalid=7480"], ["pdf", ""], [0, 5]], "project_id": "00060646", "inst_type_id": "10", "operating_unit_website": "http://www.ml.undp.org/", "project_title": "aires prot\u00e9g\u00e9es ersap mali"}