{"project_descr": "The Project will address the institutional capacity and individual competency gaps on climate/disaster risk management of key players in priority cities and municipalities", "fiscal_year": [2015, 2014, 2012, 2013], "end": "2017-12-31", "region_id": "RBAP", "operating_unit_email": "registry.ph@undp.org", "inst_id": "02490", "outputs": [{"output_id": "00092074", "crs": "74010", "donor_id": ["11234"], "focus_area": "5", "gender_descr": "None", "output_title": "RAPID Programme", "budget": [260121.0, 2218062.0], "fiscal_year": [2014, 2015], "gender_id": "0", "donor_name": ["Australian Agency for International Development (AusAID)"], "award_id": "00065172", "output_descr": "Resilience and Preparedness Towards Inclusive Development (RAPID) Programme", "donor_short": ["AusAID"], "expenditure": [161819.0, 198948.0], "crs_descr": null, "focus_area_descr": "Climate Change & Disaster Resilience"}, {"output_id": "00081792", "crs": "74010", "donor_id": ["11234"], "focus_area": "5", "gender_descr": "Gender Equality", "output_title": "Enabling Regs X & XI to Cope", "budget": [263734.0, 872707.0, 1067683.0, 2473684.0], "fiscal_year": [2012, 2013, 2014, 2015], "gender_id": "1", "donor_name": ["Australian Agency for International Development (AusAID)"], "award_id": "00065172", "output_descr": "The Project aims to assess the disaster vulnerabilities of the priority cities and the municipalities natural/meteorologically-induced hazards due to climate change. The results will provide the basis for priority mitigation actions", "donor_short": ["AusAID"], "expenditure": [0.0, 740405.0, 1102479.0, 254935.0], "crs_descr": null, "focus_area_descr": "Climate Change & Disaster Resilience"}], "subnational": [{"outputID": "00081792", "output_locID": "00081792-1", "name": "Tolosa", "focus_area": "5", "lat": "11.100000", "type": "PPLA3", "awardID": "00065172", "lon": "125.016670", "precision": "1", "focus_area_descr": "Climate Change & Disaster Resilience"}, {"outputID": "00081792", "output_locID": "00081792-2", "name": "Tanauan", "focus_area": "5", "lat": "11.109440", "type": "PPLA3", "awardID": "00065172", "lon": "125.015560", "precision": "1", "focus_area_descr": "Climate Change & Disaster Resilience"}, {"outputID": "00081792", "output_locID": "00081792-3", "name": "New Bataan", "focus_area": "5", "lat": "7.516670", "type": "PPL", "awardID": "00065172", "lon": "126.366670", "precision": "1", "focus_area_descr": "Climate Change & Disaster Resilience"}, {"outputID": "00081792", "output_locID": "00081792-4", "name": "Palo", "focus_area": "5", "lat": "9.607170", "type": "PPL", "awardID": "00065172", "lon": "123.999600", "precision": "1", "focus_area_descr": "Climate Change & Disaster Resilience"}, {"outputID": "00081792", "output_locID": "00081792-5", "name": "Boston", "focus_area": "5", "lat": "7.916010", "type": "ADM3", "awardID": "00065172", "lon": "126.278430", "precision": "1", "focus_area_descr": "Climate Change & Disaster Resilience"}, {"outputID": "00081792", "output_locID": "00081792-6", "name": "Cagayan de Oro", "focus_area": "5", "lat": "8.482220", "type": "PPLA", "awardID": "00065172", "lon": "124.647220", "precision": "1", "focus_area_descr": "Climate Change & Disaster Resilience"}, {"outputID": "00081792", "output_locID": "00081792-7", "name": "Iligan City", "focus_area": "5", "lat": "8.250000", "type": "PPL", "awardID": "00065172", "lon": "124.400000", "precision": "1", "focus_area_descr": "Climate Change & Disaster Resilience"}, {"outputID": "00081792", "output_locID": "00081792-8", "name": "Abuyog", "focus_area": "5", "lat": "10.747000", "type": "PPLA3", "awardID": "00065172", "lon": "125.010700", "precision": "1", "focus_area_descr": "Climate Change & Disaster Resilience"}, {"outputID": "00081792", "output_locID": "00081792-9", "name": "Basey", "focus_area": "5", "lat": "11.281670", "type": "PPL", "awardID": "00065172", "lon": "125.068330", "precision": "1", "focus_area_descr": "Climate Change & Disaster Resilience"}, {"outputID": "00081792", "output_locID": "00081792-10", "name": "Balangiga", "focus_area": "5", "lat": "11.109720", "type": "PPL", "awardID": "00065172", "lon": "125.387500", "precision": "1", "focus_area_descr": "Climate Change & Disaster Resilience"}, {"outputID": "00081792", "output_locID": "00081792-11", "name": "Baganga", "focus_area": "5", "lat": "7.573890", "type": "PPL", "awardID": "00065172", "lon": "126.560000", "precision": "1", "focus_area_descr": "Climate Change & Disaster Resilience"}, {"outputID": "00081792", "output_locID": "00081792-12", "name": "Compostela Valley", "focus_area": "5", "lat": "7.607550", "type": "VAL", "awardID": "00065172", "lon": "125.958600", "precision": "1", "focus_area_descr": "Climate Change & Disaster Resilience"}, {"outputID": "00081792", "output_locID": "00081792-13", "name": "Northern Mindanao", "focus_area": "5", "lat": "8.562500", "type": "ADM1", "awardID": "00065172", "lon": "124.612500", "precision": "1", "focus_area_descr": "Climate Change & Disaster Resilience"}, {"outputID": "00081792", "output_locID": "00081792-14", "name": "Opol", "focus_area": "5", "lat": "8.521390", "type": "PPL", "awardID": "00065172", "lon": "124.571110", "precision": "1", "focus_area_descr": "Climate Change & Disaster Resilience"}, {"outputID": "00081792", "output_locID": "00081792-15", "name": "Lawaan", "focus_area": "5", "lat": "8.423400", "type": "PPL", "awardID": "00065172", "lon": "123.819900", "precision": "1", "focus_area_descr": "Climate Change & Disaster Resilience"}, {"outputID": "00081792", "output_locID": "00081792-16", "name": "Tacloban City", "focus_area": "5", "lat": "11.243330", "type": "PPL", "awardID": "00065172", "lon": "125.004720", "precision": "1", "focus_area_descr": "Climate Change & Disaster Resilience"}, {"outputID": "00081792", "output_locID": "00081792-17", "name": "Mayorga", "focus_area": "5", "lat": "10.900000", "type": "PPLA3", "awardID": "00065172", "lon": "125.000000", "precision": "1", "focus_area_descr": "Climate Change & Disaster Resilience"}, {"outputID": "00081792", "output_locID": "00081792-18", "name": "Mati", "focus_area": "5", "lat": "6.955080", "type": "PPLA2", "awardID": "00065172", "lon": "126.216550", "precision": "1", "focus_area_descr": "Climate Change & Disaster Resilience"}, {"outputID": "00081792", "output_locID": "00081792-19", "name": "Cateel", "focus_area": "5", "lat": "7.783330", "type": "ADM3", "awardID": "00065172", "lon": "126.333330", "precision": "1", "focus_area_descr": "Climate Change & Disaster Resilience"}, {"outputID": "00081792", "output_locID": "00081792-20", "name": "Dulag", "focus_area": "5", "lat": "12.502800", "type": "PPL", "awardID": "00065172", "lon": "124.587500", "precision": "1", "focus_area_descr": "Climate Change & Disaster Resilience"}, {"outputID": "00081792", "output_locID": "00081792-21", "name": "MacArthur", "focus_area": "5", "lat": "10.834720", "type": "PPLA3", "awardID": "00065172", "lon": "124.995280", "precision": "1", "focus_area_descr": "Climate Change & Disaster Resilience"}, {"outputID": "00081792", "output_locID": "00081792-22", "name": "Marabut", "focus_area": "5", "lat": "11.866670", "type": "PPL", "awardID": "00065172", "lon": "124.850000", "precision": "1", "focus_area_descr": "Climate Change & Disaster Resilience"}], "operating_unit": "Philippines", "budget": 7155991.0, "iati_op_id": "PH", "inst_descr": "National Execution", "start": "2012-03-15", "operating_unit_id": "PHL", "expenditure": 2458586.0, "document_name": [["Annual work plan 2013", "Project Document-PHL-Environment", "Concept Note-PHL-Environment", "2013 Annual Work Plan-PHL-Environment", "2012 Annual Work Plan-PHL-Environment", "2014 Annual Work Plan-PHL-Environment", "Cost Sharing Agreement-PHL- Environment", "Cost Sharing Agreement-PHL-Environment", "Cost Sharing Agreement Amendment 2-PHL-Environment", "Cost Sharing Agreement Amendment 3-PHL-Environment", "Cost Sharing Agreement Amendment 4-PHL-Environment", "2014 Annual Progress Report- PHL- Environment", "2013 Annual Progress Report- PHL- Environment", "2012 First 3Qtr Progress Report- PHL- Environment"], ["http://www.undp.org/content/dam/undp/documents/projects/PHL/00081792 Twin Phoenix.pdf", "http://www.undp.org/content/dam/undp/documents/projects/PHL/81792 Project Climate Twin Phoenix_Signed Project Document.pdf", "http://www.undp.org/content/dam/undp/documents/projects/PHL/CN_UNDP-DFAT__RAPID_for_Yolanda_areas_FINAL_SIGNED.pdf", "http://www.undp.org/content/dam/undp/documents/projects/PHL/00081792 Twin Phoenix 2013 AWP.pdf", "http://www.undp.org/content/dam/undp/documents/projects/PHL/00081792 Twin Phoenix 2012 AWP.pdf", "http://www.undp.org/content/dam/undp/documents/projects/PHL/92074_RAPID 2014 AWP.pdf", "http://www.undp.org/content/dam/undp/documents/projects/PHL/92074 CSA Project Climate Twin Phoenix TopUp-RAPID Programme.pdf", "http://www.undp.org/content/dam/undp/documents/projects/PHL/81792 Phoenix_AusAID_UNDP CSA_signed Feb2012.pdf", "http://www.undp.org/content/dam/undp/documents/projects/PHL/81792 Amendment 2CSA DFAT_Twin Phoenix.pdf", "http://www.undp.org/content/dam/undp/documents/projects/PHL/81792 CSA_Amendment 3 for Phoenix_Additional AUD 3M_20 June 2014_final signed.pdf", "http://www.undp.org/content/dam/undp/documents/projects/PHL/81792 Phoenix 140924 Amendment 4 Agreement 62001- signed.pdf", "http://www.undp.org/content/dam/undp/documents/projects/PHL/8179292074 APR PCTP andRAPID.pdf", "http://www.undp.org/content/dam/undp/documents/projects/PHL/2013 Annual Project Report_PCTP 81792.pdf", "http://www.undp.org/content/dam/undp/documents/projects/PHL/0081792_ Project Phoenix Progress Report(1st 3 Qtr).pdf"], ["pdf", "pdf", "pdf", "pdf", "pdf", "pdf", "pdf", "pdf", "pdf", "pdf", "pdf", "pdf", "pdf", "pdf"]], "project_id": "00065172", "inst_type_id": "10", "operating_unit_website": "http://www.ph.undp.org/", "project_title": "enabling regions x and xi to cope with climate change"}