{"project_descr": "Provision of comprehensive package of basic services, infrastructure, livelihood support and capacity building for Internally Displaced Persons in Central Mindanao", "fiscal_year": [2014, 2012, 2013], "end": "2014-12-31", "region_id": "RBAP", "operating_unit_email": "registry.ph@undp.org", "inst_id": "02490", "outputs": [{"output_id": "00078216", "crs": "73010", "donor_id": ["00012", "00280"], "focus_area": "6", "gender_descr": "Gender Equality", "output_title": "Recovery for Central Mindanao", "budget": [3281766.0, 256414.0, 115624.0], "fiscal_year": [2012, 2013, 2014], "gender_id": "1", "donor_name": ["EUROPEAN ECONOMIC COMMUNITY", "Voluntary Contributions"], "award_id": "00061655", "output_descr": "Contributes to the efforts of national and local government in facilitating th return or resettlement and early recovery of populations displaced by the armed conflict from August 2008 onwards in Central Mindanao", "donor_short": ["EU", "UNDP"], "expenditure": [2997998.0, 181241.0, 0.0], "crs_descr": null, "focus_area_descr": "Crisis Prevention & Recovery"}], "subnational": [{"outputID": "00078216", "output_locID": "00078216-1", "name": "Bacolod City", "focus_area": "6", "lat": "10.666670", "type": "PPLA2", "awardID": "00061655", "lon": "122.950000", "precision": "1", "focus_area_descr": "Crisis Prevention & Recovery"}, {"outputID": "00078216", "output_locID": "00078216-2", "name": "Dila-usan", "focus_area": "6", "lat": "7.916670", "type": "PPL", "awardID": "00061655", "lon": "124.200000", "precision": "1", "focus_area_descr": "Crisis Prevention & Recovery"}, {"outputID": "00078216", "output_locID": "00078216-3", "name": "Butig", "focus_area": "6", "lat": "7.724440", "type": "PPLA3", "awardID": "00061655", "lon": "124.300830", "precision": "1", "focus_area_descr": "Crisis Prevention & Recovery"}, {"outputID": "00078216", "output_locID": "00078216-4", "name": "Kauswagan", "focus_area": "6", "lat": "8.191670", "type": "PPLA3", "awardID": "00061655", "lon": "124.084720", "precision": "1", "focus_area_descr": "Crisis Prevention & Recovery"}, {"outputID": "00078216", "output_locID": "00078216-5", "name": "Kolambugan", "focus_area": "6", "lat": "8.114400", "type": "PPL", "awardID": "00061655", "lon": "123.897100", "precision": "1", "focus_area_descr": "Crisis Prevention & Recovery"}, {"outputID": "00078216", "output_locID": "00078216-6", "name": "Linamon", "focus_area": "6", "lat": "8.186030", "type": "PPLA3", "awardID": "00061655", "lon": "124.162760", "precision": "1", "focus_area_descr": "Crisis Prevention & Recovery"}, {"outputID": "00078216", "output_locID": "00078216-7", "name": "Madalum", "focus_area": "6", "lat": "7.883330", "type": "ADM3", "awardID": "00061655", "lon": "124.083330", "precision": "1", "focus_area_descr": "Crisis Prevention & Recovery"}, {"outputID": "00078216", "output_locID": "00078216-8", "name": "Munai", "focus_area": "6", "lat": "7.950000", "type": "ADM3", "awardID": "00061655", "lon": "124.066670", "precision": "1", "focus_area_descr": "Crisis Prevention & Recovery"}, {"outputID": "00078216", "output_locID": "00078216-9", "name": "Piagapo", "focus_area": "6", "lat": "8.000000", "type": "PPL", "awardID": "00061655", "lon": "124.200000", "precision": "1", "focus_area_descr": "Crisis Prevention & Recovery"}, {"outputID": "00078216", "output_locID": "00078216-10", "name": "Pikit", "focus_area": "6", "lat": "7.054440", "type": "PPLA3", "awardID": "00061655", "lon": "124.671940", "precision": "1", "focus_area_descr": "Crisis Prevention & Recovery"}, {"outputID": "00078216", "output_locID": "00078216-11", "name": "San Salvador", "focus_area": "6", "lat": "15.526400", "type": "PPL", "awardID": "00061655", "lon": "119.926400", "precision": "1", "focus_area_descr": "Crisis Prevention & Recovery"}, {"outputID": "00078216", "output_locID": "00078216-12", "name": "Talayan", "focus_area": "6", "lat": "6.966670", "type": "ADM3", "awardID": "00061655", "lon": "124.416670", "precision": "1", "focus_area_descr": "Crisis Prevention & Recovery"}, {"outputID": "00078216", "output_locID": "00078216-13", "name": "Talitay", "focus_area": "6", "lat": "7.040560", "type": "PPL", "awardID": "00061655", "lon": "124.366390", "precision": "1", "focus_area_descr": "Crisis Prevention & Recovery"}, {"outputID": "00078216", "output_locID": "00078216-14", "name": "Tulunan", "focus_area": "6", "lat": "6.816670", "type": "ADM3", "awardID": "00061655", "lon": "124.966670", "precision": "1", "focus_area_descr": "Crisis Prevention & Recovery"}], "operating_unit": "Philippines", "budget": 3653804.0, "iati_op_id": "PH", "inst_descr": "National Execution", "start": "2011-01-15", "operating_unit_id": "PHL", "expenditure": 3179239.0, "document_name": [], "project_id": "00061655", "inst_type_id": "10", "operating_unit_website": "http://www.ph.undp.org/", "project_title": "early recovery and rehabilitation for mindanao"}