{"project_descr": "Enhancing resilience of communities in Solomon Islands to the adverse effects of climate change in agriculture and food security", "fiscal_year": [2015, 2012, 2013, 2014], "end": "2016-12-31", "region_id": "RBAP", "operating_unit_email": "registry.fj@undp.org", "inst_id": "01224", "outputs": [{"output_id": "00078069", "crs": "51010", "donor_id": ["11602"], "focus_area": "8", "gender_descr": "Gender Equality", "output_title": "Resilience to Climate Change", "budget": [991084.0, 2148850.0, 1749751.0, 1846100.0], "fiscal_year": [2012, 2013, 2014, 2015], "gender_id": "1", "donor_name": ["Adaptation Fund  (AF)"], "award_id": "00061585", "output_descr": "The project addresses one of the priorities identified in the Solomon Islands National Adaptation Programme of Action (NAPA); agriculture and food security as one of the most vulnerable sectors requiring urgent attention.", "donor_short": ["AF"], "expenditure": [0.0, 710064.0, 1840129.0, 195483.0], "crs_descr": null, "focus_area_descr": "South-South"}], "subnational": [{"outputID": "00078069", "output_locID": "00078069-1", "name": "Makira-Ulawa Province", "focus_area": "8", "lat": "-10.557510", "type": "ADM1", "awardID": "00061585", "lon": "161.785170", "precision": "1", "focus_area_descr": "South-South"}, {"outputID": "00078069", "output_locID": "00078069-2", "name": "Malaita Province", "focus_area": "8", "lat": "-9.000000", "type": "ADM1", "awardID": "00061585", "lon": "161.000000", "precision": "1", "focus_area_descr": "South-South"}, {"outputID": "00078069", "output_locID": "00078069-3", "name": "Isabel Province", "focus_area": "8", "lat": "-8.053790", "type": "ADM1", "awardID": "00061585", "lon": "159.136960", "precision": "1", "focus_area_descr": "South-South"}, {"outputID": "00078069", "output_locID": "00078069-4", "name": "Honiara", "focus_area": "8", "lat": "-9.433330", "type": "PPLC", "awardID": "00061585", "lon": "159.950000", "precision": "1", "focus_area_descr": "South-South"}, {"outputID": "00078069", "output_locID": "00078069-5", "name": "Guadalcanal Province", "focus_area": "8", "lat": "-9.633330", "type": "ADM1", "awardID": "00061585", "lon": "160.200000", "precision": "1", "focus_area_descr": "South-South"}, {"outputID": "00078069", "output_locID": "00078069-6", "name": "Choiseul", "focus_area": "8", "lat": "-6.991860", "type": "ADM1", "awardID": "00061585", "lon": "156.862790", "precision": "1", "focus_area_descr": "South-South"}], "operating_unit": "Solomon Islands", "budget": 6735785.0, "iati_op_id": "SB", "inst_descr": null, "start": "2011-04-01", "operating_unit_id": "SLB", "expenditure": 2745676.0, "document_name": [["Adaptation Fund Solomon Islands Project Document"], ["http://www.undp.org/content/dam/undp/documents/projects/SLB/Signed Prodoc SOI AF PIMS 4451 SWoCK.pdf"], ["pdf"]], "project_id": "00061585", "inst_type_id": "", "operating_unit_website": "http://www.fj.undp.org/", "project_title": "resilience of communities to climate change adaptation"}