{"budget":[1711997.0],"document_name":[["00061133_Social Inclusion_IPA2010_UNDP_MNE_031110.doc","MNE%20CPAP%202012%20-%202016"],["http://www.undp.org/content/dam/undp/documents/projects/MNE/00061133_Social Inclusion_IPA2010_UNDP_MNE_031110.doc","http://www.me.undp.org/content/dam/montenegro/docs/legalfrmw/MNE CPAP 2012 - 2016.pdf"]],"end":"2014-07-09","expenditure":[1690442.0],"fiscal_year":["2014","2013","2012","2011"],"iati_op_id":"ME","inst_descr":"UNDP","inst_id":"99999","inst_type_id":"40","operating_unit":"Montenegro","operating_unit_email":"registry.me@undp.org","operating_unit_id":"MNE","operating_unit_website":"http://www.me.undp.org/","outputs":[{"award_id":"00061133","budget":[249607.0,545155.0,577695.0,339540.0],"crs":"15110","crs_descr":"Public sector policy and administrative management","donor_id":["10159"],"donor_name":["EUROPEAN COMMISSION"],"donor_short":["EUCOMM"],"expenditure":[250241.0,524476.0,579809.0,335916.0],"fiscal_year":["2014","2013","2012","2011"],"focus_area":"5","focus_area_descr":"South-South","gender_descr":"Gender Equality","gender_id":"1","output_descr":"Project Social Welfare Reform  Enhancing Social Inclusion builds and strengthens the institutional mechanisms and capacities that will enable development of community-based social services.","output_id":"00077318","output_title":"Social Welfare Reform - IPA"}],"project_descr":"Project Social Welfare Reform  Enhancing Social Inclusion builds and strengthens the institutional mechanisms and capacities that will enable development of community-based social services.","project_id":"00061133","project_title":"Social Welfare Reform - IPA project","region_id":"RBEC","start":"2011-01-15","subnational":[{"awardID":"00061133","focus_area":"5","focus_area_descr":"South-South","lat":"42.09306","lon":"19.10028","name":"Bar, Montenegro","outputID":"00077318","output_locID":"00077318-1","precision":"4","type":"ADM1"},{"awardID":"00061133","focus_area":"5","focus_area_descr":"South-South","lat":"43.04472","lon":"19.74333","name":"Bijelo Polje, Montenegro","outputID":"00077318","output_locID":"00077318-2","precision":"4","type":"ADM1"},{"awardID":"00061133","focus_area":"5","focus_area_descr":"South-South","lat":"42.39063","lon":"18.91417","name":"Cetinje, Montenegro","outputID":"00077318","output_locID":"00077318-3","precision":"3","type":"PPLC"},{"awardID":"00061133","focus_area":"5","focus_area_descr":"South-South","lat":"42.95917","lon":"19.58833","name":"Mojkovac, Montenegro","outputID":"00077318","output_locID":"00077318-4","precision":"4","type":"ADM1"},{"awardID":"00061133","focus_area":"5","focus_area_descr":"South-South","lat":"42.79944","lon":"18.92028","name":"Niksic, Montenegro","outputID":"00077318","output_locID":"00077318-5","precision":"3","type":"PPLC"},{"awardID":"00061133","focus_area":"5","focus_area_descr":"South-South","lat":"43.17417","lon":"18.81694","name":"Pluzine, Montenegro","outputID":"00077318","output_locID":"00077318-6","precision":"4","type":"ADM1"},{"awardID":"00061133","focus_area":"5","focus_area_descr":"South-South","lat":"42.44111","lon":"19.26361","name":"Podgorica, Montenegro","outputID":"00077318","output_locID":"00077318-7","precision":"4","type":"ADM1"},{"awardID":"00061133","focus_area":"5","focus_area_descr":"South-South","lat":"42.95639","lon":"19.09389","name":"Savnik, Montenegro","outputID":"00077318","output_locID":"00077318-8","precision":"4","type":"ADM1"},{"awardID":"00061133","focus_area":"5","focus_area_descr":"South-South","lat":"41.95528","lon":"19.26833","name":"Ulcinj, Montenegro","outputID":"00077318","output_locID":"00077318-9","precision":"3","type":"PPL"}]}