{"project_descr": "Project Social Welfare Reform \u2013 Enhancing Social Inclusion builds and strengthens the institutional mechanisms and capacities that will enable development of community-based social services.", "fiscal_year": [2015, 2012, 2013, 2014], "end": "2014-12-31", "region_id": "RBEC", "operating_unit_email": "registry.me@undp.org", "inst_id": "99999", "outputs": [{"output_id": "00077318", "crs": "16010", "donor_id": ["10159"], "focus_area": "8", "gender_descr": "Gender Equality", "output_title": "Social Welfare Reform - IPA", "budget": [577695.0, 545155.0, 262583.0, 0.0], "fiscal_year": [2012, 2013, 2014, 2015], "gender_id": "1", "donor_name": ["EUROPEAN COMMISSION"], "award_id": "00061133", "output_descr": "Project Social Welfare Reform \u2013 Enhancing Social Inclusion builds and strengthens the institutional mechanisms and capacities that will enable development of community-based social services.", "donor_short": ["EUCOMM"], "expenditure": [0.0, 539222.0, 262739.0, 0.0], "crs_descr": null, "focus_area_descr": "South-South"}], "subnational": [{"outputID": "00077318", "output_locID": "00077318-1", "name": "Podgorica", "focus_area": "8", "lat": "42.500000", "type": "ADM1", "awardID": "00061133", "lon": "19.333330", "precision": "1", "focus_area_descr": "South-South"}, {"outputID": "00077318", "output_locID": "00077318-2", "name": "Ulcinj", "focus_area": "8", "lat": "41.955280", "type": "ADM1", "awardID": "00061133", "lon": "19.268330", "precision": "1", "focus_area_descr": "South-South"}, {"outputID": "00077318", "output_locID": "00077318-3", "name": "Op\u0161tina \u0160avnik", "focus_area": "8", "lat": "42.956390", "type": "ADM1", "awardID": "00061133", "lon": "19.093890", "precision": "1", "focus_area_descr": "South-South"}, {"outputID": "00077318", "output_locID": "00077318-4", "name": "Op\u0161tina Nik\u0161ic", "focus_area": "8", "lat": "42.799440", "type": "ADM1", "awardID": "00061133", "lon": "18.920280", "precision": "1", "focus_area_descr": "South-South"}, {"outputID": "00077318", "output_locID": "00077318-5", "name": "Op\u0161tina Plu\u017eine", "focus_area": "8", "lat": "43.174170", "type": "ADM1", "awardID": "00061133", "lon": "18.816940", "precision": "1", "focus_area_descr": "South-South"}, {"outputID": "00077318", "output_locID": "00077318-6", "name": "Mojkovac", "focus_area": "8", "lat": "42.959170", "type": "ADM1", "awardID": "00061133", "lon": "19.588330", "precision": "1", "focus_area_descr": "South-South"}, {"outputID": "00077318", "output_locID": "00077318-7", "name": "Op\u0161tina Nik\u0161ic", "focus_area": "8", "lat": "42.799440", "type": "ADM1", "awardID": "00061133", "lon": "18.920280", "precision": "1", "focus_area_descr": "South-South"}, {"outputID": "00077318", "output_locID": "00077318-8", "name": "Bijelo Polje", "focus_area": "8", "lat": "43.044720", "type": "ADM1", "awardID": "00061133", "lon": "19.743330", "precision": "1", "focus_area_descr": "South-South"}, {"outputID": "00077318", "output_locID": "00077318-9", "name": "Bar", "focus_area": "8", "lat": "42.166670", "type": "ADM1", "awardID": "00061133", "lon": "19.166670", "precision": "1", "focus_area_descr": "South-South"}, {"outputID": "00077318", "output_locID": "00077318-10", "name": "Cetinje", "focus_area": "8", "lat": "42.390630", "type": "PPLA", "awardID": "00061133", "lon": "18.914170", "precision": "1", "focus_area_descr": "South-South"}, {"outputID": "00077318", "output_locID": "00077318-11", "name": "Mojkovac", "focus_area": "8", "lat": "42.959170", "type": "ADM1", "awardID": "00061133", "lon": "19.588330", "precision": "1", "focus_area_descr": "South-South"}], "operating_unit": "Montenegro", "budget": 1385433.0, "iati_op_id": "ME", "inst_descr": "UNDP", "start": "2011-01-15", "operating_unit_id": "MNE", "expenditure": 801961.0, "document_name": [["00061133_Social Inclusion_IPA2010_UNDP_MNE_031110"], ["http://www.undp.org/content/dam/undp/documents/projects/MNE/00061133_Social Inclusion_IPA2010_UNDP_MNE_031110.doc"], ["doc"]], "project_id": "00061133", "inst_type_id": "40", "operating_unit_website": "http://www.me.undp.org/", "project_title": "social welfare reform - ipa project"}