{"project_descr": "Small Wind Energy Development Promotion in Rural Areas", "fiscal_year": [2013, 2012], "end": "2013-12-31", "region_id": "RBAP", "operating_unit_email": "registry.kp@undp.org", "inst_id": "99999", "outputs": [{"output_id": "00076431", "crs": "23030", "donor_id": ["00012", "10003"], "disbursement": [], "focus_area": "1", "gender_descr": "Gender Equality", "output_title": "Small Wind Energy Development", "budget": [304400.0, 140033.0], "fiscal_year": [2012, 2013], "gender_id": "1", "expenditure": [281795.0, 127599.0], "award_id": "00060636", "output_descr": "Improvement in small wind energy systems for increase of renewable energy use in rural areas.", "donor_short": ["UNDP", "GEFTrustee"], "donor_name": ["Voluntary Contributions", "Global Environment Fund Truste"], "crs_descr": null, "focus_area_descr": "Inclusive & Sustainable Growth"}], "subnational": [{"outputID": "00076431", "output_locID": "00076431-1", "name": "Yomju-gun", "focus_area": "1", "lat": "39.881980", "type": "ADM2", "awardID": "00060636", "lon": "124.538170", "precision": "1", "focus_area_descr": "Inclusive & Sustainable Growth"}, {"outputID": "00076431", "output_locID": "00076431-2", "name": "Yangdok-kun", "focus_area": "1", "lat": "39.190560", "type": "ADM2", "awardID": "00060636", "lon": "126.805280", "precision": "1", "focus_area_descr": "Inclusive & Sustainable Growth"}, {"outputID": "00076431", "output_locID": "00076431-3", "name": "Unjon-gun", "focus_area": "1", "lat": "39.680830", "type": "ADM2", "awardID": "00060636", "lon": "125.431940", "precision": "1", "focus_area_descr": "Inclusive & Sustainable Growth"}, {"outputID": "00076431", "output_locID": "00076431-4", "name": "Sukch\u2019on-gun", "focus_area": "1", "lat": "39.400830", "type": "ADM2", "awardID": "00060636", "lon": "125.586110", "precision": "1", "focus_area_descr": "Inclusive & Sustainable Growth"}, {"outputID": "00076431", "output_locID": "00076431-5", "name": "P\u2019yongsong", "focus_area": "1", "lat": "39.246390", "type": "PPLA", "awardID": "00060636", "lon": "125.871940", "precision": "1", "focus_area_descr": "Inclusive & Sustainable Growth"}, {"outputID": "00076431", "output_locID": "00076431-6", "name": "Onch\u2019on", "focus_area": "1", "lat": "38.881110", "type": "PPL", "awardID": "00060636", "lon": "125.226940", "precision": "1", "focus_area_descr": "Inclusive & Sustainable Growth"}, {"outputID": "00076431", "output_locID": "00076431-7", "name": "Kwail-up", "focus_area": "1", "lat": "38.446110", "type": "PPL", "awardID": "00060636", "lon": "125.018610", "precision": "1", "focus_area_descr": "Inclusive & Sustainable Growth"}, {"outputID": "00076431", "output_locID": "00076431-8", "name": "Ch\u2019olsan-gun", "focus_area": "1", "lat": "39.749170", "type": "ADM2", "awardID": "00060636", "lon": "124.643060", "precision": "1", "focus_area_descr": "Inclusive & Sustainable Growth"}], "operating_unit": "Democr People's Repub of Korea", "budget": 444433.0, "iati_op_id": "KP", "inst_descr": "UNDP", "start": "2010-10-01", "operating_unit_id": "PRK", "expenditure": 409394.0, "document_name": [["00060636_Small Wind Energy Development_project document", "PIMS 751 SWEDPRA Terminal Evaluation Report FINAL"], ["https://info.undp.org/docs/pdc/Documents/PRK/00060636_Small Wind Energy Development_project document.pdf", "https://info.undp.org/docs/pdc/Documents/PRK/PIMS 751 SWEDPRA Terminal Evaluation Report- FINAL.pdf"], ["pdf", "pdf"], [0, 5]], "project_id": "00060636", "inst_type_id": "40", "operating_unit_website": null, "project_title": "small wind energy development promotion in rural areas"}