{"project_descr": "Strengthen the capacity of the Ministry of Legal Affairs and Constitutional Development (MOLACD) to ensure the respect for rule of law, due process and access to justice in Southern Sudan", "fiscal_year": [2012], "end": "2012-12-31", "region_id": "RBA", "operating_unit_email": "info.ssd@undp.org", "inst_id": "02885", "outputs": [{"output_id": "00077715", "crs": "99810", "donor_id": ["00182", "10281"], "focus_area": "0", "gender_descr": "Gender Equality", "output_title": "Institutional Support to MOLAC", "budget": [1.0], "fiscal_year": [2012], "gender_id": "1", "donor_name": ["GOVERNMENT OF NETHERLANDS", "DEPARTMENT OF FOREIGN AFFAIRS AND INTERNATIONAL TRADE (DFAIT) GOVERMENT OF CANADA"], "award_id": "00061366", "output_descr": "This project supports the government priority on implementation of the CPA and peaceful resolution of conflicts in Southern Sudan through reinforcing the Ministry of Legal Affairs and Regional State Attorneys.", "donor_short": ["NET", "DFAIT"], "expenditure": [-1219.0], "crs_descr": null, "focus_area_descr": "SP_NONE_APPLIES"}], "subnational": [{"outputID": "00077715", "output_locID": "00077715-1", "name": "Yambio", "focus_area": "0", "lat": "4.572130", "type": "PPLA", "awardID": "00061366", "lon": "28.395490", "precision": "1", "focus_area_descr": "SP_NONE_APPLIES"}, {"outputID": "00077715", "output_locID": "00077715-2", "name": "Torit", "focus_area": "0", "lat": "4.411770", "type": "PPLA", "awardID": "00061366", "lon": "32.570460", "precision": "1", "focus_area_descr": "SP_NONE_APPLIES"}, {"outputID": "00077715", "output_locID": "00077715-3", "name": "Rumbek", "focus_area": "0", "lat": "6.806190", "type": "PPLA", "awardID": "00061366", "lon": "29.677420", "precision": "1", "focus_area_descr": "SP_NONE_APPLIES"}, {"outputID": "00077715", "output_locID": "00077715-4", "name": "Malakal", "focus_area": "0", "lat": "9.533420", "type": "PPLA", "awardID": "00061366", "lon": "31.660480", "precision": "1", "focus_area_descr": "SP_NONE_APPLIES"}, {"outputID": "00077715", "output_locID": "00077715-5", "name": "Juba", "focus_area": "0", "lat": "4.851650", "type": "PPLC", "awardID": "00061366", "lon": "31.582470", "precision": "1", "focus_area_descr": "SP_NONE_APPLIES"}, {"outputID": "00077715", "output_locID": "00077715-6", "name": "Juba", "focus_area": "0", "lat": "4.851650", "type": "PPLC", "awardID": "00061366", "lon": "31.582470", "precision": "1", "focus_area_descr": "SP_NONE_APPLIES"}, {"outputID": "00077715", "output_locID": "00077715-7", "name": "Juba", "focus_area": "0", "lat": "4.851650", "type": "PPLC", "awardID": "00061366", "lon": "31.582470", "precision": "1", "focus_area_descr": "SP_NONE_APPLIES"}, {"outputID": "00077715", "output_locID": "00077715-8", "name": "Juba", "focus_area": "0", "lat": "4.851650", "type": "PPLC", "awardID": "00061366", "lon": "31.582470", "precision": "1", "focus_area_descr": "SP_NONE_APPLIES"}, {"outputID": "00077715", "output_locID": "00077715-9", "name": "Bor", "focus_area": "0", "lat": "6.205930", "type": "PPLA", "awardID": "00061366", "lon": "31.556330", "precision": "1", "focus_area_descr": "SP_NONE_APPLIES"}, {"outputID": "00077715", "output_locID": "00077715-10", "name": "Bor", "focus_area": "0", "lat": "6.205930", "type": "PPLA", "awardID": "00061366", "lon": "31.556330", "precision": "1", "focus_area_descr": "SP_NONE_APPLIES"}, {"outputID": "00077715", "output_locID": "00077715-11", "name": "Bentiu", "focus_area": "0", "lat": "9.233330", "type": "PPLA", "awardID": "00061366", "lon": "29.833330", "precision": "1", "focus_area_descr": "SP_NONE_APPLIES"}, {"outputID": "00077715", "output_locID": "00077715-12", "name": "Bahr al Ghazal Wilayat", "focus_area": "0", "lat": "8.000000", "type": "ADMD", "awardID": "00061366", "lon": "28.000000", "precision": "1", "focus_area_descr": "SP_NONE_APPLIES"}, {"outputID": "00077715", "output_locID": "00077715-13", "name": "Unity", "focus_area": "0", "lat": "8.650000", "type": "ADM1", "awardID": "00061366", "lon": "29.850000", "precision": "1", "focus_area_descr": "SP_NONE_APPLIES"}, {"outputID": "00077715", "output_locID": "00077715-14", "name": "Unity", "focus_area": "0", "lat": "8.650000", "type": "ADM1", "awardID": "00061366", "lon": "29.850000", "precision": "1", "focus_area_descr": "SP_NONE_APPLIES"}, {"outputID": "00077715", "output_locID": "00077715-15", "name": "Western Equatoria", "focus_area": "0", "lat": "5.400000", "type": "ADM1", "awardID": "00061366", "lon": "28.400000", "precision": "1", "focus_area_descr": "SP_NONE_APPLIES"}, {"outputID": "00077715", "output_locID": "00077715-16", "name": "Warrap State", "focus_area": "0", "lat": "8.000000", "type": "ADM1", "awardID": "00061366", "lon": "28.850000", "precision": "1", "focus_area_descr": "SP_NONE_APPLIES"}, {"outputID": "00077715", "output_locID": "00077715-17", "name": "Eastern Darfur State", "focus_area": "0", "lat": "11.166670", "type": "ADM1", "awardID": "00061366", "lon": "26.500000", "precision": "1", "focus_area_descr": "SP_NONE_APPLIES"}], "operating_unit": "South Sudan, Republic of", "budget": 1.0, "iati_op_id": "SS", "inst_descr": "UNDP (Direct Execution)", "start": "2011-01-01", "operating_unit_id": "SSD", "expenditure": -1219.0, "document_name": [["00061366_MOLACD"], ["https://info.undp.org/docs/pdc/Documents/SSD/00061366_MOLACD.pdf"], ["pdf"], [3]], "project_id": "00061366", "inst_type_id": "40", "operating_unit_website": null, "project_title": "institutional support to molacd"}