{"budget":[6957330.0],"document_name":[["APR-2011.pdf","Adv._Authorizat.___Proj._Docum.I-3-06-010.pdf","Adv._Authorizat.___Proj._Docum.II-3-06-010.pdf","00060018_APR_2012.pdf"],["http://www.undp.org/content/dam/undp/documents/projects/NPL/00060018/APR-2011.pdf","http://www.undp.org/content/dam/undp/documents/projects/NPL/00060018/Adv._Authorizat.___Proj._Docum.I-3-06-010.pdf","http://www.undp.org/content/dam/undp/documents/projects/NPL/00060018/Adv._Authorizat.___Proj._Docum.II-3-06-010.pdf","http://www.undp.org/content/dam/undp/documents/projects/NPL/00060018_APR_2012.pdf"]],"end":"2013-07-31","expenditure":[8565871.0],"fiscal_year":["2013","2012","2011","2010"],"iati_op_id":"NP","inst_descr":"UNDP (Direct Execution)","inst_id":"02240","inst_type_id":"40","operating_unit":"Nepal","operating_unit_id":"NPL","outputs":[{"award_id":"00060018","budget":[955256.0,2380374.0,3621700.0,null],"crs":"15210","crs_descr":"Security system management and reform","donor_id":["00012","10714","10741"],"donor_name":["Voluntary Contributions","UNDP AS ADMINISTRATIVE AGENT FOR A JOINT PROGRAMME PASS THROUGH ARRANGEMENT","PER - MUNICIPALIDAD PROVINCIAL DE AMAZONAS"],"donor_short":["UNDP","UNDP(JPAA)"],"expenditure":[645162.0,2269500.0,3433026.0,2218183.0],"fiscal_year":["2013","2012","2011","2010"],"focus_area":"3","focus_area_descr":"Crisis prevention & recovery","gender_descr":"Gender Equality","gender_id":"1","output_descr":"UN Interagency Rehabilitation Programme","output_id":"00075334","output_title":"UN Interagency Rehabilitation"}],"project_descr":"Support to the Rehabiliation of Verified Minors and Late Recruits","project_id":"00060018","project_title":"UN Interagency Rehabilitation Programme (UNIRP)","region_id":"RBAP","start":"2010-04-01","subnational":[{"awardID":"00060018","lat":"27.68333","lon":"84.43333","name":"Bharatpur","precision":"3","type":"PPL"},{"awardID":"00060018","lat":"26.4831","lon":"87.28337","name":"Biratnagar","precision":"3","type":"PPL"},{"awardID":"00060018","lat":"28.05","lon":"81.61667","name":"Nepalgunj","precision":"3","type":"PPL"},{"awardID":"00060018","lat":"28.70793","lon":"80.56686","name":"Dhangadi","precision":"3","type":"PPL"},{"awardID":"00060018","lat":"27.70169","lon":"85.3206","name":"Kathmandu","precision":"3","type":"PPLC"}]}