{"budget":[576924.0],"document_name":[["Small Wind Energy Development_project document.pdf"],["http://www.undp.org/content/dam/undp/documents/projects/PRK/00060636/Small Wind Energy Development_project document.pdf"]],"end":"2013-12-31","expenditure":[521040.0],"fiscal_year":["2013","2012","2011"],"iati_op_id":"KP","inst_descr":"UNDP","inst_id":"99999","inst_type_id":"40","operating_unit":"Democr People's Repub of Korea","operating_unit_email":"UNDP-newsroom@undp.org","operating_unit_id":"PRK","operating_unit_website":"http://web.undp.org/dprk/","outputs":[{"award_id":"00060636","budget":[140033.0,304400.0,132491.0],"crs":"41010","crs_descr":"Environmental policy and administrative management","donor_id":["00012","10003"],"donor_name":["Voluntary Contributions","Global Environment Fund Truste"],"donor_short":["UNDP","GEFTrustee"],"expenditure":[127599.0,281795.0,111646.0],"fiscal_year":["2013","2012","2011"],"focus_area":"4","focus_area_descr":"Environment & sustainable development","gender_descr":"Gender Equality","gender_id":"1","output_descr":"Reduction of Green House Gas emissions from use of fossil fuels; manufacturing, promotion and dissemination of small wind energy systems in rural areas; mainstream sustainable and clean development approaches in development policies and plans.","output_id":"00076431","output_title":"Small Wind Energy Development"}],"project_descr":"Small Wind Energy Development Promotion in Rural Areas","project_id":"00060636","project_title":"Small Wind Energy Development Promotion in Rural Areas","region_id":"RBAP","start":"2010-10-01","subnational":[{"awardID":"00060636","focus_area":"4","focus_area_descr":"Environment & sustainable development","lat":"39.74917","lon":"124.64306","name":"Cholsan County","outputID":"00076431","output_locID":"00076431-1","precision":"3","type":"ADM2"},{"awardID":"00060636","focus_area":"4","focus_area_descr":"Environment & sustainable development","lat":"38.42611","lon":"125.01861","name":"Kwail County","outputID":"00076431","output_locID":"00076431-2","precision":"3","type":"PPL"},{"awardID":"00060636","focus_area":"4","focus_area_descr":"Environment & sustainable development","lat":"38.91028","lon":"125.23306","name":"Onchon County","outputID":"00076431","output_locID":"00076431-3","precision":"3","type":"PPL"},{"awardID":"00060636","focus_area":"4","focus_area_descr":"Environment & sustainable development","lat":"39.24639","lon":"125.87194","name":"Pyongsong","outputID":"00076431","output_locID":"00076431-4","precision":"3","type":"PPLA"},{"awardID":"00060636","focus_area":"4","focus_area_descr":"Environment & sustainable development","lat":"39.40083","lon":"125.58611","name":"Sukchon County","outputID":"00076431","output_locID":"00076431-5","precision":"3","type":"ADM2"},{"awardID":"00060636","focus_area":"4","focus_area_descr":"Environment & sustainable development","lat":"39.68083","lon":"125.43194","name":"Unjon County","outputID":"00076431","output_locID":"00076431-6","precision":"3","type":"ADM2"},{"awardID":"00060636","focus_area":"4","focus_area_descr":"Environment & sustainable development","lat":"39.19056","lon":"126.80528","name":"Yangdok County","outputID":"00076431","output_locID":"00076431-7","precision":"3","type":"ADM2"},{"awardID":"00060636","focus_area":"4","focus_area_descr":"Environment & sustainable development","lat":"39.88198","lon":"124.53817","name":"Yomju County","outputID":"00076431","output_locID":"00076431-8","precision":"3","type":"ADM2"}]}