{"project_descr": "Strengthening National Development Strategy / Poverty Reduction Strategy Implementation Management and Monitoring & Evaluation", "fiscal_year": [2013, 2011, 2012], "end": "2013-10-31", "region_id": "RBEC", "operating_unit_email": "registry.tj@undp.org", "inst_id": "02943", "outputs": [{"output_id": "00078878", "crs": "15110", "donor_id": ["00551"], "focus_area": "1", "gender_descr": "Gender Equality", "output_title": "NDS/PRS implementation mngment", "budget": [50000.0, 570000.0, 230000.0], "fiscal_year": [2011, 2012, 2013], "gender_id": "1", "donor_name": ["DEPARTMENT FOR INTERNATIONAL DEVELOPMENT"], "award_id": "00061865", "output_descr": "Project outputs:\n- Regulative documents for financing of NDS/PRS analyzed and necessary amendments introduced;\n- Effective M&E structures and units in MEDT and in the pilot line ministries;\n- NDS/PRS feedback system and environment mainstreaming improved", "donor_short": ["DFID"], "expenditure": [49500.0, 356706.0, 205070.0], "crs_descr": "Economic and development policy/planning", "focus_area_descr": "Inclusive & Sustainable Growth"}], "subnational": [{"outputID": "00078878", "output_locID": "00078878-1", "name": "Asht", "focus_area": "1", "lat": "40.69364", "type": "PPL", "awardID": "00061865", "lon": "70.3502", "precision": "3", "focus_area_descr": "Inclusive & Sustainable Growth"}, {"outputID": "00078878", "output_locID": "00078878-2", "name": "Ayni", "focus_area": "1", "lat": "39.29536", "type": "PPL", "awardID": "00061865", "lon": "68.78884", "precision": "3", "focus_area_descr": "Inclusive & Sustainable Growth"}, {"outputID": "00078878", "output_locID": "00078878-3", "name": "Dushanbe", "focus_area": "1", "lat": "38.53575", "type": "PPLC", "awardID": "00061865", "lon": "68.77905", "precision": "3", "focus_area_descr": "Inclusive & Sustainable Growth"}, {"outputID": "00078878", "output_locID": "00078878-4", "name": "Dushanbe", "focus_area": "1", "lat": "38.53575", "type": "PPLC", "awardID": "00061865", "lon": "68.77905", "precision": "3", "focus_area_descr": "Inclusive & Sustainable Growth"}, {"outputID": "00078878", "output_locID": "00078878-5", "name": "Gafurov", "focus_area": "1", "lat": "40.21571", "type": "PPLA2", "awardID": "00061865", "lon": "69.72867", "precision": "3", "focus_area_descr": "Inclusive & Sustainable Growth"}, {"outputID": "00078878", "output_locID": "00078878-6", "name": "Isfara", "focus_area": "1", "lat": "40.09327", "type": "PPLA2", "awardID": "00061865", "lon": "70.58364", "precision": "3", "focus_area_descr": "Inclusive & Sustainable Growth"}, {"outputID": "00078878", "output_locID": "00078878-7", "name": "Istaravshan", "focus_area": "1", "lat": "39.9142", "type": "PPLA2", "awardID": "00061865", "lon": "69.00328", "precision": "3", "focus_area_descr": "Inclusive & Sustainable Growth"}, {"outputID": "00078878", "output_locID": "00078878-8", "name": "Jabbor Rasulov", "focus_area": "1", "lat": "40.09876", "type": "PPLA2", "awardID": "00061865", "lon": "69.496", "precision": "3", "focus_area_descr": "Inclusive & Sustainable Growth"}, {"outputID": "00078878", "output_locID": "00078878-9", "name": "Kanibadam", "focus_area": "1", "lat": "40.29414", "type": "PPLA2", "awardID": "00061865", "lon": "70.43122", "precision": "3", "focus_area_descr": "Inclusive & Sustainable Growth"}, {"outputID": "00078878", "output_locID": "00078878-10", "name": "Kuhistoni", "focus_area": "1", "lat": "39.4", "type": "ADM2", "awardID": "00061865", "lon": "69.8", "precision": "3", "focus_area_descr": "Inclusive & Sustainable Growth"}, {"outputID": "00078878", "output_locID": "00078878-11", "name": "Mastchoh", "focus_area": "1", "lat": "40.6715", "type": "ADM2", "awardID": "00061865", "lon": "69.49214", "precision": "3", "focus_area_descr": "Inclusive & Sustainable Growth"}, {"outputID": "00078878", "output_locID": "00078878-12", "name": "Penjikent", "focus_area": "1", "lat": "39.49524", "type": "PPLA", "awardID": "00061865", "lon": "67.60931", "precision": "3", "focus_area_descr": "Inclusive & Sustainable Growth"}, {"outputID": "00078878", "output_locID": "00078878-13", "name": "Zafarobod", "focus_area": "1", "lat": "40.18194", "type": "PPL", "awardID": "00061865", "lon": "68.90756", "precision": "3", "focus_area_descr": "Inclusive & Sustainable Growth"}], "operating_unit": "Tajikistan", "budget": 850000.0, "iati_op_id": "TJ", "inst_descr": "MINISTRY OF ECONOMY", "start": "2011-05-17", "operating_unit_id": "TJK", "expenditure": 611276.0, "document_name": [["ProDoc_PID 00078878_eng.pdf"], ["http://www.undp.org/content/dam/undp/documents/projects/TJK/00061865/ProDoc_PID 00078878_eng.pdf"], ["format"]], "project_id": "00061865", "inst_type_id": "10", "operating_unit_website": "http://www.undp.tj/site/", "project_title": "nds/prs implementation management and m&e"}