{"project_descr": "PEI Programme Phase 2 aims to aims to strengthen the capacity of Lao Government to manage investment more systematically and to increase the number of quality investment across the country, reducing poverty without environ mental degradation.", "fiscal_year": [2017, 2016, 2012, 2013, 2014, 2015], "end": "2017-12-31", "region_id": "RBAP", "operating_unit_email": "info.la@undp.org", "inst_id": "01805", "outputs": [{"output_id": "00083583", "crs": "99810", "donor_id": ["00232", "00012"], "disbursement": [], "focus_area": "7", "gender_descr": "Gender Equality", "output_title": "PEI-Investment Promotion Dept", "budget": [416932.0, 15803.0, 187950.0, 664754.0, 506987.0, 514891.0], "fiscal_year": [2016, 2017, 2012, 2013, 2014, 2015], "gender_id": "1", "expenditure": [306456.0, 6572.0, 71764.0, 547929.0, 462736.0, 481449.0], "award_id": "00068327", "output_descr": "PEI Programme Phase 2 aims to aims to strengthen the capacity of Lao Government to manage investment more systematically and to increase the number of quality investment across the country, reducing poverty without environ mental degradation.", "donor_short": ["UNDP", "SWI"], "donor_name": ["Voluntary Contributions", "GOVERNMENT OF SWITZERLAND"], "crs_descr": null, "focus_area_descr": "Development Impact & Effectiveness"}], "subnational": [{"outputID": "00083583", "output_locID": "00083583-1", "name": "Vientiane", "focus_area": "7", "lat": "17.966670", "type": "PPLC", "awardID": "00068327", "lon": "102.600000", "precision": "1", "focus_area_descr": "Development Impact & Effectiveness"}, {"outputID": "00083583", "output_locID": "00083583-2", "name": "Vientiane", "focus_area": "7", "lat": "17.966670", "type": "PPLC", "awardID": "00068327", "lon": "102.600000", "precision": "1", "focus_area_descr": "Development Impact & Effectiveness"}, {"outputID": "00083583", "output_locID": "00083583-3", "name": "Vientiane", "focus_area": "7", "lat": "18.750000", "type": "ADM1", "awardID": "00068327", "lon": "102.416670", "precision": "1", "focus_area_descr": "Development Impact & Effectiveness"}, {"outputID": "00083583", "output_locID": "00083583-4", "name": "Vientiane", "focus_area": "7", "lat": "18.750000", "type": "ADM1", "awardID": "00068327", "lon": "102.416670", "precision": "1", "focus_area_descr": "Development Impact & Effectiveness"}, {"outputID": "00083583", "output_locID": "00083583-5", "name": "Khou\u00e8ng Savannakh\u00e9t", "focus_area": "7", "lat": "16.500000", "type": "ADM1", "awardID": "00068327", "lon": "105.750000", "precision": "1", "focus_area_descr": "Development Impact & Effectiveness"}, {"outputID": "00083583", "output_locID": "00083583-6", "name": "Khou\u00e8ng Savannakh\u00e9t", "focus_area": "7", "lat": "16.500000", "type": "ADM1", "awardID": "00068327", "lon": "105.750000", "precision": "1", "focus_area_descr": "Development Impact & Effectiveness"}, {"outputID": "00083583", "output_locID": "00083583-7", "name": "Salavan", "focus_area": "7", "lat": "15.750000", "type": "ADM1", "awardID": "00068327", "lon": "106.250000", "precision": "1", "focus_area_descr": "Development Impact & Effectiveness"}, {"outputID": "00083583", "output_locID": "00083583-8", "name": "Salavan", "focus_area": "7", "lat": "15.750000", "type": "ADM1", "awardID": "00068327", "lon": "106.250000", "precision": "1", "focus_area_descr": "Development Impact & Effectiveness"}, {"outputID": "00083583", "output_locID": "00083583-9", "name": "Khou\u00e8ng Ph\u00f4ngsali", "focus_area": "7", "lat": "21.750000", "type": "ADM1", "awardID": "00068327", "lon": "102.333330", "precision": "1", "focus_area_descr": "Development Impact & Effectiveness"}, {"outputID": "00083583", "output_locID": "00083583-10", "name": "Khou\u00e8ng Ph\u00f4ngsali", "focus_area": "7", "lat": "21.750000", "type": "ADM1", "awardID": "00068327", "lon": "102.333330", "precision": "1", "focus_area_descr": "Development Impact & Effectiveness"}, {"outputID": "00083583", "output_locID": "00083583-11", "name": "Khou\u00e8ng Oud\u00f4mxai", "focus_area": "7", "lat": "20.166670", "type": "ADM1", "awardID": "00068327", "lon": "101.500000", "precision": "1", "focus_area_descr": "Development Impact & Effectiveness"}, {"outputID": "00083583", "output_locID": "00083583-12", "name": "Khou\u00e8ng Oud\u00f4mxai", "focus_area": "7", "lat": "20.166670", "type": "ADM1", "awardID": "00068327", "lon": "101.500000", "precision": "1", "focus_area_descr": "Development Impact & Effectiveness"}, {"outputID": "00083583", "output_locID": "00083583-13", "name": "Houaphan", "focus_area": "7", "lat": "20.500000", "type": "ADM1", "awardID": "00068327", "lon": "104.000000", "precision": "1", "focus_area_descr": "Development Impact & Effectiveness"}, {"outputID": "00083583", "output_locID": "00083583-14", "name": "Houaphan", "focus_area": "7", "lat": "20.500000", "type": "ADM1", "awardID": "00068327", "lon": "104.000000", "precision": "1", "focus_area_descr": "Development Impact & Effectiveness"}], "operating_unit": "Lao People's Democratic Republ", "budget": 2307317.0, "iati_op_id": "LA", "inst_descr": "Min. of Planning&Investment", "start": "2012-10-01", "operating_unit_id": "LAO", "expenditure": 1876906.0, "document_name": [["PEI Phase 2 Framework_Final_July 30", "Midterm Evaluation - Poverty-Environment Initiative - Phase 2 (ESIA, IPD, and NERI)", "Q42012 Progress report", "Q12013 Progress Report", "Q22013 Progress Report", "Q32013 Progress Report", "Q4.2013 Progress Report", "2013 Annual Progress Report", "Q4.2014 Progress Report", "2014 Annual Report", "2013 Annual Progress Report", "UN_LA_UNDAF_2012_2015", "Request for Procurement"], ["https://info.undp.org/docs/pdc/Documents/LAO/PEI Phase 2 Framework_Final_July 30.pdf", "https://erc.undp.org/evaluation/evaluations/detail/7130", "https://info.undp.org/docs/pdc/Documents/LAO/Q4.2012 Progress report.pdf", "https://info.undp.org/docs/pdc/Documents/LAO/Q1.2013 Progress Report.pdf", "https://info.undp.org/docs/pdc/Documents/LAO/Q2.2013 Progress Report.pdf", "https://info.undp.org/docs/pdc/Documents/LAO/Q3.2013 Progress Report.pdf", "https://info.undp.org/docs/pdc/Documents/LAO/Q4.2013 Progress Report.pdf", "https://info.undp.org/docs/pdc/Documents/LAO/2013 Annual Progress Report -.pdf", "https://info.undp.org/docs/pdc/Documents/LAO/Q4.2014 Progress Report.pdf", "https://info.undp.org/docs/pdc/Documents/LAO/2014 Annual Report.pdf", "https://info.undp.org/docs/pdc/Documents/LAO/2013 Annual Progress Report.pdf", "http://www.la.undp.org/content/dam/laopdr/docs/Legal Framework/UN_LA_UNDAF_2012_2015.pdf", "http://procurement-notices.undp.org/index.cfm"], ["pdf", "", "pdf", "pdf", "pdf", "pdf", "pdf", "pdf", "pdf", "pdf", "pdf", "pdf", ""], [0, 5, 6, 6, 6, 6, 6, 6, 6, 6, 6, 7, 10]], "project_id": "00068327", "inst_type_id": "", "operating_unit_website": null, "project_title": "poverty-environment initiative phase 2, invest. mngt com"}