{"project_descr": "Strengthened capacities of local governments and other stakeholders to foster participatory local development service delivery for the MDGs", "fiscal_year": [2015, 2012, 2013, 2014], "end": "2016-12-31", "region_id": "RBAP", "operating_unit_email": "communications.bgd@undp.org", "inst_id": "00256", "outputs": [{"output_id": "00080905", "crs": "15112", "donor_id": ["10714", "10159", "00012"], "focus_area": "3", "gender_descr": "Gender Equality", "output_title": "Union Parisad Governance Proj", "budget": [955480.0, 1681799.0, 2168382.0, 1734132.0], "fiscal_year": [2012, 2013, 2014, 2015], "gender_id": "1", "donor_name": ["EUROPEAN COMMISSION", "UNDP AS ADMINISTRATIVE AGENT FOR A JOINT PROGRAMME PASS THROUGH ARRANGEMENT", "Voluntary Contributions"], "award_id": "00062785", "output_descr": "Union Parisad Governance Project (UPGP)", "donor_short": ["EUCOMM", "UNDP(JPAA)", "UNDP"], "expenditure": [0.0, 1581501.0, 2001031.0, 740152.0], "crs_descr": null, "focus_area_descr": "Responsive Institutions"}, {"output_id": "00080199", "crs": "15112", "donor_id": ["10714", "10159", "00012"], "focus_area": "3", "gender_descr": "Gender Equality", "output_title": "Upazila Governance Project", "budget": [2345777.0, 2683395.0, 3541569.0, 3126842.0], "fiscal_year": [2012, 2013, 2014, 2015], "gender_id": "1", "donor_name": ["EUROPEAN COMMISSION", "UNDP AS ADMINISTRATIVE AGENT FOR A JOINT PROGRAMME PASS THROUGH ARRANGEMENT", "Voluntary Contributions"], "award_id": "00062785", "output_descr": "Upazila Governance Project", "donor_short": ["EUCOMM", "UNDP(JPAA)", "UNDP"], "expenditure": [0.0, 2644071.0, 3356035.0, 762465.0], "crs_descr": null, "focus_area_descr": "Responsive Institutions"}], "subnational": [{"outputID": "00080905", "output_locID": "00080905-1", "name": "Sunamganj District", "focus_area": "3", "lat": "24.866670", "type": "ADM2", "awardID": "00062785", "lon": "91.416670", "precision": "1", "focus_area_descr": "Responsive Institutions"}, {"outputID": "00080905", "output_locID": "00080905-2", "name": "Sirajganj District", "focus_area": "3", "lat": "24.333330", "type": "ADM2", "awardID": "00062785", "lon": "89.616670", "precision": "1", "focus_area_descr": "Responsive Institutions"}, {"outputID": "00080905", "output_locID": "00080905-3", "name": "Brahmanbaria District", "focus_area": "3", "lat": "23.983330", "type": "ADM2", "awardID": "00062785", "lon": "91.166670", "precision": "1", "focus_area_descr": "Responsive Institutions"}, {"outputID": "00080905", "output_locID": "00080905-4", "name": "Khulna District", "focus_area": "3", "lat": "22.500000", "type": "ADM2", "awardID": "00062785", "lon": "89.333330", "precision": "1", "focus_area_descr": "Responsive Institutions"}, {"outputID": "00080905", "output_locID": "00080905-5", "name": "Barguna District", "focus_area": "3", "lat": "22.133330", "type": "ADM2", "awardID": "00062785", "lon": "90.133330", "precision": "1", "focus_area_descr": "Responsive Institutions"}, {"outputID": "00080905", "output_locID": "00080905-6", "name": "Rangpur District", "focus_area": "3", "lat": "25.600000", "type": "ADM2", "awardID": "00062785", "lon": "89.250000", "precision": "1", "focus_area_descr": "Responsive Institutions"}, {"outputID": "00080905", "output_locID": "00080905-7", "name": "Kishoreganj District", "focus_area": "3", "lat": "24.433300", "type": "ADM2", "awardID": "00062785", "lon": "90.783300", "precision": "1", "focus_area_descr": "Responsive Institutions"}, {"outputID": "00080905", "output_locID": "00080905-8", "name": "Kishoreganj District", "focus_area": "3", "lat": "24.433300", "type": "ADM2", "awardID": "00062785", "lon": "90.783300", "precision": "1", "focus_area_descr": "Responsive Institutions"}, {"outputID": "00080199", "output_locID": "00080199-1", "name": "Brahmanbaria District", "focus_area": "3", "lat": "23.983330", "type": "ADM2", "awardID": "00062785", "lon": "91.166670", "precision": "1", "focus_area_descr": "Responsive Institutions"}, {"outputID": "00080199", "output_locID": "00080199-2", "name": "Sunamganj District", "focus_area": "3", "lat": "24.866670", "type": "ADM2", "awardID": "00062785", "lon": "91.416670", "precision": "1", "focus_area_descr": "Responsive Institutions"}, {"outputID": "00080199", "output_locID": "00080199-3", "name": "Sirajganj District", "focus_area": "3", "lat": "24.333330", "type": "ADM2", "awardID": "00062785", "lon": "89.616670", "precision": "1", "focus_area_descr": "Responsive Institutions"}, {"outputID": "00080199", "output_locID": "00080199-4", "name": "Barguna District", "focus_area": "3", "lat": "22.133330", "type": "ADM2", "awardID": "00062785", "lon": "90.133330", "precision": "1", "focus_area_descr": "Responsive Institutions"}, {"outputID": "00080199", "output_locID": "00080199-5", "name": "Khulna District", "focus_area": "3", "lat": "22.500000", "type": "ADM2", "awardID": "00062785", "lon": "89.333330", "precision": "1", "focus_area_descr": "Responsive Institutions"}, {"outputID": "00080199", "output_locID": "00080199-6", "name": "Rangpur District", "focus_area": "3", "lat": "25.600000", "type": "ADM2", "awardID": "00062785", "lon": "89.250000", "precision": "1", "focus_area_descr": "Responsive Institutions"}, {"outputID": "00080199", "output_locID": "00080199-7", "name": "Kishoreganj District", "focus_area": "3", "lat": "24.433300", "type": "ADM2", "awardID": "00062785", "lon": "90.783300", "precision": "1", "focus_area_descr": "Responsive Institutions"}, {"outputID": "00080199", "output_locID": "00080199-8", "name": "Kishoreganj District", "focus_area": "3", "lat": "24.433300", "type": "ADM2", "awardID": "00062785", "lon": "90.783300", "precision": "1", "focus_area_descr": "Responsive Institutions"}], "operating_unit": "Bangladesh", "budget": 18237376.0, "iati_op_id": "BD", "inst_descr": "National Execution", "start": "2012-01-01", "operating_unit_id": "BGD", "expenditure": 11085255.0, "document_name": [["2011-08-25_Signed Project Document_Upazila Governance Project (UZGP)_1", "UPGP Signing Version"], ["http://www.undp.org/content/dam/undp/documents/projects/BGD/2011-08-25_Signed Project Document_Upazila Governance Project (UZGP)_1.pdf", "http://www.undp.org/content/dam/undp/documents/projects/BGD/UPGP Signing Version.pdf"], ["pdf", "pdf"]], "project_id": "00062785", "inst_type_id": "10", "operating_unit_website": "http://www.bd.undp.org/", "project_title": "local government support program"}