{"project_descr": "Restauraci\u00f3n y Control de Factores de deterioro en los Bosques Nativos de los Parques Nacionales", "fiscal_year": [2017, 2016, 2012, 2013, 2014, 2015], "end": "2017-03-31", "region_id": "RBLAC", "operating_unit_email": "registry.ar@undp.org", "inst_id": "00171", "outputs": [{"output_id": "00076624", "crs": "23010", "donor_id": ["01013"], "disbursement": [], "focus_area": "1", "gender_descr": "Gender Equality", "output_title": "Restauraci\u00f3n Bosques Nativos", "budget": [131044.0, 7783.0, 872416.0, 155659.0, 66351.0, 173480.0], "fiscal_year": [2016, 2017, 2012, 2013, 2014, 2015], "gender_id": "1", "expenditure": [19990.0, 6968.0, 236827.0, 94446.0, 25036.0, 13431.0], "award_id": "00060741", "output_descr": "RESTAURACI\u00d3N Y CONTROL DE FACTORES DE DETERIORO EN LOS BOSQUES NATIVOS DE LOS PARQUES NACIONALES", "donor_short": ["GOB"], "donor_name": ["ARG-GOBIERNO"], "crs_descr": null, "focus_area_descr": "Inclusive & Sustainable Growth"}], "subnational": [{"outputID": "00076624", "output_locID": "00076624-1", "name": "Entre Rios", "focus_area": "1", "lat": "-32.000000", "type": "ADM1", "awardID": "00060741", "lon": "-59.000000", "precision": "1", "focus_area_descr": "Inclusive & Sustainable Growth"}, {"outputID": "00076624", "output_locID": "00076624-2", "name": "Tierra del Fuego", "focus_area": "1", "lat": "-54.500000", "type": "ADM1", "awardID": "00060741", "lon": "-67.000000", "precision": "1", "focus_area_descr": "Inclusive & Sustainable Growth"}, {"outputID": "00076624", "output_locID": "00076624-3", "name": "Santiago del Estero", "focus_area": "1", "lat": "-28.000000", "type": "ADM1", "awardID": "00060741", "lon": "-63.500000", "precision": "1", "focus_area_descr": "Inclusive & Sustainable Growth"}, {"outputID": "00076624", "output_locID": "00076624-4", "name": "San Luis", "focus_area": "1", "lat": "-34.000000", "type": "ADM1", "awardID": "00060741", "lon": "-66.000000", "precision": "1", "focus_area_descr": "Inclusive & Sustainable Growth"}, {"outputID": "00076624", "output_locID": "00076624-5", "name": "Rio Negro", "focus_area": "1", "lat": "-40.000000", "type": "ADM1", "awardID": "00060741", "lon": "-67.000000", "precision": "1", "focus_area_descr": "Inclusive & Sustainable Growth"}, {"outputID": "00076624", "output_locID": "00076624-6", "name": "Neuquen", "focus_area": "1", "lat": "-39.000000", "type": "ADM1", "awardID": "00060741", "lon": "-70.000000", "precision": "1", "focus_area_descr": "Inclusive & Sustainable Growth"}, {"outputID": "00076624", "output_locID": "00076624-7", "name": "La Pampa", "focus_area": "1", "lat": "-37.000000", "type": "ADM1", "awardID": "00060741", "lon": "-66.000000", "precision": "1", "focus_area_descr": "Inclusive & Sustainable Growth"}, {"outputID": "00076624", "output_locID": "00076624-8", "name": "Cordoba", "focus_area": "1", "lat": "-32.000000", "type": "ADM1", "awardID": "00060741", "lon": "-64.000000", "precision": "1", "focus_area_descr": "Inclusive & Sustainable Growth"}, {"outputID": "00076624", "output_locID": "00076624-9", "name": "Chubut", "focus_area": "1", "lat": "-44.000000", "type": "ADM1", "awardID": "00060741", "lon": "-69.000000", "precision": "1", "focus_area_descr": "Inclusive & Sustainable Growth"}], "operating_unit": "Argentina", "budget": 1406733.0, "iati_op_id": "AR", "inst_descr": "Adm Parques Nacionales", "start": "2010-10-29", "operating_unit_id": "ARG", "expenditure": 396698.0, "document_name": [["00060741_Prodoc", "60741_Revisi\u00f3n B", "60741_Revis\u00f3n C", "ARG10017", "Request for Procurement"], ["https://info.undp.org/docs/pdc/Documents/ARG/00060741_Prodoc.pdf", "https://info.undp.org/docs/pdc/Documents/ARG/60741_Revisi\u00f3n B.pdf", "https://info.undp.org/docs/pdc/Documents/ARG/60741_Revis\u00f3n C.pdf", "https://info.undp.org/docs/pdc/Documents/ARG/60741_Revisi\u00f3n D.pdf", "1"], ["pdf", "pdf", "pdf", "pdf", ""], [0, 3, 3, 3, 10]], "project_id": "00060741", "inst_type_id": "40", "operating_unit_website": null, "project_title": "restauraci\u00f3n bosques nativos de parques nacionales"}