{"project_descr": "Le projet vise \u00e0 accro\u00eetre d\u2019une fa\u00e7on significative la couverture des aires prot\u00e9g\u00e9es du Mali, et \u00e0 renforcer l\u2019efficacit\u00e9 du syst\u00e8me de gestion des aires prot\u00e9g\u00e9es en mettant l\u2019accent sur la r\u00e9gion Sud-Ouest.", "fiscal_year": [2018, 2016, 2017, 2012, 2013, 2014, 2015], "end": "2017-12-31", "region_id": "RBA", "operating_unit_email": "registry.ml@undp.org", "inst_id": "02077", "outputs": [{"output_id": "00076446", "crs": "74010", "donor_id": ["00012", "00167", "10003"], "disbursement": [], "focus_area": "5", "gender_descr": "Gender Equality", "output_title": "Extention Aires Prot\u00e9g\u00e9es", "budget": [352210.0, 212809.0, 75000.0, 587505.0, 490675.0, 746971.0, 605048.0], "fiscal_year": [2016, 2017, 2018, 2012, 2013, 2014, 2015], "gender_id": "1", "expenditure": [277492.0, 280421.0, 10017.0, 465606.0, 383133.0, 822831.0, 581806.0], "award_id": "00060646", "output_descr": "Le projet vise \u00e0 accro\u00eetre d\u2019une fa\u00e7on significative la couverture des aires prot\u00e9g\u00e9es du Mali, et \u00e0 renforcer l\u2019efficacit\u00e9 du syst\u00e8me de la gestion des aires prot\u00e9g\u00e9es en mettant l\u2019accent sur la r\u00e9gion Sud-Ouest.", "donor_short": ["UNDP", "MLI", "GEFTrustee"], "donor_name": ["Voluntary Contributions", "GOVERNMENT OF MALI", "Global Environment Fund Truste"], "crs_descr": null, "focus_area_descr": "Climate Change & Disaster Resilience"}], "subnational": [{"outputID": "00076446", "output_locID": "00076446-1", "name": "Limakol\u00e9", "focus_area": "5", "lat": "12.583330", "type": "PPL", "awardID": "00060646", "lon": "-10.050000", "precision": "1", "focus_area_descr": "Climate Change & Disaster Resilience"}, {"outputID": "00076446", "output_locID": "00076446-2", "name": "For\u00eat Class\u00e9e de Gal\u00e9", "focus_area": "5", "lat": "12.666670", "type": "RESF", "awardID": "00060646", "lon": "-9.416670", "precision": "1", "focus_area_descr": "Climate Change & Disaster Resilience"}, {"outputID": "00076446", "output_locID": "00076446-3", "name": "Gadougou", "focus_area": "5", "lat": "14.870200", "type": "PPL", "awardID": "00060646", "lon": "-6.762900", "precision": "1", "focus_area_descr": "Climate Change & Disaster Resilience"}, {"outputID": "00076446", "output_locID": "00076446-4", "name": "Fangadougou", "focus_area": "5", "lat": "14.152000", "type": "PPL", "awardID": "00060646", "lon": "-4.062780", "precision": "1", "focus_area_descr": "Climate Change & Disaster Resilience"}, {"outputID": "00076446", "output_locID": "00076446-5", "name": "Digan", "focus_area": "5", "lat": "12.130500", "type": "PPL", "awardID": "00060646", "lon": "-7.781610", "precision": "1", "focus_area_descr": "Climate Change & Disaster Resilience"}, {"outputID": "00076446", "output_locID": "00076446-6", "name": "Parc National de la Boucle", "focus_area": "5", "lat": "13.790100", "type": "PRK", "awardID": "00060646", "lon": "-9.177700", "precision": "1", "focus_area_descr": "Climate Change & Disaster Resilience"}, {"outputID": "00076446", "output_locID": "00076446-7", "name": "Bafing", "focus_area": "5", "lat": "13.810600", "type": "STM", "awardID": "00060646", "lon": "-10.826400", "precision": "1", "focus_area_descr": "Climate Change & Disaster Resilience"}, {"outputID": "00076446", "output_locID": "00076446-8", "name": "Azaou\u00e2d", "focus_area": "5", "lat": "18.547780", "type": "RGN", "awardID": "00060646", "lon": "-2.334170", "precision": "1", "focus_area_descr": "Climate Change & Disaster Resilience"}, {"outputID": "00076446", "output_locID": "00076446-9", "name": "N\u00e9ma", "focus_area": "5", "lat": "13.627800", "type": "PPL", "awardID": "00060646", "lon": "-3.743400", "precision": "1", "focus_area_descr": "Climate Change & Disaster Resilience"}, {"outputID": "00076446", "output_locID": "00076446-10", "name": "Kenieba Cercle", "focus_area": "5", "lat": "12.666670", "type": "ADM2", "awardID": "00060646", "lon": "-11.000000", "precision": "1", "focus_area_descr": "Climate Change & Disaster Resilience"}, {"outputID": "00076446", "output_locID": "00076446-11", "name": "Bafoulabe Cercle", "focus_area": "5", "lat": "13.666670", "type": "ADM2", "awardID": "00060646", "lon": "-10.666670", "precision": "1", "focus_area_descr": "Climate Change & Disaster Resilience"}], "operating_unit": "Mali", "budget": 3070218.0, "iati_op_id": "ML", "inst_descr": "National Execution", "start": "2011-02-28", "operating_unit_id": "MLI", "expenditure": 2821306.0, "document_name": [["00060646_Prodoc ERSAP", "Projet Extension et renforcement du syst\u00e8me des aires prot\u00e9g\u00e9es au Mali - ERSAP", "Projet Extension et renforcement du syst\u00e8me des aires prot\u00e9g\u00e9es au Mali - ERSAP", "Projet Extension et renforcement du syst\u00e8me des aires prot\u00e9g\u00e9es au Mali - ERSAP"], ["https://info.undp.org/docs/pdc/Documents/MLI/00060646_Prodoc ERSAP.pdf", "https://info.undp.org/docs/pdc/Documents/MLI/Rapport Annuel d'activit\u00e9s Extension Aires Prot\u00e9g\u00e9es_00060646.pdf", "https://info.undp.org/docs/pdc/Documents/MLI/12-06 -2017__PTA- 2017_ERSAP_Vf Word.docx", "https://info.undp.org/docs/pdc/Documents/MLI/PTA 2018_Extension Aires Prot\u00e9g\u00e9es_00060646.pdf"], ["pdf", "pdf", "doc", "pdf"], [0, 6, 0, 0]], "project_id": "00060646", "inst_type_id": "10", "operating_unit_website": null, "project_title": "extention et renforcement syst\u00e8mes aires prot\u00e9g\u00e9es ersap"}