{"budget":[6619101.0],"document_name":[["PRODOC_ER and Rehabilitation for Central Mindanao.pdf"],["http://www.undp.org/content/dam/undp/documents/projects/PHL/00061655/PRODOC_ER and Rehabilitation for Central Mindanao.pdf"]],"end":"2013-06-30","expenditure":[5537712.0],"fiscal_year":["2013","2012","2011"],"iati_op_id":"PH","inst_descr":"National Execution","inst_id":"02490","inst_type_id":"10","operating_unit":"Philippines","operating_unit_email":"registry.ph@undp.org","operating_unit_id":"PHL","operating_unit_website":"http://www.undp.org.ph/","outputs":[{"award_id":"00061655","budget":[256414.0,3281766.0,3080921.0],"crs":"15140","crs_descr":"Government administration","donor_id":["00012","00280"],"donor_name":["Voluntary Contributions","EUROPEAN ECONOMIC COMMUNITY"],"donor_short":["UNDP","EU"],"expenditure":[181242.0,2997997.0,2358473.0],"fiscal_year":["2013","2012","2011"],"focus_area":"2","focus_area_descr":"Democratic governance","gender_descr":"Gender Equality","gender_id":"1","output_descr":"Supports communities transitioning from relief to recovery and development, helps restore socio-economic life and enhances the capacity of target communities in resettlement and return areas to fully participate in long-term recovery and development","output_id":"00078216","output_title":"Recovery for Central Mindanao"}],"project_descr":"Provision of comprehensive package of basic services, infrastructure, livelihood support and capacity building for Internally Displaced Persons in Central Mindanao","project_id":"00061655","project_title":"Early Recovery and Rehabilitation for Mindanao","region_id":"RBAP","start":"2011-01-15","subnational":[{"awardID":"00061655","focus_area":"2","focus_area_descr":"Democratic governance","lat":"10.66667","lon":"122.95","name":"Bacolod","outputID":"00078216","output_locID":"00078216-1","precision":"3","type":"PPLA2"},{"awardID":"00061655","focus_area":"2","focus_area_descr":"Democratic governance","lat":"7.91667","lon":"124.2","name":"Balindong","outputID":"00078216","output_locID":"00078216-2","precision":"3","type":"ADM2"},{"awardID":"00061655","focus_area":"2","focus_area_descr":"Democratic governance","lat":"7.72444","lon":"124.30083","name":"Butig","outputID":"00078216","output_locID":"00078216-3","precision":"3","type":"PPLA2"},{"awardID":"00061655","focus_area":"2","focus_area_descr":"Democratic governance","lat":"8.19167","lon":"124.08472","name":"Kauswagan","outputID":"00078216","output_locID":"00078216-4","precision":"3","type":"PPLA2"},{"awardID":"00061655","focus_area":"2","focus_area_descr":"Democratic governance","lat":"8.1144","lon":"123.8971","name":"Kolambugan","outputID":"00078216","output_locID":"00078216-5","precision":"3","type":"PPL"},{"awardID":"00061655","focus_area":"2","focus_area_descr":"Democratic governance","lat":"8.18603","lon":"124.16276","name":"Linamon","outputID":"00078216","output_locID":"00078216-6","precision":"3","type":"PPLA2"},{"awardID":"00061655","focus_area":"2","focus_area_descr":"Democratic governance","lat":"7.88333","lon":"124.08333","name":"Madalum","outputID":"00078216","output_locID":"00078216-7","precision":"3","type":"ADM2"},{"awardID":"00061655","focus_area":"2","focus_area_descr":"Democratic governance","lat":"7.95","lon":"124.06667","name":"Munai","outputID":"00078216","output_locID":"00078216-8","precision":"3","type":"ADM2"},{"awardID":"00061655","focus_area":"2","focus_area_descr":"Democratic governance","lat":"8","lon":"124.2","name":"Piagapo","outputID":"00078216","output_locID":"00078216-9","precision":"3","type":"PPL"},{"awardID":"00061655","focus_area":"2","focus_area_descr":"Democratic governance","lat":"7.05444","lon":"124.67194","name":"Pikit","outputID":"00078216","output_locID":"00078216-10","precision":"3","type":"PPLA2"},{"awardID":"00061655","focus_area":"2","focus_area_descr":"Democratic governance","lat":"8.56306","lon":"124.5225","name":"Salvador","outputID":"00078216","output_locID":"00078216-11","precision":"3","type":"PPL"},{"awardID":"00061655","focus_area":"2","focus_area_descr":"Democratic governance","lat":"6.96667","lon":"124.41667","name":"Talayan","outputID":"00078216","output_locID":"00078216-12","precision":"3","type":"ADM2"},{"awardID":"00061655","focus_area":"2","focus_area_descr":"Democratic governance","lat":"6.99667","lon":"124.70528","name":"Talitay","outputID":"00078216","output_locID":"00078216-13","precision":"3","type":"PPL"},{"awardID":"00061655","focus_area":"2","focus_area_descr":"Democratic governance","lat":"6.81667","lon":"124.96667","name":"Tulunan","outputID":"00078216","output_locID":"00078216-14","precision":"3","type":"ADM2"}]}