{"project_descr": "Projet Jeunes Agents du Changement", "fiscal_year": [2013, 2012], "end": "2013-12-31", "region_id": "RBA", "operating_unit_email": "registry.bj@undp.org", "inst_id": "00238", "outputs": [{"output_id": "00083569", "crs": "15150", "donor_id": ["00012"], "focus_area": "2", "gender_descr": "Gender Equality", "output_title": "Projet Jeunes Agents du Change", "budget": [30244.0, 169683.0], "fiscal_year": [2012, 2013], "gender_id": "1", "donor_name": ["Voluntary Contributions"], "award_id": "00068297", "output_descr": "Le projet vise \u00e0 mettre les Jeunes au centre du processus de d\u00e9veloppement en s'appuyant sur la promotion des valeurs et l'utilisation des technologies de l'information et de la communication.", "donor_short": ["UNDP"], "expenditure": [24511.0, 166598.0], "crs_descr": "Strengthening civil society", "focus_area_descr": "Democratic Governance"}], "subnational": [{"outputID": "00083569", "output_locID": "00083569-1", "name": "Cotonou", "focus_area": "2", "lat": "6.36536", "type": "PPLA", "awardID": "00068297", "lon": "2.41833", "precision": "3", "focus_area_descr": "Democratic Governance"}, {"outputID": "00083569", "output_locID": "00083569-2", "name": "Allada", "focus_area": "2", "lat": "6.66547", "type": "PPL", "awardID": "00068297", "lon": "2.15138", "precision": "3", "focus_area_descr": "Democratic Governance"}, {"outputID": "00083569", "output_locID": "00083569-3", "name": "Bohicon", "focus_area": "2", "lat": "7.17826", "type": "PPL", "awardID": "00068297", "lon": "2.0667", "precision": "3", "focus_area_descr": "Democratic Governance"}, {"outputID": "00083569", "output_locID": "00083569-4", "name": "Natitingou", "focus_area": "2", "lat": "10.30416", "type": "PPLA", "awardID": "00068297", "lon": "1.37962", "precision": "3", "focus_area_descr": "Democratic Governance"}, {"outputID": "00083569", "output_locID": "00083569-5", "name": "Parakou", "focus_area": "2", "lat": "9.33716", "type": "PPLA", "awardID": "00068297", "lon": "2.63031", "precision": "3", "focus_area_descr": "Democratic Governance"}, {"outputID": "00083569", "output_locID": "00083569-6", "name": "Porto Novo", "focus_area": "2", "lat": "6.49646", "type": "PPLC", "awardID": "00068297", "lon": "2.60359", "precision": "3", "focus_area_descr": "Democratic Governance"}], "operating_unit": "Benin", "budget": 199927.0, "iati_op_id": "BJ", "inst_descr": "National Execution", "start": "2012-07-01", "operating_unit_id": "BEN", "expenditure": 191109.0, "document_name": [], "project_id": "00068297", "inst_type_id": "10", "operating_unit_website": "http://www.bj.undp.org/", "project_title": "projet jeunes agents du changement"}