{"project_descr": "Making Justice Work for the Poor", "fiscal_year": [2016, 2012, 2013, 2014, 2015], "end": "2016-01-31", "region_id": "RBAP", "operating_unit_email": "registry.ph@undp.org", "inst_id": "02490", "outputs": [{"output_id": "00082518", "crs": "51010", "donor_id": ["XM-DAC-41114"], "disbursement": [], "focus_area": "2", "gender_descr": "Gender Equality", "output_title": "Making Justice Work", "budget": [57500.0, 39000.0, 112000.0, 80000.0, 100000.0], "fiscal_year": [2016, 2012, 2013, 2014, 2015], "gender_id": "1", "expenditure": [41031.0, 34956.0, 105586.0, 74291.0, 88272.0], "award_id": "00066323", "output_descr": "Making Justice Work for the Marginalized", "donor_short": [], "donor_name": ["UNITED NATIONS DEVELOPMENT PROGRAMME"], "crs_descr": null, "focus_area_descr": "Democratic Governance"}], "subnational": [{"outputID": "00082518", "output_locID": "00082518-1", "name": "Sariaya", "focus_area": "2", "lat": "13.962400", "type": "PPL", "awardID": "00066323", "lon": "121.526500", "precision": "1", "focus_area_descr": "Democratic Governance"}, {"outputID": "00082518", "output_locID": "00082518-2", "name": "Quezon", "focus_area": "2", "lat": "14.066670", "type": "ADM3", "awardID": "00066323", "lon": "122.133330", "precision": "1", "focus_area_descr": "Democratic Governance"}, {"outputID": "00082518", "output_locID": "00082518-3", "name": "Pagbilao", "focus_area": "2", "lat": "13.966890", "type": "PPL", "awardID": "00066323", "lon": "121.698350", "precision": "1", "focus_area_descr": "Democratic Governance"}, {"outputID": "00082518", "output_locID": "00082518-4", "name": "Ibabang Burgos", "focus_area": "2", "lat": "13.828800", "type": "PPL", "awardID": "00066323", "lon": "122.099800", "precision": "1", "focus_area_descr": "Democratic Governance"}, {"outputID": "00082518", "output_locID": "00082518-5", "name": "Province of Nueva Vizcaya", "focus_area": "2", "lat": "16.333330", "type": "ADM2", "awardID": "00066323", "lon": "121.333330", "precision": "1", "focus_area_descr": "Democratic Governance"}, {"outputID": "00082518", "output_locID": "00082518-6", "name": "Mountain Province", "focus_area": "2", "lat": "17.083330", "type": "ADM2", "awardID": "00066323", "lon": "121.166670", "precision": "1", "focus_area_descr": "Democratic Governance"}, {"outputID": "00082518", "output_locID": "00082518-7", "name": "Lucena City", "focus_area": "2", "lat": "13.931390", "type": "PPLA2", "awardID": "00066323", "lon": "121.617220", "precision": "1", "focus_area_descr": "Democratic Governance"}, {"outputID": "00082518", "output_locID": "00082518-8", "name": "Province of Ifugao", "focus_area": "2", "lat": "16.833330", "type": "ADM2", "awardID": "00066323", "lon": "121.166670", "precision": "1", "focus_area_descr": "Democratic Governance"}, {"outputID": "00082518", "output_locID": "00082518-9", "name": "Province of Benguet", "focus_area": "2", "lat": "16.500000", "type": "ADM2", "awardID": "00066323", "lon": "120.666670", "precision": "1", "focus_area_descr": "Democratic Governance"}, {"outputID": "00082518", "output_locID": "00082518-10", "name": "Atimonan", "focus_area": "2", "lat": "14.002700", "type": "PPL", "awardID": "00066323", "lon": "121.920780", "precision": "1", "focus_area_descr": "Democratic Governance"}, {"outputID": "00082518", "output_locID": "00082518-11", "name": "Province of Abra", "focus_area": "2", "lat": "17.583330", "type": "ADM2", "awardID": "00066323", "lon": "120.750000", "precision": "1", "focus_area_descr": "Democratic Governance"}, {"outputID": "00082518", "output_locID": "00082518-12", "name": "Kalinga", "focus_area": "2", "lat": "17.425990", "type": "ADM2", "awardID": "00066323", "lon": "121.416090", "precision": "1", "focus_area_descr": "Democratic Governance"}, {"outputID": "00082518", "output_locID": "00082518-13", "name": "National Capital Region", "focus_area": "2", "lat": "14.594550", "type": "ADM1", "awardID": "00066323", "lon": "120.971750", "precision": "1", "focus_area_descr": "Democratic Governance"}], "operating_unit": "Philippines", "budget": 388500.0, "iati_op_id": "PH", "inst_descr": "National Execution", "start": "2012-01-01", "operating_unit_id": "PHL", "expenditure": 344136.0, "document_name": [["Country Programme Document-PHL-Democratic Governance", "2014 TRAC Allocation-PHL- Democratic Governance", "2012 Annual Work Plan-PHL-Democratic Governance", "2013 Annual Work Plan-PHL- Democratic Governance", "2014 Annual Work Plan-PHL-Democratic Governance", "2013 Annual Progress Report- PHL- Democratic Governance", "2012 Annual Progress Report- PHL- Democratic Governance", "2013 Annual Progress Report- PHL- Democratic Governance", "United%20Nations%20Development%20Assistance%20Framework%202012-2018", "Making Justice Work for the Poor", "Making Justice Work for the Poor", "Making Justice Work for the Poor", "Making Justice Work for the Poor"], ["https://info.undp.org/docs/pdc/Documents/PHL/82518 Philippine Country Programme Document 2012-2016-final.pdf", "https://info.undp.org/docs/pdc/Documents/PHL/TRAC allocation 82518 2014 AWP SCP.pdf", "https://info.undp.org/docs/pdc/Documents/PHL/Revised SC 2012 Making Justice Work AWP.pdf", "https://info.undp.org/docs/pdc/Documents/PHL/82518 - SC 2013 AWP.pdf", "https://info.undp.org/docs/pdc/Documents/PHL/82518 - 2014 AWP - SCP Making Justice Work.pdf", "https://info.undp.org/docs/pdc/Documents/PHL/2014 APR_Supreme Court 82518.pdf", "https://info.undp.org/docs/pdc/Documents/PHL/2012 APR 66323 Supreme Court.pdf", "https://info.undp.org/docs/pdc/Documents/PHL/2013 APR 82518 Supreme Court.pdf", "http://www.ph.undp.org/content/dam/philippines/docs/legalframeworks/United Nations Development Assistance Framework 2012-2018.pdf", "http://procurement-notices.undp.org/view_notice.cfm?notice_id=22742", "http://procurement-notices.undp.org/view_notice.cfm?notice_id=22948", "http://procurement-notices.undp.org/view_notice.cfm?notice_id=23011", "http://procurement-notices.undp.org/view_notice.cfm?notice_id=23872"], ["pdf", "pdf", "pdf", "pdf", "pdf", "pdf", "pdf", "pdf", "pdf", "", "", "", ""], [0, 3, 3, 3, 3, 6, 6, 6, 7, 10, 10, 10, 10]], "project_id": "00066323", "inst_type_id": "10", "operating_unit_website": null, "project_title": "making justice work for the poor"}