{"project_descr": "The project strengthens capacity of females for their meaningful participation in decision making at the local level and supports their engagement in local governance during the rounds of local elections in 2012-15", "fiscal_year": [2015, 2012, 2013, 2014], "end": "2015-12-31", "region_id": "RBEC", "operating_unit_email": "registry.am@undp.org", "inst_id": "00138", "outputs": [{"output_id": "00081881", "crs": "15170", "donor_id": ["10159", "00012"], "focus_area": "4", "gender_descr": "Gender Equality", "output_title": "Women in Local Democracy", "budget": [295141.0, 329875.0, 211547.0, 120168.0], "fiscal_year": [2012, 2013, 2014, 2015], "gender_id": "1", "donor_name": ["EUROPEAN COMMISSION", "Voluntary Contributions"], "award_id": "00065333", "output_descr": "Promoting Equal Rights and Equal Opportunities in Armenia: Women in Local Democracy", "donor_short": ["EUCOMM", "UNDP"], "expenditure": [207891.0, 248899.0, 201832.0, 101725.0], "crs_descr": null, "focus_area_descr": "Gender Equality"}], "subnational": [{"outputID": "00081881", "output_locID": "00081881-1", "name": "Sagmosavan", "focus_area": "4", "lat": "40.381680", "type": "PPL", "awardID": "00065333", "lon": "44.393700", "precision": "1", "focus_area_descr": "Gender Equality"}, {"outputID": "00081881", "output_locID": "00081881-2", "name": "Paravakar", "focus_area": "4", "lat": "40.982480", "type": "PPL", "awardID": "00065333", "lon": "45.366960", "precision": "1", "focus_area_descr": "Gender Equality"}, {"outputID": "00081881", "output_locID": "00081881-3", "name": "Nor Artik", "focus_area": "4", "lat": "40.465980", "type": "PPL", "awardID": "00065333", "lon": "43.706230", "precision": "1", "focus_area_descr": "Gender Equality"}, {"outputID": "00081881", "output_locID": "00081881-4", "name": "Marmashen", "focus_area": "4", "lat": "40.834860", "type": "PPL", "awardID": "00065333", "lon": "43.777900", "precision": "1", "focus_area_descr": "Gender Equality"}, {"outputID": "00081881", "output_locID": "00081881-5", "name": "Ghursali", "focus_area": "4", "lat": "40.826810", "type": "PPL", "awardID": "00065333", "lon": "44.337310", "precision": "1", "focus_area_descr": "Gender Equality"}, {"outputID": "00081881", "output_locID": "00081881-6", "name": "Yeghvard", "focus_area": "4", "lat": "40.320530", "type": "PPL", "awardID": "00065333", "lon": "44.481380", "precision": "1", "focus_area_descr": "Gender Equality"}, {"outputID": "00081881", "output_locID": "00081881-7", "name": "Jermuk", "focus_area": "4", "lat": "39.841730", "type": "PPL", "awardID": "00065333", "lon": "45.672300", "precision": "1", "focus_area_descr": "Gender Equality"}, {"outputID": "00081881", "output_locID": "00081881-8", "name": "Sisian", "focus_area": "4", "lat": "39.521020", "type": "PPL", "awardID": "00065333", "lon": "46.035810", "precision": "1", "focus_area_descr": "Gender Equality"}, {"outputID": "00081881", "output_locID": "00081881-9", "name": "Meghri", "focus_area": "4", "lat": "38.902920", "type": "PPL", "awardID": "00065333", "lon": "46.244580", "precision": "1", "focus_area_descr": "Gender Equality"}, {"outputID": "00081881", "output_locID": "00081881-10", "name": "Akhlat\u2019yan", "focus_area": "4", "lat": "39.442580", "type": "PPL", "awardID": "00065333", "lon": "46.037730", "precision": "1", "focus_area_descr": "Gender Equality"}, {"outputID": "00081881", "output_locID": "00081881-11", "name": "Hovtashen", "focus_area": "4", "lat": "40.025100", "type": "PPL", "awardID": "00065333", "lon": "44.451290", "precision": "1", "focus_area_descr": "Gender Equality"}, {"outputID": "00081881", "output_locID": "00081881-12", "name": "Dilijan", "focus_area": "4", "lat": "40.741030", "type": "PPL", "awardID": "00065333", "lon": "44.863620", "precision": "1", "focus_area_descr": "Gender Equality"}, {"outputID": "00081881", "output_locID": "00081881-13", "name": "Getik", "focus_area": "4", "lat": "40.915310", "type": "PPL", "awardID": "00065333", "lon": "44.058560", "precision": "1", "focus_area_descr": "Gender Equality"}, {"outputID": "00081881", "output_locID": "00081881-14", "name": "Haykavan", "focus_area": "4", "lat": "40.803120", "type": "PPL", "awardID": "00065333", "lon": "43.751720", "precision": "1", "focus_area_descr": "Gender Equality"}, {"outputID": "00081881", "output_locID": "00081881-15", "name": "Dvin", "focus_area": "4", "lat": "40.019840", "type": "PPL", "awardID": "00065333", "lon": "44.583760", "precision": "1", "focus_area_descr": "Gender Equality"}, {"outputID": "00081881", "output_locID": "00081881-16", "name": "Gyumri", "focus_area": "4", "lat": "40.794200", "type": "PPLA", "awardID": "00065333", "lon": "43.845280", "precision": "1", "focus_area_descr": "Gender Equality"}, {"outputID": "00081881", "output_locID": "00081881-17", "name": "K\u2019araberd", "focus_area": "4", "lat": "40.543670", "type": "PPL", "awardID": "00065333", "lon": "43.830550", "precision": "1", "focus_area_descr": "Gender Equality"}, {"outputID": "00081881", "output_locID": "00081881-18", "name": "Yerevan", "focus_area": "4", "lat": "40.181110", "type": "PPLC", "awardID": "00065333", "lon": "44.513610", "precision": "1", "focus_area_descr": "Gender Equality"}, {"outputID": "00081881", "output_locID": "00081881-19", "name": "Norashen", "focus_area": "4", "lat": "40.657230", "type": "PPL", "awardID": "00065333", "lon": "44.071790", "precision": "1", "focus_area_descr": "Gender Equality"}, {"outputID": "00081881", "output_locID": "00081881-20", "name": "Khnkoyan", "focus_area": "4", "lat": "40.839580", "type": "PPL", "awardID": "00065333", "lon": "44.021080", "precision": "1", "focus_area_descr": "Gender Equality"}, {"outputID": "00081881", "output_locID": "00081881-21", "name": "Noravan", "focus_area": "4", "lat": "39.520180", "type": "PPL", "awardID": "00065333", "lon": "46.101500", "precision": "1", "focus_area_descr": "Gender Equality"}, {"outputID": "00081881", "output_locID": "00081881-22", "name": "Arteni", "focus_area": "4", "lat": "40.298480", "type": "PPL", "awardID": "00065333", "lon": "43.762200", "precision": "1", "focus_area_descr": "Gender Equality"}, {"outputID": "00081881", "output_locID": "00081881-23", "name": "Ashtarak", "focus_area": "4", "lat": "40.299100", "type": "PPLA", "awardID": "00065333", "lon": "44.362040", "precision": "1", "focus_area_descr": "Gender Equality"}, {"outputID": "00081881", "output_locID": "00081881-24", "name": "Gavarr", "focus_area": "4", "lat": "40.353980", "type": "PPLA", "awardID": "00065333", "lon": "45.123860", "precision": "1", "focus_area_descr": "Gender Equality"}, {"outputID": "00081881", "output_locID": "00081881-25", "name": "Sevan", "focus_area": "4", "lat": "40.548400", "type": "PPL", "awardID": "00065333", "lon": "44.948680", "precision": "1", "focus_area_descr": "Gender Equality"}, {"outputID": "00081881", "output_locID": "00081881-26", "name": "Dsegh", "focus_area": "4", "lat": "40.961700", "type": "PPL", "awardID": "00065333", "lon": "44.650030", "precision": "1", "focus_area_descr": "Gender Equality"}, {"outputID": "00081881", "output_locID": "00081881-27", "name": "Vanadzor", "focus_area": "4", "lat": "40.804560", "type": "PPLA", "awardID": "00065333", "lon": "44.493900", "precision": "1", "focus_area_descr": "Gender Equality"}, {"outputID": "00081881", "output_locID": "00081881-28", "name": "Kot\u2019i", "focus_area": "4", "lat": "41.132430", "type": "PPL", "awardID": "00065333", "lon": "45.129500", "precision": "1", "focus_area_descr": "Gender Equality"}, {"outputID": "00081881", "output_locID": "00081881-29", "name": "Noyemberyan", "focus_area": "4", "lat": "41.172440", "type": "PPL", "awardID": "00065333", "lon": "44.999170", "precision": "1", "focus_area_descr": "Gender Equality"}, {"outputID": "00081881", "output_locID": "00081881-30", "name": "Yerevan", "focus_area": "4", "lat": "40.181110", "type": "PPLC", "awardID": "00065333", "lon": "44.513610", "precision": "1", "focus_area_descr": "Gender Equality"}, {"outputID": "00081881", "output_locID": "00081881-31", "name": "K\u2019arahunj", "focus_area": "4", "lat": "39.473830", "type": "PPL", "awardID": "00065333", "lon": "46.359640", "precision": "1", "focus_area_descr": "Gender Equality"}, {"outputID": "00081881", "output_locID": "00081881-32", "name": "Ditak", "focus_area": "4", "lat": "40.045190", "type": "PPL", "awardID": "00065333", "lon": "44.519420", "precision": "1", "focus_area_descr": "Gender Equality"}, {"outputID": "00081881", "output_locID": "00081881-33", "name": "Jrashen", "focus_area": "4", "lat": "40.052760", "type": "PPL", "awardID": "00065333", "lon": "44.512590", "precision": "1", "focus_area_descr": "Gender Equality"}, {"outputID": "00081881", "output_locID": "00081881-34", "name": "Arp\u2019unk\u2019", "focus_area": "4", "lat": "40.287080", "type": "PPL", "awardID": "00065333", "lon": "45.735100", "precision": "1", "focus_area_descr": "Gender Equality"}, {"outputID": "00081881", "output_locID": "00081881-35", "name": "Kut\u2019", "focus_area": "4", "lat": "40.179660", "type": "PPL", "awardID": "00065333", "lon": "45.896730", "precision": "1", "focus_area_descr": "Gender Equality"}, {"outputID": "00081881", "output_locID": "00081881-36", "name": "Urut", "focus_area": "4", "lat": "41.067780", "type": "PPL", "awardID": "00065333", "lon": "44.396280", "precision": "1", "focus_area_descr": "Gender Equality"}, {"outputID": "00081881", "output_locID": "00081881-37", "name": "Krashen", "focus_area": "4", "lat": "40.877410", "type": "PPL", "awardID": "00065333", "lon": "43.965400", "precision": "1", "focus_area_descr": "Gender Equality"}, {"outputID": "00081881", "output_locID": "00081881-38", "name": "P\u2019anik", "focus_area": "4", "lat": "40.663260", "type": "PPL", "awardID": "00065333", "lon": "43.970460", "precision": "1", "focus_area_descr": "Gender Equality"}, {"outputID": "00081881", "output_locID": "00081881-39", "name": "Arevis", "focus_area": "4", "lat": "39.406340", "type": "PPL", "awardID": "00065333", "lon": "45.900220", "precision": "1", "focus_area_descr": "Gender Equality"}, {"outputID": "00081881", "output_locID": "00081881-40", "name": "Ijevan", "focus_area": "4", "lat": "40.878770", "type": "PPLA", "awardID": "00065333", "lon": "45.148510", "precision": "1", "focus_area_descr": "Gender Equality"}, {"outputID": "00081881", "output_locID": "00081881-41", "name": "Tsiatsan", "focus_area": "4", "lat": "40.186900", "type": "PPL", "awardID": "00065333", "lon": "44.266080", "precision": "1", "focus_area_descr": "Gender Equality"}, {"outputID": "00081881", "output_locID": "00081881-42", "name": "Artashat", "focus_area": "4", "lat": "39.961440", "type": "PPLA", "awardID": "00065333", "lon": "44.544470", "precision": "1", "focus_area_descr": "Gender Equality"}, {"outputID": "00081881", "output_locID": "00081881-43", "name": "Akunk\u2019", "focus_area": "4", "lat": "40.158860", "type": "PPL", "awardID": "00065333", "lon": "45.725680", "precision": "1", "focus_area_descr": "Gender Equality"}, {"outputID": "00081881", "output_locID": "00081881-44", "name": "Khoznavar", "focus_area": "4", "lat": "39.623930", "type": "PPL", "awardID": "00065333", "lon": "46.353040", "precision": "1", "focus_area_descr": "Gender Equality"}], "operating_unit": "Armenia", "budget": 956731.0, "iati_op_id": "AM", "inst_descr": "Ministry of Foreign Affairs", "start": "2012-04-01", "operating_unit_id": "ARM", "expenditure": 760347.0, "document_name": [["Project Document - Deliverable Description", "Standard Progress Report 2013_WiLD", "IMG_9661", "IMG_9656", "Signed Prodoc", "Budget Revision C", "Interim Report 2013", "CPAP_UNDPAM_2010-2015_eng"], ["https://info.undp.org/docs/pdc/Documents/ARM/23.03.12 Women in Local Democracy Prodoc_EU Annex I.DOC", "https://info.undp.org/docs/pdc/Documents/ARM/Standard Progress Report 2013_WiLD.doc", "https://info.undp.org/docs/pdc/Documents/ARM/IMG_9661.JPG", "https://info.undp.org/docs/pdc/Documents/ARM/IMG_9656.JPG", "https://info.undp.org/docs/pdc/Documents/ARM/00081881_AWP.pdf", "https://info.undp.org/docs/pdc/Documents/ARM/00081881_AWP_Rev C.pdf", "https://info.undp.org/docs/pdc/Documents/ARM/L310-EU Interim Report 2013.pdf", "http://www.am.undp.org/content/dam/armenia/docs/CPAP_UNDPAM_2010-2015_eng.pdf"], ["doc", "doc", "", "", "pdf", "pdf", "pdf", "pdf"], [0, 6, 100, 100, 0, 0, 6, 7]], "project_id": "00065333", "inst_type_id": "10", "operating_unit_website": "http://www.undp.am/", "project_title": "women in local democracy"}