{"project_descr": "Project Social Welfare Reform  Enhancing Social Inclusion builds and strengthens the institutional mechanisms and capacities that will enable development of community-based social services.", "fiscal_year": [2014, 2011, 2012, 2013], "end": "2014-07-09", "region_id": "RBEC", "operating_unit_email": "registry.me@undp.org", "inst_id": "99999", "outputs": [{"output_id": "00077318", "crs": "15110", "donor_id": ["10159"], "focus_area": "1", "gender_descr": "Gender Equality", "output_title": "Social Welfare Reform - IPA", "budget": [339540.0, 577695.0, 545155.0, 249607.0], "fiscal_year": [2011, 2012, 2013, 2014], "gender_id": "1", "donor_name": ["EUROPEAN COMMISSION"], "award_id": "00061133", "output_descr": "Project Social Welfare Reform  Enhancing Social Inclusion builds and strengthens the institutional mechanisms and capacities that will enable development of community-based social services.", "donor_short": ["EUCOMM"], "expenditure": [335916.0, 579809.0, 524476.0, 258577.0], "crs_descr": "Public sector policy and administrative management", "focus_area_descr": "Poverty reduction & MDG achievement"}], "subnational": [{"outputID": "00077318", "output_locID": "00077318-1", "name": "Bar, Montenegro", "focus_area": "1", "lat": "42.09306", "type": "ADM1", "awardID": "00061133", "lon": "19.10028", "precision": "4", "focus_area_descr": "Poverty reduction & MDG achievement"}, {"outputID": "00077318", "output_locID": "00077318-2", "name": "Bijelo Polje, Montenegro", "focus_area": "1", "lat": "43.04472", "type": "ADM1", "awardID": "00061133", "lon": "19.74333", "precision": "4", "focus_area_descr": "Poverty reduction & MDG achievement"}, {"outputID": "00077318", "output_locID": "00077318-3", "name": "Cetinje, Montenegro", "focus_area": "1", "lat": "42.39063", "type": "PPLC", "awardID": "00061133", "lon": "18.91417", "precision": "3", "focus_area_descr": "Poverty reduction & MDG achievement"}, {"outputID": "00077318", "output_locID": "00077318-4", "name": "Mojkovac, Montenegro", "focus_area": "1", "lat": "42.95917", "type": "ADM1", "awardID": "00061133", "lon": "19.58833", "precision": "4", "focus_area_descr": "Poverty reduction & MDG achievement"}, {"outputID": "00077318", "output_locID": "00077318-5", "name": "Niksic, Montenegro", "focus_area": "1", "lat": "42.79944", "type": "PPLC", "awardID": "00061133", "lon": "18.92028", "precision": "3", "focus_area_descr": "Poverty reduction & MDG achievement"}, {"outputID": "00077318", "output_locID": "00077318-6", "name": "Pluzine, Montenegro", "focus_area": "1", "lat": "43.17417", "type": "ADM1", "awardID": "00061133", "lon": "18.81694", "precision": "4", "focus_area_descr": "Poverty reduction & MDG achievement"}, {"outputID": "00077318", "output_locID": "00077318-7", "name": "Podgorica, Montenegro", "focus_area": "1", "lat": "42.44111", "type": "ADM1", "awardID": "00061133", "lon": "19.26361", "precision": "4", "focus_area_descr": "Poverty reduction & MDG achievement"}, {"outputID": "00077318", "output_locID": "00077318-8", "name": "Savnik, Montenegro", "focus_area": "1", "lat": "42.95639", "type": "ADM1", "awardID": "00061133", "lon": "19.09389", "precision": "4", "focus_area_descr": "Poverty reduction & MDG achievement"}, {"outputID": "00077318", "output_locID": "00077318-9", "name": "Ulcinj, Montenegro", "focus_area": "1", "lat": "41.95528", "type": "PPL", "awardID": "00061133", "lon": "19.26833", "precision": "3", "focus_area_descr": "Poverty reduction & MDG achievement"}], "operating_unit": "Montenegro", "budget": 1711997.0, "iati_op_id": "ME", "inst_descr": "UNDP", "start": "2011-01-15", "operating_unit_id": "MNE", "expenditure": 1698778.0, "document_name": [["00061133_Social Inclusion_IPA2010_UNDP_MNE_031110.doc", "MNE", "MNE%20CPAP%202012%20-%202016"], ["http://www.undp.org/content/dam/undp/documents/projects/MNE/00061133_Social Inclusion_IPA2010_UNDP_MNE_031110.doc", "http://www.undp.org/content/dam/undp/documents/IATI/Contract/MNE.xlsx", "http://www.me.undp.org/content/dam/montenegro/docs/legalfrmw/MNE CPAP 2012 - 2016.pdf"]], "project_id": "00061133", "inst_type_id": "40", "operating_unit_website": "http://www.me.undp.org/", "project_title": "social welfare reform - ipa project"}