{"budget":[209927.0],"document_name":[],"end":"2014-06-30","expenditure":[200712.0],"fiscal_year":["2014","2013","2012"],"iati_op_id":"BJ","inst_descr":"National Execution","inst_id":"00238","inst_type_id":"10","operating_unit":"Benin","operating_unit_email":"registry.bj@undp.org","operating_unit_id":"BEN","operating_unit_website":"http://www.bj.undp.org/","outputs":[{"award_id":"00068297","budget":[10000.0,169683.0,30244.0],"crs":"99810","crs_descr":"Sectors Not Specified","donor_id":["00012"],"donor_name":["Voluntary Contributions"],"donor_short":["UNDP"],"expenditure":[9603.0,166598.0,24511.0],"fiscal_year":["2014","2013","2012"],"focus_area":"-","focus_area_descr":"-","gender_descr":"Gender Equality","gender_id":"1","output_descr":"Le projet vise \u00e0 mettre les Jeunes au centre du processus de d\u00e9veloppement en s'appuyant sur la promotion des valeurs et l'utilisation des technologies de l'information et de la communication.","output_id":"00083569","output_title":"Projet Jeunes Agents du Change"}],"project_descr":"Projet Jeunes Agents du Changement","project_id":"00068297","project_title":"Projet Jeunes Agents du Changement","region_id":"RBA","start":"2012-07-01","subnational":[{"awardID":"00068297","focus_area":"-","focus_area_descr":"-","lat":"6.66547","lon":"2.15138","name":"Allada","outputID":"00083569","output_locID":"00083569-1","precision":"3","type":"PPL"},{"awardID":"00068297","focus_area":"-","focus_area_descr":"-","lat":"7.17826","lon":"2.0667","name":"Bohicon","outputID":"00083569","output_locID":"00083569-2","precision":"3","type":"PPL"},{"awardID":"00068297","focus_area":"-","focus_area_descr":"-","lat":"6.36536","lon":"2.41833","name":"Cotonou","outputID":"00083569","output_locID":"00083569-3","precision":"3","type":"PPLA"},{"awardID":"00068297","focus_area":"-","focus_area_descr":"-","lat":"10.30416","lon":"1.37962","name":"Natitingou","outputID":"00083569","output_locID":"00083569-4","precision":"3","type":"PPLA"},{"awardID":"00068297","focus_area":"-","focus_area_descr":"-","lat":"9.33716","lon":"2.63031","name":"Parakou","outputID":"00083569","output_locID":"00083569-5","precision":"3","type":"PPLA"},{"awardID":"00068297","focus_area":"-","focus_area_descr":"-","lat":"6.49646","lon":"2.60359","name":"Porto Novo","outputID":"00083569","output_locID":"00083569-6","precision":"3","type":"PPLC"}]}