{"budget":[13706834.0],"document_name":[["UPGP Signing Version.pdf","2011-08-25_Signed Project Document_Upazila Governance Project (UZGP)_1.pdf","BGD","UNDAF%202012-2016"],["http://www.undp.org/content/dam/undp/documents/projects/BGD/UPGP Signing Version.pdf","http://www.undp.org/content/dam/undp/documents/projects/BGD/2011-08-25_Signed Project Document_Upazila Governance Project (UZGP)_1.pdf","http://www.undp.org/content/dam/undp/documents/IATI/Contract/BGD.xlsx","http://www.bd.undp.org/content/dam/bangladesh/docs/LegalFramework/UNDAF 2012-2016.pdf"]],"end":"2016-12-31","expenditure":[6455602.0],"fiscal_year":["2014","2013","2012"],"iati_op_id":"BD","inst_descr":"National Execution","inst_id":"00256","inst_type_id":"10","operating_unit":"Bangladesh","operating_unit_email":"communications.bgd@undp.org","operating_unit_id":"BGD","operating_unit_website":"http://www.bd.undp.org/","outputs":[{"award_id":"00062785","budget":[3710842.0,2683395.0,2345777.0],"crs":"15110","crs_descr":"Public sector policy and administrative management","donor_id":["00012","10159","10714"],"donor_name":["Voluntary Contributions","EUROPEAN COMMISSION","UNDP AS ADMINISTRATIVE AGENT FOR A JOINT PROGRAMME PASS THROUGH ARRANGEMENT"],"donor_short":["UNDP","EUCOMM","UNDP(JPAA)"],"expenditure":[1305616.0,2003976.0,1259821.0],"fiscal_year":["2014","2013","2012"],"focus_area":"2","focus_area_descr":"Democratic governance","gender_descr":"Gender Equality","gender_id":"1","output_descr":"Upazila Governance Project","output_id":"00080199","output_title":"Upazila Governance Project"},{"award_id":"00062785","budget":[2329540.0,1681800.0,955480.0],"crs":"15110","crs_descr":"Public sector policy and administrative management","donor_id":["00012","10159","10714"],"donor_name":["Voluntary Contributions","EUROPEAN COMMISSION","UNDP AS ADMINISTRATIVE AGENT FOR A JOINT PROGRAMME PASS THROUGH ARRANGEMENT"],"donor_short":["UNDP","EUCOMM","UNDP(JPAA)"],"expenditure":[396976.0,1291313.0,197900.0],"fiscal_year":["2014","2013","2012"],"focus_area":"2","focus_area_descr":"Democratic governance","gender_descr":"Gender Equality","gender_id":"1","output_descr":"Union Parisad Governance Project (UPGP)","output_id":"00080905","output_title":"Union Parisad Governance Proj"}],"project_descr":"Strengthened capacities of local governments and other stakeholders to foster participatory local development service delivery for the MDGs","project_id":"00062785","project_title":"Local Government Support Program","region_id":"RBAP","start":"2012-01-01","subnational":[{"awardID":"00062785","focus_area":"2","focus_area_descr":"Democratic governance","lat":"22.13333","lon":"90.13333","name":"Barguna","outputID":"00080199","output_locID":"00080199-1","precision":"3","type":"ADM2"},{"awardID":"00062785","focus_area":"2","focus_area_descr":"Democratic governance","lat":"23.98333","lon":"91.16667","name":"Brahmanbaria","outputID":"00080199","output_locID":"00080199-2","precision":"3","type":"ADM2"},{"awardID":"00062785","focus_area":"2","focus_area_descr":"Democratic governance","lat":"22.80978","lon":"89.56439","name":"Khulna","outputID":"00080199","output_locID":"00080199-3","precision":"3","type":"ADM2"},{"awardID":"00062785","focus_area":"2","focus_area_descr":"Democratic governance","lat":"24.43944","lon":"90.78291","name":"Kishoreganj","outputID":"00080199","output_locID":"00080199-4","precision":"3","type":"ADM2"},{"awardID":"00062785","focus_area":"2","focus_area_descr":"Democratic governance","lat":"25.74664","lon":"89.25166","name":"Rangpur","outputID":"00080199","output_locID":"00080199-5","precision":"3","type":"ADM2"},{"awardID":"00062785","focus_area":"2","focus_area_descr":"Democratic governance","lat":"24.45771","lon":"89.70802","name":"Sirajganj","outputID":"00080199","output_locID":"00080199-6","precision":"3","type":"ADM2"},{"awardID":"00062785","focus_area":"2","focus_area_descr":"Democratic governance","lat":"24.86667","lon":"91.41667","name":"Sunamganj","outputID":"00080199","output_locID":"00080199-7","precision":"3","type":"ADM2"},{"awardID":"00062785","focus_area":"2","focus_area_descr":"Democratic governance","lat":"22.13333","lon":"90.13333","name":"Barguna","outputID":"00080905","output_locID":"00080905-1","precision":"3","type":"ADM2"},{"awardID":"00062785","focus_area":"2","focus_area_descr":"Democratic governance","lat":"23.98333","lon":"91.16667","name":"Brahmanbaria","outputID":"00080905","output_locID":"00080905-2","precision":"3","type":"ADM2"},{"awardID":"00062785","focus_area":"2","focus_area_descr":"Democratic governance","lat":"22.80978","lon":"89.56439","name":"Khulna","outputID":"00080905","output_locID":"00080905-3","precision":"3","type":"ADM2"},{"awardID":"00062785","focus_area":"2","focus_area_descr":"Democratic governance","lat":"24.43944","lon":"90.78291","name":"Kishoreganj","outputID":"00080905","output_locID":"00080905-4","precision":"3","type":"ADM2"},{"awardID":"00062785","focus_area":"2","focus_area_descr":"Democratic governance","lat":"25.74664","lon":"89.25166","name":"Rangpur","outputID":"00080905","output_locID":"00080905-5","precision":"3","type":"ADM2"},{"awardID":"00062785","focus_area":"2","focus_area_descr":"Democratic governance","lat":"24.45771","lon":"89.70802","name":"Sirajganj","outputID":"00080905","output_locID":"00080905-6","precision":"3","type":"ADM2"},{"awardID":"00062785","focus_area":"2","focus_area_descr":"Democratic governance","lat":"24.86667","lon":"91.41667","name":"Sunamganj","outputID":"00080905","output_locID":"00080905-7","precision":"3","type":"ADM2"}]}