{"project_descr": "Projet Jeunes Agents du Changement", "fiscal_year": [2014, 2012, 2013], "end": "2014-06-30", "region_id": "RBA", "operating_unit_email": "registry.bj@undp.org", "inst_id": "00238", "outputs": [{"output_id": "00083569", "crs": "99810", "donor_id": ["00012"], "focus_area": "-", "gender_descr": "Gender Equality", "output_title": "Projet Jeunes Agents du Change", "budget": [30244.0, 169683.0, 10800.0], "fiscal_year": [2012, 2013, 2014], "gender_id": "1", "donor_name": ["Voluntary Contributions"], "award_id": "00068297", "output_descr": "Projet Jeunes Agents du Changement", "donor_short": ["UNDP"], "expenditure": [24511.0, 166598.0, 10711.0], "crs_descr": "Sectors Not Specified", "focus_area_descr": "-"}], "subnational": [{"outputID": "00083569", "output_locID": "00083569-1", "name": "Allada", "focus_area": "-", "lat": "6.66547", "type": "PPL", "awardID": "00068297", "lon": "2.15138", "precision": "3", "focus_area_descr": "-"}, {"outputID": "00083569", "output_locID": "00083569-2", "name": "Bohicon", "focus_area": "-", "lat": "7.17826", "type": "PPL", "awardID": "00068297", "lon": "2.0667", "precision": "3", "focus_area_descr": "-"}, {"outputID": "00083569", "output_locID": "00083569-3", "name": "Cotonou", "focus_area": "-", "lat": "6.36536", "type": "PPLA", "awardID": "00068297", "lon": "2.41833", "precision": "3", "focus_area_descr": "-"}, {"outputID": "00083569", "output_locID": "00083569-4", "name": "Natitingou", "focus_area": "-", "lat": "10.30416", "type": "PPLA", "awardID": "00068297", "lon": "1.37962", "precision": "3", "focus_area_descr": "-"}, {"outputID": "00083569", "output_locID": "00083569-5", "name": "Parakou", "focus_area": "-", "lat": "9.33716", "type": "PPLA", "awardID": "00068297", "lon": "2.63031", "precision": "3", "focus_area_descr": "-"}, {"outputID": "00083569", "output_locID": "00083569-6", "name": "Porto Novo", "focus_area": "-", "lat": "6.49646", "type": "PPLC", "awardID": "00068297", "lon": "2.60359", "precision": "3", "focus_area_descr": "-"}], "operating_unit": "Benin", "budget": 210727.0, "iati_op_id": "BJ", "inst_descr": "National Execution", "start": "2012-07-01", "operating_unit_id": "BEN", "expenditure": 201820.0, "document_name": [["UNDAF%20Benin%202014-2018"], ["http://www.bj.undp.org/content/benin/fr/home/operations/legal_framework/_jcr_content/centerparsys/download_0/file.res/UNDAF Benin 2014-2018.pdf"]], "project_id": "00068297", "inst_type_id": "10", "operating_unit_website": "http://www.bj.undp.org/", "project_title": "projet jeunes agents du changement"}