{"budget":[199927.0],"document_name":[],"end":"2013-12-31","expenditure":[139333.0],"fiscal_year":["2013","2012"],"iati_op_id":"BJ","inst_descr":"National Execution","inst_id":"00238","inst_type_id":"10","operating_unit":"Benin","operating_unit_id":"BEN","outputs":[{"award_id":"00068297","budget":[169683.0,30244.0],"crs":"15150","crs_descr":"Strengthening civil society","donor_id":["00012"],"donor_name":["Voluntary Contributions"],"donor_short":["UNDP"],"expenditure":[114822.0,24511.0],"fiscal_year":["2013","2012"],"focus_area":"2","focus_area_descr":"Democratic governance","gender_descr":"Gender Equality","gender_id":"1","output_descr":"Le projet vise \u00e0 mettre les Jeunes au centre du processus de d\u00e9veloppement en s'appuyant sur la promotion des valeurs et l'utilisation des technologies de l'information et de la communication.","output_id":"00083569","output_title":"Projet Jeunes Agents du Change"}],"project_descr":"Projet Jeunes Agents du Changement","project_id":"00068297","project_title":"Projet Jeunes Agents du Changement","region_id":"RBA","start":"2012-07-01","subnational":[{"awardID":"00068297","lat":"6.66547","lon":"2.15138","name":"Allada","precision":"3","type":"PPL"},{"awardID":"00068297","lat":"7.17826","lon":"2.0667","name":"Bohicon","precision":"3","type":"PPL"},{"awardID":"00068297","lat":"6.36536","lon":"2.41833","name":"Cotonou","precision":"3","type":"PPLA"},{"awardID":"00068297","lat":"10.30416","lon":"1.37962","name":"Natitingou","precision":"3","type":"PPLA"},{"awardID":"00068297","lat":"9.33716","lon":"2.63031","name":"Parakou","precision":"3","type":"PPLA"},{"awardID":"00068297","lat":"6.49646","lon":"2.60359","name":"Porto Novo","precision":"3","type":"PPLC"}]}