{"project_descr": "Pr\u00e9servation participative de la biodiversit\u00e9 et d\u00e9veloppement faiblement \u00e9missif en carbone d'\u00e9covillages pilotes \u00e0 proximit\u00e9 des aires prot\u00e9g\u00e9es.", "fiscal_year": [2014, 2012, 2013], "end": "2016-12-31", "region_id": "RBA", "operating_unit_email": "registry.sn@undp.org ", "inst_id": "02755", "outputs": [{"output_id": "00077029", "crs": "23010", "donor_id": ["00012", "10003"], "focus_area": "1", "gender_descr": "Gender Equality", "output_title": "ECOVILLAGE", "budget": [901081.0, 1193363.0, 1014500.0], "fiscal_year": [2012, 2013, 2014], "gender_id": "1", "donor_name": ["Voluntary Contributions", "Global Environment Fund Truste"], "award_id": "00060987", "output_descr": "Developpement ecologique durable, creation d'emplois et d'amelioration des conditions de vie en milieu rural", "donor_short": ["UNDP", "GEFTrustee"], "expenditure": [812256.0, 851913.0, 806994.0], "crs_descr": null, "focus_area_descr": "Inclusive & Sustainable Growth"}], "subnational": [{"outputID": "00077029", "output_locID": "00077029-1", "name": "Kakur", "focus_area": "1", "lat": "18.100000", "type": "PPL", "awardID": "00060987", "lon": "30.916670", "precision": "1", "focus_area_descr": "Inclusive & Sustainable Growth"}, {"outputID": "00077029", "output_locID": "00077029-2", "name": "Ferlo Tyikkit\u00e9", "focus_area": "1", "lat": "16.130350", "type": "PPL", "awardID": "00060987", "lon": "-14.001420", "precision": "1", "focus_area_descr": "Inclusive & Sustainable Growth"}, {"outputID": "00077029", "output_locID": "00077029-3", "name": "Mbam", "focus_area": "1", "lat": "15.112800", "type": "PPL", "awardID": "00060987", "lon": "-15.849600", "precision": "1", "focus_area_descr": "Inclusive & Sustainable Growth"}, {"outputID": "00077029", "output_locID": "00077029-4", "name": "Massarinko Bolon", "focus_area": "1", "lat": "13.603890", "type": "CRKT", "awardID": "00060987", "lon": "-16.526110", "precision": "1", "focus_area_descr": "Inclusive & Sustainable Growth"}, {"outputID": "00077029", "output_locID": "00077029-5", "name": "Parc National du Niokolo-Koba", "focus_area": "1", "lat": "13.007690", "type": "PRK", "awardID": "00060987", "lon": "-12.914590", "precision": "1", "focus_area_descr": "Inclusive & Sustainable Growth"}, {"outputID": "00077029", "output_locID": "00077029-6", "name": "Niayes", "focus_area": "1", "lat": "15.416670", "type": "RGN", "awardID": "00060987", "lon": "-16.666670", "precision": "1", "focus_area_descr": "Inclusive & Sustainable Growth"}, {"outputID": "00077029", "output_locID": "00077029-7", "name": "Niayes", "focus_area": "1", "lat": "15.416670", "type": "RGN", "awardID": "00060987", "lon": "-16.666670", "precision": "1", "focus_area_descr": "Inclusive & Sustainable Growth"}, {"outputID": "00077029", "output_locID": "00077029-8", "name": "Saloum", "focus_area": "1", "lat": "14.250000", "type": "RGN", "awardID": "00060987", "lon": "-16.083330", "precision": "1", "focus_area_descr": "Inclusive & Sustainable Growth"}, {"outputID": "00077029", "output_locID": "00077029-9", "name": "Senegal River", "focus_area": "1", "lat": "15.788060", "type": "STM", "awardID": "00060987", "lon": "-16.528890", "precision": "1", "focus_area_descr": "Inclusive & Sustainable Growth"}], "operating_unit": "Senegal", "budget": 3108944.0, "iati_op_id": "SN", "inst_descr": "National Execution", "start": "2011-02-03", "operating_unit_id": "SEN", "expenditure": 2471163.0, "document_name": [["00060987_DAP ECOVILLAGE dernier prodoc sign\u00e9 2011 VF", "00060987_PRODOC ECOVILLAG PGARDE"], ["http://www.undp.org/content/dam/undp/documents/SEN/00060987_DAP ECOVILLAGE dernier prodoc sign\u00e9 2011 VF.pdf", "http://www.undp.org/content/dam/undp/documents/SEN/00060987_PRODOC ECOVILLAG PGARDE.pdf"]], "project_id": "00060987", "inst_type_id": "10", "operating_unit_website": "http://www.sn.undp.org/", "project_title": "pims 4313 fsp ecovillages pilotes"}