{"budget":[2268861.0],"document_name":[["PRODOC ECOVILLAG PGARDE.pdf","DAP ECOVILLAGE dernier prodoc sign\u00e9 2011 VF.pdf"],["http://www.undp.org/content/dam/undp/documents/projects/SEN/00060987/PRODOC ECOVILLAG PGARDE.pdf","http://www.undp.org/content/dam/undp/documents/projects/SEN/00060987/DAP ECOVILLAGE dernier prodoc sign\u00e9 2011 VF.pdf"]],"end":"2016-12-31","expenditure":[1517112.0],"fiscal_year":["2013","2012","2011"],"iati_op_id":"SN","inst_descr":"National Execution","inst_id":"02755","inst_type_id":"10","operating_unit":"Senegal","operating_unit_id":"SEN","outputs":[{"award_id":"00060987","budget":[1155000.0,901081.0,212780.0],"crs":"41010","crs_descr":"Environmental policy and administrative management","donor_id":["00012","10003"],"donor_name":["Voluntary Contributions","Global Environment Fund Truste"],"donor_short":["UNDP","GEFTrustee"],"expenditure":[479477.0,812256.0,225379.0],"fiscal_year":["2013","2012","2011"],"focus_area":"4","focus_area_descr":"Environment & sustainable development","gender_descr":"Gender Equality","gender_id":"1","output_descr":"Le Projet Ecovillages Pilotes vise \u00e0 s'attaquer aux principales causes de la pauvret\u00e9 en milieu rural, l'\u00e9migration des jeunes et l'utilisation non durable des ressources naturelles et \u00e9nerg\u00e9tiques par une meilleure conservation de la biodiversit\u00e9 et des r\u00e9coles, la promotion d'activit\u00e9s g\u00e9n\u00e9ratrices de revenus durables, la promotion de syst\u00e8mes agro-sylvopastoraux, la r\u00e9duction des \u00e9missions de gaz \u00e0 effet de serre et l'augmentation de la s\u00e9questration du carbone gr\u00e2ce \u00e0 la protection des zones concern\u00e9es, le reboisement \u00e0 grande \u00e9chelle, l'am\u00e9lioration de la fertilit\u00e9 des sols et le maintien d'une synergie entre les diff\u00e9rents acteurs.","output_id":"00077029","output_title":"ECOVILLAGE"}],"project_descr":"Pr\u00e9servation participative de la biodiversit\u00e9 et d\u00e9veloppement faiblement \u00e9missif en carbone d'\u00e9covillages pilotes \u00e0 proximit\u00e9 des aires prot\u00e9g\u00e9es.","project_id":"00060987","project_title":"PIMS 4313 FSP Ecovillages Pilotes","region_id":"RBA","start":"2011-02-03","subnational":[{"awardID":"00060987","lat":"15.41667","lon":"-16.66667","name":"Niayes","precision":"3","type":"ADM1"},{"awardID":"00060987","lat":"15.428","lon":"-16.7199","name":"village Loumpoul","precision":"3","type":"PPL"},{"awardID":"00060987","lat":"14.83333","lon":"-14","name":"Ferlo","precision":"3","type":"RES"},{"awardID":"00060987","lat":"14.51667","lon":"-13.5","name":"Villages Toubel Bali","precision":"3","type":"PPL"},{"awardID":"00060987","lat":"15.1404","lon":"-14.5487","name":"Kak","precision":"3","type":"PPL"},{"awardID":"00060987","lat":"16.33333","lon":"-15","name":"Senegal River","precision":"3","type":"ADM1"},{"awardID":"00060987","lat":"13.07712","lon":"-12.72712","name":"National Park Niokolo Koba","precision":"3","type":"PPL"},{"awardID":"00060987","lat":"13.92944","lon":"-16.76611","name":"Saloum","precision":"3","type":"PPL"},{"awardID":"00060987","lat":"15.1128","lon":"-15.8496","name":"Mbam","precision":"3","type":"PPL"},{"awardID":"00060987","lat":"13.60389","lon":"-16.52611","name":"Massarinko","precision":"3","type":"PPL"}]}