{"project_descr": "Le projet vise \u00e0 accro\u00eetre d'une fa\u00e7on significative la couverture des aires prot\u00e9g\u00e9es du Mali, et \u00e0 renforcer l'efficacit\u00e9 du syst\u00e8me de la gestion des aires prot\u00e9g\u00e9es en mettant l'accent sur la r\u00e9gion Sud-Ouest.", "fiscal_year": [2014, 2011, 2012, 2013], "end": "2016-12-31", "region_id": "RBA", "operating_unit_email": "registry.ml@undp.org", "inst_id": "02077", "outputs": [{"output_id": "00076446", "crs": "41010", "donor_id": ["00012", "00167", "10003"], "focus_area": "4", "gender_descr": "Gender Equality", "output_title": "Expansion et renforcement AP", "budget": [533667.0, 681195.0, 490675.0, 789534.0], "fiscal_year": [2011, 2012, 2013, 2014], "gender_id": "1", "donor_name": ["Voluntary Contributions", "GOVERNMENT OF MALI", "Global Environment Fund Truste"], "award_id": "00060646", "output_descr": "Le projet vise \u00e0 accro\u00eetre d'une fa\u00e7on significative la couverture des aires prot\u00e9g\u00e9es du Mali, et \u00e0 renforcer l'efficacit\u00e9 du syst\u00e8me de la gestion des aires prot\u00e9g\u00e9es en mettant l'accent sur la r\u00e9gion Sud-Ouest.", "donor_short": ["UNDP", "MLI", "GEFTrustee"], "expenditure": [186108.0, 465607.0, 383134.0, 468419.0], "crs_descr": "Environmental policy and administrative management", "focus_area_descr": "Environment & sustainable development"}], "subnational": [{"outputID": "00076446", "output_locID": "00076446-1", "name": "Bafing", "focus_area": "4", "lat": "13.8106", "type": "RES", "awardID": "00060646", "lon": "-10.8264", "precision": "4", "focus_area_descr": "Environment & sustainable development"}, {"outputID": "00076446", "output_locID": "00076446-2", "name": "Boucle du Baoule", "focus_area": "4", "lat": "13.7901", "type": "RES", "awardID": "00060646", "lon": "-9.1777", "precision": "4", "focus_area_descr": "Environment & sustainable development"}, {"outputID": "00076446", "output_locID": "00076446-3", "name": "Digan", "focus_area": "4", "lat": "10.85", "type": "PPL", "awardID": "00060646", "lon": "-6.8", "precision": "4", "focus_area_descr": "Environment & sustainable development"}, {"outputID": "00076446", "output_locID": "00076446-4", "name": "Gadougou", "focus_area": "4", "lat": "14.8702", "type": "PPL", "awardID": "00060646", "lon": "-6.7629", "precision": "4", "focus_area_descr": "Environment & sustainable development"}, {"outputID": "00076446", "output_locID": "00076446-5", "name": "Gale", "focus_area": "4", "lat": "12.58333", "type": "RES", "awardID": "00060646", "lon": "-9.5", "precision": "4", "focus_area_descr": "Environment & sustainable development"}, {"outputID": "00076446", "output_locID": "00076446-6", "name": "Kouroufing", "focus_area": "4", "lat": "13.38", "type": "RES", "awardID": "00060646", "lon": "-8.96", "precision": "4", "focus_area_descr": "Environment & sustainable development"}, {"outputID": "00076446", "output_locID": "00076446-7", "name": "Limakole", "focus_area": "4", "lat": "12.58333", "type": "RES", "awardID": "00060646", "lon": "-10.05", "precision": "4", "focus_area_descr": "Environment & sustainable development"}, {"outputID": "00076446", "output_locID": "00076446-8", "name": "Mande", "focus_area": "4", "lat": "14.68907", "type": "RES", "awardID": "00060646", "lon": "-3.10363", "precision": "4", "focus_area_descr": "Environment & sustainable development"}, {"outputID": "00076446", "output_locID": "00076446-9", "name": "Mopti", "focus_area": "4", "lat": "14.4843", "type": "RES", "awardID": "00060646", "lon": "-4.18296", "precision": "4", "focus_area_descr": "Environment & sustainable development"}, {"outputID": "00076446", "output_locID": "00076446-10", "name": "Nema", "focus_area": "4", "lat": "13.6278", "type": "RES", "awardID": "00060646", "lon": "-3.7434", "precision": "4", "focus_area_descr": "Environment & sustainable development"}, {"outputID": "00076446", "output_locID": "00076446-11", "name": "Segou", "focus_area": "4", "lat": "13.4317", "type": "RES", "awardID": "00060646", "lon": "-6.2157", "precision": "4", "focus_area_descr": "Environment & sustainable development"}, {"outputID": "00076446", "output_locID": "00076446-12", "name": "Tombouctou", "focus_area": "4", "lat": "18.54778", "type": "RES", "awardID": "00060646", "lon": "-2.33417", "precision": "4", "focus_area_descr": "Environment & sustainable development"}, {"outputID": "00076446", "output_locID": "00076446-13", "name": "Wongo", "focus_area": "4", "lat": "12.897", "type": "RES", "awardID": "00060646", "lon": "-10.76", "precision": "4", "focus_area_descr": "Environment & sustainable development"}, {"outputID": "00076446", "output_locID": "00076446-14", "name": "Wula", "focus_area": "4", "lat": "14.8702", "type": "PPL", "awardID": "00060646", "lon": "-6.7629", "precision": "4", "focus_area_descr": "Environment & sustainable development"}], "operating_unit": "Mali", "budget": 2495071.0, "iati_op_id": "ML", "inst_descr": "National Execution", "start": "2011-02-28", "operating_unit_id": "MLI", "expenditure": 1503268.0, "document_name": [["00060646_Prodoc ERSAP.pdf", "MLI"], ["http://www.undp.org/content/dam/undp/documents/projects/MLI/00060646_Prodoc ERSAP.pdf", "http://www.undp.org/content/dam/undp/documents/IATI/Contract/MLI.xlsx"]], "project_id": "00060646", "inst_type_id": "10", "operating_unit_website": "http://www.ml.undp.org/", "project_title": "aires prot\u00e9g\u00e9es ersap mali"}