{"budget":[498402.0],"document_name":[["PROJECT DOCUMENT"],["http://www.undp.org/content/dam/undp/documents/projects/LBN/AG South PD 2013-2015.pdf"]],"end":"2015-12-31","expenditure":[368662.0],"fiscal_year":["2013","2012"],"iati_op_id":"LB","inst_descr":"UNDP","inst_id":"99999","inst_type_id":"40","operating_unit":"Lebanon","operating_unit_id":"LBN","outputs":[{"award_id":"00063970","budget":[227464.0,270938.0],"crs":"15110","crs_descr":"Economic and development policy/planning","donor_id":["00012","00137","00169","10951","11132","11975"],"donor_name":["Voluntary Contributions","GOVERNMENT OF ITALY","GOVERNMENT OF MONACO","REGIONE VENETO","Les Amis Du Liban a Monaco","Provincia di Viterbo"],"donor_short":["UNDP","ITA","MNC","REGIONE VE","ALM","Prov.Viter"],"expenditure":[125368.0,243294.0],"fiscal_year":["2013","2012"],"focus_area":"1","focus_area_descr":"Poverty reduction & MDG achievement","gender_descr":"Gender Equality","gender_id":"1","output_descr":"In South Lebanon, ART GOLD operates within the districts (Kadas) of Bint Jbeil, Tyre, Nabatiyeh, Marjeyoun, Jezzine and Hasbaya with more than 60 projects implemented so far through the partnerships with Principality of Monaco, governments of Italy and Spain, and through  Decentralized Cooperation. ART GOLD South will continue on enhancing the socio-economic status through the Decentralized Cooperation linkages, and supporting income generation and job opportunities creation in supporting the Local Economic Development Agency in the South.","output_id":"00080831","output_title":"ART GOLD SOUTH"}],"project_descr":"ART GOLD South","project_id":"00063970","project_title":"ART GOLD SOUTH","region_id":"RBAS","start":"2012-01-01","subnational":[{"awardID":"00063970","lat":"33.27333","lon":"35.19389","name":"Tyre","precision":"3","type":"PPLA2"},{"awardID":"00063970","lat":"33.37889","lon":"35.48389","name":"Nabatieh","precision":"3","type":"PPLA"},{"awardID":"00063970","lat":"33.15964","lon":"35.41137","name":"Bint Jbeil","precision":"3","type":"ADM2"},{"awardID":"00063970","lat":"33.38612","lon":"35.7228","name":"Hasbaya","precision":"3","type":"ADM2"},{"awardID":"00063970","lat":"33.34578","lon":"35.53181","name":"Marjayoun","precision":"3","type":"ADM2"}]}