{"project_descr": "Pr\u00e9servation participative de la biodiversit\u00e9 et d\u00e9veloppement faiblement \u00e9missif en carbone d'\u00e9covillages pilotes \u00e0 proximit\u00e9 des aires prot\u00e9g\u00e9es.", "fiscal_year": [2018, 2016, 2017, 2012, 2013, 2014, 2015], "end": "2018-12-31", "region_id": "RBA", "operating_unit_email": "registry.sn@undp.org ", "inst_id": "02755", "outputs": [{"output_id": "00077029", "crs": "23010", "donor_id": ["00012", "10003"], "disbursement": [], "focus_area": "1", "gender_descr": "Gender Equality", "output_title": "ECOVILLAGE", "budget": [425058.0, 367545.0, 45000.0, 901081.0, 1193363.0, 1014500.0, 450123.0], "fiscal_year": [2016, 2017, 2018, 2012, 2013, 2014, 2015], "gender_id": "1", "expenditure": [421176.0, 327068.0, 15921.0, 812256.0, 851913.0, 1026452.0, 388165.0], "award_id": "00060987", "output_descr": "Developpement ecologique durable, creation d'emplois et d'amelioration des conditions de vie en milieu rural", "donor_short": ["UNDP", "GEFTrustee"], "donor_name": ["Voluntary Contributions", "Global Environment Fund Truste"], "crs_descr": null, "focus_area_descr": "Inclusive & Sustainable Growth"}], "subnational": [{"outputID": "00077029", "output_locID": "00077029-1", "name": "Kakur", "focus_area": "1", "lat": "18.100000", "type": "PPL", "awardID": "00060987", "lon": "30.916670", "precision": "1", "focus_area_descr": "Inclusive & Sustainable Growth"}, {"outputID": "00077029", "output_locID": "00077029-2", "name": "Parc National du Niokolo-Koba", "focus_area": "1", "lat": "13.007690", "type": "PRK", "awardID": "00060987", "lon": "-12.914590", "precision": "1", "focus_area_descr": "Inclusive & Sustainable Growth"}, {"outputID": "00077029", "output_locID": "00077029-3", "name": "Niayes", "focus_area": "1", "lat": "15.416670", "type": "RGN", "awardID": "00060987", "lon": "-16.666670", "precision": "1", "focus_area_descr": "Inclusive & Sustainable Growth"}, {"outputID": "00077029", "output_locID": "00077029-4", "name": "Massarinko Bolon", "focus_area": "1", "lat": "13.603890", "type": "CRKT", "awardID": "00060987", "lon": "-16.526110", "precision": "1", "focus_area_descr": "Inclusive & Sustainable Growth"}, {"outputID": "00077029", "output_locID": "00077029-5", "name": "Ferlo Tyikkit\u00e9", "focus_area": "1", "lat": "16.130350", "type": "PPL", "awardID": "00060987", "lon": "-14.001420", "precision": "1", "focus_area_descr": "Inclusive & Sustainable Growth"}, {"outputID": "00077029", "output_locID": "00077029-6", "name": "Bandafassi", "focus_area": "1", "lat": "12.539650", "type": "PPL", "awardID": "00060987", "lon": "-12.310610", "precision": "1", "focus_area_descr": "Inclusive & Sustainable Growth"}, {"outputID": "00077029", "output_locID": "00077029-7", "name": "Mbam", "focus_area": "1", "lat": "15.112800", "type": "PPL", "awardID": "00060987", "lon": "-15.849600", "precision": "1", "focus_area_descr": "Inclusive & Sustainable Growth"}, {"outputID": "00077029", "output_locID": "00077029-8", "name": "Saloum", "focus_area": "1", "lat": "14.250000", "type": "RGN", "awardID": "00060987", "lon": "-16.083330", "precision": "1", "focus_area_descr": "Inclusive & Sustainable Growth"}, {"outputID": "00077029", "output_locID": "00077029-9", "name": "Matam Department", "focus_area": "1", "lat": "15.731910", "type": "ADM2", "awardID": "00060987", "lon": "-13.633930", "precision": "1", "focus_area_descr": "Inclusive & Sustainable Growth"}, {"outputID": "00077029", "output_locID": "00077029-10", "name": "Senegal River", "focus_area": "1", "lat": "15.788060", "type": "STM", "awardID": "00060987", "lon": "-16.528890", "precision": "1", "focus_area_descr": "Inclusive & Sustainable Growth"}], "operating_unit": "Senegal", "budget": 4396670.0, "iati_op_id": "SN", "inst_descr": "National Execution", "start": "2011-02-03", "operating_unit_id": "SEN", "expenditure": 3842951.0, "document_name": [["00060987_DAP ECOVILLAGE dernier prodoc sign\u00e9 2011 VF", "00060987_PRODOC ECOVILLAG PGARDE", "PRODOC Ecovillage version sign\u00e9e 19 AOUT 2011", "Budget 2017/18", "RFP/ 001/2016 ?AUDIT HACT"], ["https://info.undp.org/docs/pdc/Documents/SEN/00060987_DAP ECOVILLAGE dernier prodoc sign\u00e9 2011 VF.pdf", "https://info.undp.org/docs/pdc/Documents/SEN/00060987_PRODOC ECOVILLAG PGARDE.pdf", "https://info.undp.org/docs/pdc/Documents/SEN/PRODOC Ecovillage version sign\u00e9e 19 AOUT 2011.pdf", "https://info.undp.org/docs/pdc/Documents/SEN/60987.PDF", "http://procurement-notices.undp.org/view_notice.cfm?notice_id=28655"], ["pdf", "pdf", "pdf", "pdf", ""], [0, 0, 0, 3, 10]], "project_id": "00060987", "inst_type_id": "10", "operating_unit_website": null, "project_title": "pims 4313 fsp ecovillages pilotes"}