{"project_descr": "Small Wind Energy Development Promotion in Rural Areas", "fiscal_year": [2013, 2011, 2012], "end": "2013-12-31", "region_id": "RBAP", "operating_unit_email": "UNDP-newsroom@undp.org", "inst_id": "99999", "outputs": [{"output_id": "00076431", "crs": "41010", "donor_id": ["00012", "10003"], "focus_area": "5", "gender_descr": "Gender Equality", "output_title": "Small Wind Energy Development", "budget": [132491.0, 304400.0, 140033.0], "fiscal_year": [2011, 2012, 2013], "gender_id": "1", "donor_name": ["Voluntary Contributions", "Global Environment Fund Truste"], "award_id": "00060636", "output_descr": "Reduction of Green House Gas emissions from use of fossil fuels; manufacturing, promotion and dissemination of small wind energy systems in rural areas; mainstream sustainable and clean development approaches in development policies and plans.", "donor_short": ["UNDP", "GEFTrustee"], "expenditure": [111646.0, 281795.0, 127599.0], "crs_descr": "Environmental policy and administrative management", "focus_area_descr": "Climate Change & Disaster Resilience"}], "subnational": [{"outputID": "00076431", "output_locID": "00076431-1", "name": "Cholsan County", "focus_area": "5", "lat": "39.74917", "type": "ADM2", "awardID": "00060636", "lon": "124.64306", "precision": "3", "focus_area_descr": "Climate Change & Disaster Resilience"}, {"outputID": "00076431", "output_locID": "00076431-2", "name": "Kwail County", "focus_area": "5", "lat": "38.42611", "type": "PPL", "awardID": "00060636", "lon": "125.01861", "precision": "3", "focus_area_descr": "Climate Change & Disaster Resilience"}, {"outputID": "00076431", "output_locID": "00076431-3", "name": "Onchon County", "focus_area": "5", "lat": "38.91028", "type": "PPL", "awardID": "00060636", "lon": "125.23306", "precision": "3", "focus_area_descr": "Climate Change & Disaster Resilience"}, {"outputID": "00076431", "output_locID": "00076431-4", "name": "Pyongsong", "focus_area": "5", "lat": "39.24639", "type": "PPLA", "awardID": "00060636", "lon": "125.87194", "precision": "3", "focus_area_descr": "Climate Change & Disaster Resilience"}, {"outputID": "00076431", "output_locID": "00076431-5", "name": "Sukchon County", "focus_area": "5", "lat": "39.40083", "type": "ADM2", "awardID": "00060636", "lon": "125.58611", "precision": "3", "focus_area_descr": "Climate Change & Disaster Resilience"}, {"outputID": "00076431", "output_locID": "00076431-6", "name": "Unjon County", "focus_area": "5", "lat": "39.68083", "type": "ADM2", "awardID": "00060636", "lon": "125.43194", "precision": "3", "focus_area_descr": "Climate Change & Disaster Resilience"}, {"outputID": "00076431", "output_locID": "00076431-7", "name": "Yangdok County", "focus_area": "5", "lat": "39.19056", "type": "ADM2", "awardID": "00060636", "lon": "126.80528", "precision": "3", "focus_area_descr": "Climate Change & Disaster Resilience"}, {"outputID": "00076431", "output_locID": "00076431-8", "name": "Yomju County", "focus_area": "5", "lat": "39.88198", "type": "ADM2", "awardID": "00060636", "lon": "124.53817", "precision": "3", "focus_area_descr": "Climate Change & Disaster Resilience"}], "operating_unit": "Democr People's Repub of Korea", "budget": 576924.0, "iati_op_id": "KP", "inst_descr": "UNDP", "start": "2010-10-01", "operating_unit_id": "PRK", "expenditure": 521040.0, "document_name": [["Small Wind Energy Development_project document.pdf"], ["http://www.undp.org/content/dam/undp/documents/projects/PRK/00060636/Small Wind Energy Development_project document.pdf"], ["format"]], "project_id": "00060636", "inst_type_id": "40", "operating_unit_website": "http://web.undp.org/dprk/", "project_title": "small wind energy development promotion in rural areas"}