{"project_descr": "KPPTSC = Kuwait Petroleum and petrotechnical technology and services city", "fiscal_year": [2016, 2012, 2013, 2014], "end": "2013-12-31", "region_id": "RBAS", "operating_unit_email": "registry.kw@undp.org", "inst_id": "01752", "outputs": [{"output_id": "00080441", "crs": "23030", "donor_id": ["00145"], "disbursement": [], "focus_area": "1", "gender_descr": "Gender Equality", "output_title": "Feasibilty Study for KPPTSC", "budget": [0.0, 192151.0, 8265.0, 0.0], "fiscal_year": [2016, 2012, 2013, 2014], "gender_id": "1", "expenditure": [0.0, 192140.0, 8261.0, 0.0], "award_id": "00063137", "output_descr": "KISR has been asked by the GoK to explore options for creating a Kuwait Petroleum and petrochemical technology", "donor_short": ["KWT"], "donor_name": ["GOVERNMENT OF KUWAIT"], "crs_descr": null, "focus_area_descr": "Inclusive Growth"}], "subnational": [{"outputID": "00080441", "output_locID": "00080441-1", "name": "As Salimiyah", "focus_area": "1", "lat": "29.333890", "type": "PPLX", "awardID": "00063137", "lon": "48.076110", "precision": "1", "focus_area_descr": "Inclusive Growth"}, {"outputID": "00080441", "output_locID": "00080441-2", "name": "Kuwait City", "focus_area": "1", "lat": "29.369720", "type": "PPLC", "awardID": "00063137", "lon": "47.978330", "precision": "1", "focus_area_descr": "Inclusive Growth"}, {"outputID": "00080441", "output_locID": "00080441-3", "name": "Mu?afaz\u00b8at al Jahra\u2019", "focus_area": "1", "lat": "29.500000", "type": "ADM1", "awardID": "00063137", "lon": "47.500000", "precision": "1", "focus_area_descr": "Inclusive Growth"}, {"outputID": "00080441", "output_locID": "00080441-4", "name": "Al Fa?a?il", "focus_area": "1", "lat": "29.082500", "type": "PPL", "awardID": "00063137", "lon": "48.130280", "precision": "1", "focus_area_descr": "Inclusive Growth"}, {"outputID": "00080441", "output_locID": "00080441-5", "name": "Al Farwaniyah", "focus_area": "1", "lat": "29.277500", "type": "PPLA", "awardID": "00063137", "lon": "47.958610", "precision": "1", "focus_area_descr": "Inclusive Growth"}, {"outputID": "00080441", "output_locID": "00080441-6", "name": "Saba? as Salim", "focus_area": "1", "lat": "29.257220", "type": "PPLX", "awardID": "00063137", "lon": "48.057220", "precision": "1", "focus_area_descr": "Inclusive Growth"}], "operating_unit": "Kuwait", "budget": 200416.0, "iati_op_id": "KW", "inst_descr": "National Execution", "start": "2011-01-01", "operating_unit_id": "KWT", "expenditure": 200401.0, "document_name": [["00063137_Feasibility Study KPPTSC IP", "00063137_Third Party Cost Sharing Agreement KISR and UNDP"], ["https://info.undp.org/docs/pdc/Documents/KWT/00063137_Feasibility Study KPPTSC IP.PDF", "https://info.undp.org/docs/pdc/Documents/KWT/00063137_Third Party Cost Sharing Agreement KISR and UNDP.PDF"], ["pdf", "pdf"], [0, 0]], "project_id": "00063137", "inst_type_id": "10", "operating_unit_website": null, "project_title": "feasibilty study for kpptsc"}