{"budget":[273802.0],"document_name":[["Third Party Cost Sharing Agreement KISR and UNDP.PDF","Feasibility Study KPPTSC IP.PDF"],["http://www.undp.org/content/dam/undp/documents/projects/KWT/00063137/Third Party Cost Sharing Agreement KISR and UNDP.PDF","http://www.undp.org/content/dam/undp/documents/projects/KWT/00063137/Feasibility Study KPPTSC IP.PDF"]],"end":"2013-12-31","expenditure":[257418.0],"fiscal_year":["2013","2012","2011"],"iati_op_id":"KW","inst_descr":"National Execution","inst_id":"01752","inst_type_id":"10","operating_unit":"Kuwait","operating_unit_id":"KWT","outputs":[{"award_id":"00063137","budget":[12313.0,201789.0,59700.0],"crs":"15110","crs_descr":"Economic and development policy/planning","donor_id":["00145"],"donor_name":["GOVERNMENT OF KUWAIT"],"donor_short":["KWT"],"expenditure":[8242.0,192140.0,57036.0],"fiscal_year":["2013","2012","2011"],"focus_area":"1","focus_area_descr":"Poverty reduction & MDG achievement","gender_descr":"Gender Equality","gender_id":"1","output_descr":"Feasibility study is to be carried out and which will address three components: 1. Competitiveness of the proposed city 2. Scope of the proposed city. 3. Readiness of the tenants to establish business in the city.","output_id":"00080441","output_title":"Feasibilty Study for KPPTSC"}],"project_descr":"KPPTSC = Kuwait Petroleum and petrotechnical technology and services city","project_id":"00063137","project_title":"Feasibilty Study for KPPTSC","region_id":"RBAS","start":"2011-01-01","subnational":[{"awardID":"00063137","lat":"29.5","lon":"47.5","name":"Al Jahra","precision":"4","type":"ADM1"},{"awardID":"00063137","lat":"29.33389","lon":"48.07611","name":"Hawalli","precision":"3","type":"PPL"},{"awardID":"00063137","lat":"29.2775","lon":"47.95861","name":"Al Farwaniyah","precision":"3","type":"PPLA"},{"awardID":"00063137","lat":"29.36972","lon":"47.97833","name":"Al Kuwait","precision":"3","type":"PPLC"},{"awardID":"00063137","lat":"29.25722","lon":"48.05722","name":"Mubarak al Kabir","precision":"3","type":"PPL"},{"awardID":"00063137","lat":"29.0825","lon":"48.13028","name":"Al Ahmadi","precision":"3","type":"PPL"}]}