{"budget":[850000.0],"document_name":[["ProDoc_PID 00078878_eng.pdf"],["http://www.undp.org/content/dam/undp/documents/projects/TJK/00061865/ProDoc_PID 00078878_eng.pdf"]],"end":"2013-10-31","expenditure":[611276.0],"fiscal_year":["2013","2012","2011"],"iati_op_id":"TJ","inst_descr":"MINISTRY OF ECONOMY","inst_id":"02943","inst_type_id":"10","operating_unit":"Tajikistan","operating_unit_email":"registry.tj@undp.org","operating_unit_id":"TJK","operating_unit_website":"http://www.undp.tj/site/","outputs":[{"award_id":"00061865","budget":[230000.0,570000.0,50000.0],"crs":"15110","crs_descr":"Economic and development policy/planning","donor_id":["00551"],"donor_name":["DEPARTMENT FOR INTERNATIONAL DEVELOPMENT"],"donor_short":["DFID"],"expenditure":[205070.0,356706.0,49500.0],"fiscal_year":["2013","2012","2011"],"focus_area":"1","focus_area_descr":"Poverty reduction & MDG achievement","gender_descr":"Gender Equality","gender_id":"1","output_descr":"Project outputs:\n- Regulative documents for financing of NDS/PRS analyzed and necessary amendments introduced;\n- Effective M&E structures and units in MEDT and in the pilot line ministries;\n- NDS/PRS feedback system and environment mainstreaming improved","output_id":"00078878","output_title":"NDS/PRS implementation mngment"}],"project_descr":"Strengthening National Development Strategy / Poverty Reduction Strategy Implementation Management and Monitoring & Evaluation","project_id":"00061865","project_title":"NDS/PRS implementation management and M&E","region_id":"RBEC","start":"2011-05-17","subnational":[{"awardID":"00061865","focus_area":"1","focus_area_descr":"Poverty reduction & MDG achievement","lat":"40.69364","lon":"70.3502","name":"Asht","outputID":"00078878","output_locID":"00078878-1","precision":"3","type":"PPL"},{"awardID":"00061865","focus_area":"1","focus_area_descr":"Poverty reduction & MDG achievement","lat":"39.29536","lon":"68.78884","name":"Ayni","outputID":"00078878","output_locID":"00078878-2","precision":"3","type":"PPL"},{"awardID":"00061865","focus_area":"1","focus_area_descr":"Poverty reduction & MDG achievement","lat":"38.53575","lon":"68.77905","name":"Dushanbe","outputID":"00078878","output_locID":"00078878-3","precision":"3","type":"PPLC"},{"awardID":"00061865","focus_area":"1","focus_area_descr":"Poverty reduction & MDG achievement","lat":"38.53575","lon":"68.77905","name":"Dushanbe","outputID":"00078878","output_locID":"00078878-4","precision":"3","type":"PPLC"},{"awardID":"00061865","focus_area":"1","focus_area_descr":"Poverty reduction & MDG achievement","lat":"40.21571","lon":"69.72867","name":"Gafurov","outputID":"00078878","output_locID":"00078878-5","precision":"3","type":"PPLA2"},{"awardID":"00061865","focus_area":"1","focus_area_descr":"Poverty reduction & MDG achievement","lat":"40.09327","lon":"70.58364","name":"Isfara","outputID":"00078878","output_locID":"00078878-6","precision":"3","type":"PPLA2"},{"awardID":"00061865","focus_area":"1","focus_area_descr":"Poverty reduction & MDG achievement","lat":"39.9142","lon":"69.00328","name":"Istaravshan","outputID":"00078878","output_locID":"00078878-7","precision":"3","type":"PPLA2"},{"awardID":"00061865","focus_area":"1","focus_area_descr":"Poverty reduction & MDG achievement","lat":"40.09876","lon":"69.496","name":"Jabbor Rasulov","outputID":"00078878","output_locID":"00078878-8","precision":"3","type":"PPLA2"},{"awardID":"00061865","focus_area":"1","focus_area_descr":"Poverty reduction & MDG achievement","lat":"40.29414","lon":"70.43122","name":"Kanibadam","outputID":"00078878","output_locID":"00078878-9","precision":"3","type":"PPLA2"},{"awardID":"00061865","focus_area":"1","focus_area_descr":"Poverty reduction & MDG achievement","lat":"39.4","lon":"69.8","name":"Kuhistoni","outputID":"00078878","output_locID":"00078878-10","precision":"3","type":"ADM2"},{"awardID":"00061865","focus_area":"1","focus_area_descr":"Poverty reduction & MDG achievement","lat":"40.6715","lon":"69.49214","name":"Mastchoh","outputID":"00078878","output_locID":"00078878-11","precision":"3","type":"ADM2"},{"awardID":"00061865","focus_area":"1","focus_area_descr":"Poverty reduction & MDG achievement","lat":"39.49524","lon":"67.60931","name":"Penjikent","outputID":"00078878","output_locID":"00078878-12","precision":"3","type":"PPLA"},{"awardID":"00061865","focus_area":"1","focus_area_descr":"Poverty reduction & MDG achievement","lat":"40.18194","lon":"68.90756","name":"Zafarobod","outputID":"00078878","output_locID":"00078878-13","precision":"3","type":"PPL"}]}