{"project_descr": "Projet Jeunes Agents du Changement", "fiscal_year": [2014, 2012, 2013], "end": "2014-06-30", "region_id": "RBA", "operating_unit_email": "registry.bj@undp.org", "inst_id": "00238", "outputs": [{"output_id": "00083569", "crs": "99810", "donor_id": ["00012"], "focus_area": "7", "gender_descr": "Gender Equality", "output_title": "Projet Jeunes Agents du Change", "budget": [30244.0, 159683.0, 10800.0], "fiscal_year": [2012, 2013, 2014], "gender_id": "1", "donor_name": ["Voluntary Contributions"], "award_id": "00068297", "output_descr": "Projet Jeunes Agents du Changement", "donor_short": ["UNDP"], "expenditure": [24511.0, 164599.0, 10808.0], "crs_descr": null, "focus_area_descr": "Development Impact & Effectiveness"}], "subnational": [{"outputID": "00083569", "output_locID": "00083569-1", "name": "Allada", "focus_area": "7", "lat": "6.665470", "type": "PPL", "awardID": "00068297", "lon": "2.151380", "precision": "1", "focus_area_descr": "Development Impact & Effectiveness"}, {"outputID": "00083569", "output_locID": "00083569-2", "name": "Bohicon", "focus_area": "7", "lat": "7.178260", "type": "PPL", "awardID": "00068297", "lon": "2.066700", "precision": "1", "focus_area_descr": "Development Impact & Effectiveness"}, {"outputID": "00083569", "output_locID": "00083569-3", "name": "Cotonou", "focus_area": "7", "lat": "6.365360", "type": "PPLA", "awardID": "00068297", "lon": "2.418330", "precision": "1", "focus_area_descr": "Development Impact & Effectiveness"}, {"outputID": "00083569", "output_locID": "00083569-4", "name": "Natitingou", "focus_area": "7", "lat": "10.304160", "type": "PPLA", "awardID": "00068297", "lon": "1.379620", "precision": "1", "focus_area_descr": "Development Impact & Effectiveness"}, {"outputID": "00083569", "output_locID": "00083569-5", "name": "Parakou", "focus_area": "7", "lat": "9.337160", "type": "PPLA", "awardID": "00068297", "lon": "2.630310", "precision": "1", "focus_area_descr": "Development Impact & Effectiveness"}, {"outputID": "00083569", "output_locID": "00083569-6", "name": "Porto-Novo", "focus_area": "7", "lat": "6.496460", "type": "PPLC", "awardID": "00068297", "lon": "2.603590", "precision": "1", "focus_area_descr": "Development Impact & Effectiveness"}], "operating_unit": "Benin", "budget": 200727.0, "iati_op_id": "BJ", "inst_descr": "National Execution", "start": "2012-07-01", "operating_unit_id": "BEN", "expenditure": 199918.0, "document_name": [], "project_id": "00068297", "inst_type_id": "10", "operating_unit_website": "http://www.bj.undp.org/", "project_title": "projet jeunes agents du changement"}