{"project_descr": "Strengthening National Development Strategy / Poverty Reduction Strategy Implementation Management and Monitoring &amp; Evaluation", "fiscal_year": [2013, 2016, 2012], "end": "2014-03-31", "region_id": "RBEC", "operating_unit_email": "registry.tj@undp.org", "inst_id": "02943", "outputs": [{"output_id": "00078878", "crs": "99810", "donor_id": ["00551"], "focus_area": "7", "gender_descr": "Gender Equality", "output_title": "NDS/PRS implementation mngment", "budget": [230000.0, 570000.0], "fiscal_year": [2016, 2012], "gender_id": "1", "donor_name": ["DEPARTMENT FOR INTERNATIONAL DEVELOPMENT"], "award_id": "00061865", "output_descr": "Project title: strengthening NDS/PRS implementation management and M&amp;E;\nProject goal: to strengthen institutional structure and capacity of Committee on Investment and State Property Management for improving external aid coordination and monitoring", "donor_short": ["DFID"], "expenditure": [206434.0, 356706.0], "crs_descr": null, "focus_area_descr": "Development Impact & Effectiveness"}], "subnational": [{"outputID": "00078878", "output_locID": "00078878-1", "name": "Istaravshan", "focus_area": "7", "lat": "39.914200", "type": "PPLA2", "awardID": "00061865", "lon": "69.003280", "precision": "1", "focus_area_descr": "Development Impact & Effectiveness"}, {"outputID": "00078878", "output_locID": "00078878-2", "name": "Panjakent", "focus_area": "7", "lat": "39.495240", "type": "PPLA2", "awardID": "00061865", "lon": "67.609310", "precision": "1", "focus_area_descr": "Development Impact & Effectiveness"}, {"outputID": "00078878", "output_locID": "00078878-3", "name": "Dushanbe", "focus_area": "7", "lat": "38.535750", "type": "PPLC", "awardID": "00061865", "lon": "68.779050", "precision": "1", "focus_area_descr": "Development Impact & Effectiveness"}, {"outputID": "00078878", "output_locID": "00078878-4", "name": "Dashti-Raz", "focus_area": "7", "lat": "38.308030", "type": "PPL", "awardID": "00061865", "lon": "69.409340", "precision": "1", "focus_area_descr": "Development Impact & Effectiveness"}, {"outputID": "00078878", "output_locID": "00078878-5", "name": "Zafarobod", "focus_area": "7", "lat": "38.143670", "type": "PPL", "awardID": "00061865", "lon": "68.970020", "precision": "1", "focus_area_descr": "Development Impact & Effectiveness"}, {"outputID": "00078878", "output_locID": "00078878-6", "name": "Proletar", "focus_area": "7", "lat": "40.167130", "type": "PPLA2", "awardID": "00061865", "lon": "69.501630", "precision": "1", "focus_area_descr": "Development Impact & Effectiveness"}, {"outputID": "00078878", "output_locID": "00078878-7", "name": "Konibodom", "focus_area": "7", "lat": "40.294140", "type": "PPLA2", "awardID": "00061865", "lon": "70.431220", "precision": "1", "focus_area_descr": "Development Impact & Effectiveness"}, {"outputID": "00078878", "output_locID": "00078878-8", "name": "Isfara", "focus_area": "7", "lat": "40.126480", "type": "PPLA2", "awardID": "00061865", "lon": "70.625260", "precision": "1", "focus_area_descr": "Development Impact & Effectiveness"}, {"outputID": "00078878", "output_locID": "00078878-9", "name": "Ghafurov", "focus_area": "7", "lat": "40.215710", "type": "PPLA2", "awardID": "00061865", "lon": "69.728670", "precision": "1", "focus_area_descr": "Development Impact & Effectiveness"}, {"outputID": "00078878", "output_locID": "00078878-10", "name": "Kuhistoni Mastchohskiy", "focus_area": "7", "lat": "39.400000", "type": "ADM2", "awardID": "00061865", "lon": "69.800000", "precision": "1", "focus_area_descr": "Development Impact & Effectiveness"}, {"outputID": "00078878", "output_locID": "00078878-11", "name": "Kuhistoni Mastchohskiy", "focus_area": "7", "lat": "39.400000", "type": "ADM2", "awardID": "00061865", "lon": "69.800000", "precision": "1", "focus_area_descr": "Development Impact & Effectiveness"}, {"outputID": "00078878", "output_locID": "00078878-12", "name": "Ayni", "focus_area": "7", "lat": "37.563630", "type": "PPL", "awardID": "00061865", "lon": "68.599830", "precision": "1", "focus_area_descr": "Development Impact & Effectiveness"}], "operating_unit": "Tajikistan", "budget": 800000.0, "iati_op_id": "TJ", "inst_descr": "MINISTRY OF ECONOMY", "start": "2011-05-17", "operating_unit_id": "TJK", "expenditure": 563140.0, "document_name": [["Project Document"], ["https://info.undp.org/docs/pdc/Documents/TJK/00061865_ProDoc_PID 00078878_eng.pdf"], ["pdf"], [0]], "project_id": "00061865", "inst_type_id": "10", "operating_unit_website": null, "project_title": "nds/prs implementation management and m&e"}