{"project_descr": "Provision of comprehensive package of basic services, infrastructure, livelihood support and capacity building for Internally Displaced Persons in Central Mindanao", "fiscal_year": [2013, 2011, 2012], "end": "2013-06-30", "region_id": "RBAP", "operating_unit_email": "registry.ph@undp.org", "inst_id": "02490", "outputs": [{"output_id": "00078216", "crs": "15140", "donor_id": ["00012", "00280"], "focus_area": "2", "gender_descr": "Gender Equality", "output_title": "Recovery for Central Mindanao", "budget": [3080921.0, 3281766.0, 256414.0], "fiscal_year": [2011, 2012, 2013], "gender_id": "1", "donor_name": ["Voluntary Contributions", "EUROPEAN ECONOMIC COMMUNITY"], "award_id": "00061655", "output_descr": "Supports communities transitioning from relief to recovery and development, helps restore socio-economic life and enhances the capacity of target communities in resettlement and return areas to fully participate in long-term recovery and development", "donor_short": ["UNDP", "EU"], "expenditure": [2358473.0, 2997997.0, 181242.0], "crs_descr": "Government administration", "focus_area_descr": "Democratic governance"}], "subnational": [{"outputID": "00078216", "output_locID": "00078216-1", "name": "Bacolod", "focus_area": "2", "lat": "10.66667", "type": "PPLA2", "awardID": "00061655", "lon": "122.95", "precision": "3", "focus_area_descr": "Democratic governance"}, {"outputID": "00078216", "output_locID": "00078216-2", "name": "Balindong", "focus_area": "2", "lat": "7.91667", "type": "ADM2", "awardID": "00061655", "lon": "124.2", "precision": "3", "focus_area_descr": "Democratic governance"}, {"outputID": "00078216", "output_locID": "00078216-3", "name": "Butig", "focus_area": "2", "lat": "7.72444", "type": "PPLA2", "awardID": "00061655", "lon": "124.30083", "precision": "3", "focus_area_descr": "Democratic governance"}, {"outputID": "00078216", "output_locID": "00078216-4", "name": "Kauswagan", "focus_area": "2", "lat": "8.19167", "type": "PPLA2", "awardID": "00061655", "lon": "124.08472", "precision": "3", "focus_area_descr": "Democratic governance"}, {"outputID": "00078216", "output_locID": "00078216-5", "name": "Kolambugan", "focus_area": "2", "lat": "8.1144", "type": "PPL", "awardID": "00061655", "lon": "123.8971", "precision": "3", "focus_area_descr": "Democratic governance"}, {"outputID": "00078216", "output_locID": "00078216-6", "name": "Linamon", "focus_area": "2", "lat": "8.18603", "type": "PPLA2", "awardID": "00061655", "lon": "124.16276", "precision": "3", "focus_area_descr": "Democratic governance"}, {"outputID": "00078216", "output_locID": "00078216-7", "name": "Madalum", "focus_area": "2", "lat": "7.88333", "type": "ADM2", "awardID": "00061655", "lon": "124.08333", "precision": "3", "focus_area_descr": "Democratic governance"}, {"outputID": "00078216", "output_locID": "00078216-8", "name": "Munai", "focus_area": "2", "lat": "7.95", "type": "ADM2", "awardID": "00061655", "lon": "124.06667", "precision": "3", "focus_area_descr": "Democratic governance"}, {"outputID": "00078216", "output_locID": "00078216-9", "name": "Piagapo", "focus_area": "2", "lat": "8", "type": "PPL", "awardID": "00061655", "lon": "124.2", "precision": "3", "focus_area_descr": "Democratic governance"}, {"outputID": "00078216", "output_locID": "00078216-10", "name": "Pikit", "focus_area": "2", "lat": "7.05444", "type": "PPLA2", "awardID": "00061655", "lon": "124.67194", "precision": "3", "focus_area_descr": "Democratic governance"}, {"outputID": "00078216", "output_locID": "00078216-11", "name": "Salvador", "focus_area": "2", "lat": "8.56306", "type": "PPL", "awardID": "00061655", "lon": "124.5225", "precision": "3", "focus_area_descr": "Democratic governance"}, {"outputID": "00078216", "output_locID": "00078216-12", "name": "Talayan", "focus_area": "2", "lat": "6.96667", "type": "ADM2", "awardID": "00061655", "lon": "124.41667", "precision": "3", "focus_area_descr": "Democratic governance"}, {"outputID": "00078216", "output_locID": "00078216-13", "name": "Talitay", "focus_area": "2", "lat": "6.99667", "type": "PPL", "awardID": "00061655", "lon": "124.70528", "precision": "3", "focus_area_descr": "Democratic governance"}, {"outputID": "00078216", "output_locID": "00078216-14", "name": "Tulunan", "focus_area": "2", "lat": "6.81667", "type": "ADM2", "awardID": "00061655", "lon": "124.96667", "precision": "3", "focus_area_descr": "Democratic governance"}], "operating_unit": "Philippines", "budget": 6619101.0, "iati_op_id": "PH", "inst_descr": "National Execution", "start": "2011-01-15", "operating_unit_id": "PHL", "expenditure": 5537712.0, "document_name": [["PRODOC_ER and Rehabilitation for Central Mindanao.pdf"], ["http://www.undp.org/content/dam/undp/documents/projects/PHL/00061655/PRODOC_ER and Rehabilitation for Central Mindanao.pdf"]], "project_id": "00061655", "inst_type_id": "10", "operating_unit_website": "http://www.undp.org.ph/", "project_title": "early recovery and rehabilitation for mindanao"}