{"project_descr": "Encourager une di\u00e8te alimentaire \u00e9quilibr\u00e9e, \u00e0 travers la production biologique \u00e0 petite \u00e9chelle d\u2019aliments frais et la participation de la population concern\u00e9e.", "fiscal_year": [2015, 2016, 2014], "end": "2016-12-31", "region_id": "RBLAC", "operating_unit_email": "registry.ht@undp.org", "inst_id": "99999", "outputs": [{"output_id": "00089277", "crs": "15110", "donor_id": ["12161"], "focus_area": "8", "gender_descr": "Gender Equality", "output_title": "PROHUERTA", "budget": [1139942.0, 713727.0, 1359640.0], "fiscal_year": [2016, 2014, 2015], "gender_id": "1", "donor_name": ["Union de Naciones Suramericana"], "award_id": "00079220", "output_descr": "Encourager une di\u00e8te alimentaire \u00e9quilibr\u00e9e, \u00e0 travers la production biologique \u00e0 petite \u00e9chelle d\u2019aliments frais et la participation de la population concern\u00e9e.", "donor_short": ["UNASUR"], "expenditure": [0.0, 643201.0, 1194483.0], "crs_descr": null, "focus_area_descr": "South-South"}], "subnational": [{"outputID": "00089277", "output_locID": "00089277-1", "name": "Arcahaie", "focus_area": "8", "lat": "18.850000", "type": "ADM3", "awardID": "00079220", "lon": "-72.500000", "precision": "1", "focus_area_descr": "South-South"}, {"outputID": "00089277", "output_locID": "00089277-2", "name": "Cabaret", "focus_area": "8", "lat": "18.400000", "type": "PPL", "awardID": "00079220", "lon": "-72.600000", "precision": "1", "focus_area_descr": "South-South"}, {"outputID": "00089277", "output_locID": "00089277-3", "name": "Bombardopolis", "focus_area": "8", "lat": "19.700000", "type": "ADM3", "awardID": "00079220", "lon": "-73.333330", "precision": "1", "focus_area_descr": "South-South"}, {"outputID": "00089277", "output_locID": "00089277-4", "name": "Arrondissement de Belle-Anse", "focus_area": "8", "lat": "18.250000", "type": "ADM2", "awardID": "00079220", "lon": "-72.000000", "precision": "1", "focus_area_descr": "South-South"}, {"outputID": "00089277", "output_locID": "00089277-5", "name": "Carrefour", "focus_area": "8", "lat": "18.541140", "type": "PPLX", "awardID": "00079220", "lon": "-72.399220", "precision": "1", "focus_area_descr": "South-South"}, {"outputID": "00089277", "output_locID": "00089277-6", "name": "Centre", "focus_area": "8", "lat": "19.000000", "type": "ADM1", "awardID": "00079220", "lon": "-72.000000", "precision": "1", "focus_area_descr": "South-South"}, {"outputID": "00089277", "output_locID": "00089277-7", "name": "Arrondissement de Jacmel", "focus_area": "8", "lat": "18.333330", "type": "ADM2", "awardID": "00079220", "lon": "-72.500000", "precision": "1", "focus_area_descr": "South-South"}, {"outputID": "00089277", "output_locID": "00089277-8", "name": "Hinche", "focus_area": "8", "lat": "19.166670", "type": "ADM3", "awardID": "00079220", "lon": "-72.000000", "precision": "1", "focus_area_descr": "South-South"}, {"outputID": "00089277", "output_locID": "00089277-9", "name": "Ganthier", "focus_area": "8", "lat": "18.483330", "type": "ADM3", "awardID": "00079220", "lon": "-72.033330", "precision": "1", "focus_area_descr": "South-South"}, {"outputID": "00089277", "output_locID": "00089277-10", "name": "Croix des Bouquets", "focus_area": "8", "lat": "18.500000", "type": "ADM3", "awardID": "00079220", "lon": "-72.166670", "precision": "1", "focus_area_descr": "South-South"}, {"outputID": "00089277", "output_locID": "00089277-11", "name": "Arrondissement de Port-de-Paix", "focus_area": "8", "lat": "19.833330", "type": "ADM2", "awardID": "00079220", "lon": "-72.883330", "precision": "1", "focus_area_descr": "South-South"}, {"outputID": "00089277", "output_locID": "00089277-12", "name": "Tigwav", "focus_area": "8", "lat": "18.333330", "type": "ADM3", "awardID": "00079220", "lon": "-72.916670", "precision": "1", "focus_area_descr": "South-South"}, {"outputID": "00089277", "output_locID": "00089277-13", "name": "Marmelade", "focus_area": "8", "lat": "19.500000", "type": "ADM3", "awardID": "00079220", "lon": "-72.366670", "precision": "1", "focus_area_descr": "South-South"}, {"outputID": "00089277", "output_locID": "00089277-14", "name": "L\u00e9og\u00e2ne", "focus_area": "8", "lat": "18.433330", "type": "ADM3", "awardID": "00079220", "lon": "-72.583330", "precision": "1", "focus_area_descr": "South-South"}, {"outputID": "00089277", "output_locID": "00089277-15", "name": "M\u00f4le Saint-Nicolas", "focus_area": "8", "lat": "19.750000", "type": "ADM3", "awardID": "00079220", "lon": "-73.333330", "precision": "1", "focus_area_descr": "South-South"}, {"outputID": "00089277", "output_locID": "00089277-16", "name": "Nord", "focus_area": "8", "lat": "19.600000", "type": "ADM1", "awardID": "00079220", "lon": "-72.300000", "precision": "1", "focus_area_descr": "South-South"}, {"outputID": "00089277", "output_locID": "00089277-17", "name": "Nord-Est", "focus_area": "8", "lat": "19.488970", "type": "ADM1", "awardID": "00079220", "lon": "-71.857130", "precision": "1", "focus_area_descr": "South-South"}, {"outputID": "00089277", "output_locID": "00089277-18", "name": "D\u00e9partement de l'Artibonite", "focus_area": "8", "lat": "19.333330", "type": "ADM1", "awardID": "00079220", "lon": "-72.500000", "precision": "1", "focus_area_descr": "South-South"}, {"outputID": "00089277", "output_locID": "00089277-19", "name": "Lenbe", "focus_area": "8", "lat": "19.650000", "type": "ADM3", "awardID": "00079220", "lon": "-72.416670", "precision": "1", "focus_area_descr": "South-South"}, {"outputID": "00089277", "output_locID": "00089277-20", "name": "Arrondissement de Dessalines", "focus_area": "8", "lat": "19.166670", "type": "ADM2", "awardID": "00079220", "lon": "-72.416670", "precision": "1", "focus_area_descr": "South-South"}, {"outputID": "00089277", "output_locID": "00089277-21", "name": "Bassin Bleu", "focus_area": "8", "lat": "19.766670", "type": "ADM3", "awardID": "00079220", "lon": "-72.816670", "precision": "1", "focus_area_descr": "South-South"}, {"outputID": "00089277", "output_locID": "00089277-22", "name": "Jean Rabel", "focus_area": "8", "lat": "19.450000", "type": "PPL", "awardID": "00079220", "lon": "-71.800000", "precision": "1", "focus_area_descr": "South-South"}, {"outputID": "00089277", "output_locID": "00089277-23", "name": "Cit\u00e9 Soleil", "focus_area": "8", "lat": "18.580280", "type": "PPLX", "awardID": "00079220", "lon": "-72.338060", "precision": "1", "focus_area_descr": "South-South"}, {"outputID": "00089277", "output_locID": "00089277-24", "name": "Port-au-Prince", "focus_area": "8", "lat": "18.539170", "type": "PPLC", "awardID": "00079220", "lon": "-72.335000", "precision": "1", "focus_area_descr": "South-South"}, {"outputID": "00089277", "output_locID": "00089277-25", "name": "Port Margot", "focus_area": "8", "lat": "19.733330", "type": "ADM3", "awardID": "00079220", "lon": "-72.466670", "precision": "1", "focus_area_descr": "South-South"}, {"outputID": "00089277", "output_locID": "00089277-26", "name": "Mayisad", "focus_area": "8", "lat": "19.183330", "type": "ADM3", "awardID": "00079220", "lon": "-72.166670", "precision": "1", "focus_area_descr": "South-South"}, {"outputID": "00089277", "output_locID": "00089277-27", "name": "Cerca La Source", "focus_area": "8", "lat": "19.166670", "type": "ADM3", "awardID": "00079220", "lon": "-71.750000", "precision": "1", "focus_area_descr": "South-South"}, {"outputID": "00089277", "output_locID": "00089277-28", "name": "Gonayiv", "focus_area": "8", "lat": "19.450000", "type": "ADM3", "awardID": "00079220", "lon": "-72.650000", "precision": "1", "focus_area_descr": "South-South"}, {"outputID": "00089277", "output_locID": "00089277-29", "name": "Terre Neuve", "focus_area": "8", "lat": "19.633330", "type": "ADM3", "awardID": "00079220", "lon": "-72.800000", "precision": "1", "focus_area_descr": "South-South"}, {"outputID": "00089277", "output_locID": "00089277-30", "name": "Saint-Marc", "focus_area": "8", "lat": "19.100000", "type": "ADM3", "awardID": "00079220", "lon": "-72.650000", "precision": "1", "focus_area_descr": "South-South"}, {"outputID": "00089277", "output_locID": "00089277-31", "name": "Arrondissement de Saint-Louis du Nord", "focus_area": "8", "lat": "19.850000", "type": "ADM2", "awardID": "00079220", "lon": "-72.666670", "precision": "1", "focus_area_descr": "South-South"}, {"outputID": "00089277", "output_locID": "00089277-32", "name": "Anse-\u00e0-Foleur", "focus_area": "8", "lat": "19.833330", "type": "ADM3", "awardID": "00079220", "lon": "-72.633330", "precision": "1", "focus_area_descr": "South-South"}, {"outputID": "00089277", "output_locID": "00089277-33", "name": "Cabaret", "focus_area": "8", "lat": "18.735230", "type": "ADM3", "awardID": "00079220", "lon": "-72.419110", "precision": "1", "focus_area_descr": "South-South"}, {"outputID": "00089277", "output_locID": "00089277-34", "name": "Bainet", "focus_area": "8", "lat": "18.183330", "type": "ADM3", "awardID": "00079220", "lon": "-72.750000", "precision": "1", "focus_area_descr": "South-South"}], "operating_unit": "Haiti", "budget": 3213309.0, "iati_op_id": "HT", "inst_descr": "UNDP", "start": "2014-01-29", "operating_unit_id": "HTI", "expenditure": 1837684.0, "document_name": [["AWD79220_Prohuertas_Revision project approval_1 avril 14", "AWD79220_Prohuertas_General Revision 1_24 juin 14", "PID89277_PROHUERTA_Rapport davancement_Juin 2014", "Generale Revision No 4", "Project document", "UNDP-HT_CPAP_2013_2016", "UNDP-HT_CPAP_2013_2016", "PROHUERTA (Promotion des jardins potagers)", "PROHUERTA (Promotion des jardins potagers)", "PROHUERTA (Promotion des jardins potagers)", "PROHUERTA (Promotion des jardins potagers)", "PROHUERTA (Promotion des jardins potagers)", "PROHUERTA (Promotion des jardins potagers)", "PROHUERTA (Promotion des jardins potagers)"], ["https://info.undp.org/docs/pdc/Documents/HTI/AWD79220_Prohuertas_Revision project approval_1 avril 14.pdf", "https://info.undp.org/docs/pdc/Documents/HTI/AWD79220_Prohuertas_General Revision 1_24 juin 14.pdf", "https://info.undp.org/docs/pdc/Documents/HTI/PID89277_PROHUERTA_Rapport d'avancement_Juin 2014.pdf", "https://info.undp.org/docs/pdc/Documents/HTI/AWD79220_Prohuertas_General Revision 4_10 fevrier 2015.pdf", "https://info.undp.org/docs/pdc/Documents/HTI/AWD79220_Prohuertas_Project document_ 2014.pdf", "http://www.ht.undp.org/content/dam/haiti/docs/document-de-reference/UNDP-HT_CPAP_2013_2016.pdf", "http://www.ht.undp.org/content/dam/haiti/docs/document-de-reference/UNDP-HT_CPAP_2013_2016.pdf", "http://procurement-notices.undp.org/view_notice.cfm?notice_id=20907", "http://procurement-notices.undp.org/view_notice.cfm?notice_id=21099", "http://procurement-notices.undp.org/view_notice.cfm?notice_id=21102", "http://procurement-notices.undp.org/view_notice.cfm?notice_id=22010", "http://procurement-notices.undp.org/view_notice.cfm?notice_id=24791", "http://procurement-notices.undp.org/view_notice.cfm?notice_id=26198", "http://procurement-notices.undp.org/view_notice.cfm?notice_id=26335"], ["pdf", "pdf", "pdf", "pdf", "pdf", "pdf", "pdf", "", "", "", "", "", "", ""], [3, 3, 6, 3, 0, 7, 7, 10, 10, 10, 10, 10, 10, 10]], "project_id": "00079220", "inst_type_id": "40", "operating_unit_website": "http://www.ht.undp.org/", "project_title": "prohuerta (promotion des jardins potagers)"}