{"budget":[120000.0],"document_name":[["Project Document","DOA"],["http://www.undp.org/content/dam/undp/documents/projects/KHM/Initail_Plan_EWS_Apr_2013.pdf","http://www.undp.org/content/dam/undp/documents/projects/KHM/DOA PPG Cambodia EWS LDCF_signed.pdf"]],"end":"2014-04-30","expenditure":[30087.0],"fiscal_year":["2013"],"iati_op_id":"KH","inst_descr":"UNDP Direct Execution","inst_id":"00638","inst_type_id":"40","operating_unit":"Cambodia","operating_unit_id":"KHM","outputs":[{"award_id":"00073238","budget":[120000.0],"crs":"41010","crs_descr":"Environmental policy and administrative management","donor_id":["10003"],"donor_name":["Global Environment Fund Truste"],"donor_short":["GEFTrustee"],"expenditure":[30087.0],"fiscal_year":["2013"],"focus_area":"4","focus_area_descr":"Environment & sustainable development","gender_descr":"Gender Equality","gender_id":"1","output_descr":" ","output_id":"00086151","output_title":"Strengthening Climate Informat"}],"project_descr":"Strengthening climate information and early warning systems in Cambodia to support climate resilient development and adaptation to climate change (EWS-PPG)","project_id":"00073238","project_title":"Strengthening Climate Information & Early Warning System","region_id":"RBAP","start":"2013-05-01","subnational":[{"awardID":"00073238","lat":"11.56245","lon":"104.91601","name":"Phnom Penh","precision":"3","type":"PPLC"},{"awardID":"00073238","lat":"11.16667","lon":"105.83333","name":"Svay Rieng","precision":"4","type":"ADM1"},{"awardID":"00073238","lat":"11.48333","lon":"104.95","name":"Kandal","precision":"3","type":"PPLA"},{"awardID":"00073238","lat":"11.36667","lon":"105.46667","name":"Prey Veng","precision":"4","type":"ADM1"},{"awardID":"00073238","lat":"12.03256","lon":"104.17125","name":"Kampong Speu","precision":"4","type":"RES"},{"awardID":"00073238","lat":"13.36179","lon":"103.86056","name":"Siem Reap","precision":"3","type":"PPLA"},{"awardID":"00073238","lat":"12.83333","lon":"105","name":"Kampong Thom","precision":"4","type":"ADM1"},{"awardID":"00073238","lat":"13.10271","lon":"103.19822","name":"Battambang","precision":"3","type":"PPLA"},{"awardID":"00073238","lat":"11.48333","lon":"104.95","name":"Kandal","precision":"3","type":"PPLA"},{"awardID":"00073238","lat":"13.83333","lon":"107.11667","name":"Ratanakiri","precision":"4","type":"ADM1"},{"awardID":"00073238","lat":"12.75","lon":"107","name":"Mondolkiri","precision":"4","type":"ADM1"},{"awardID":"00073238","lat":"13.65611","lon":"102.5625","name":"Banteay Meanchey","precision":"3","type":"PPL"},{"awardID":"00073238","lat":"13.36179","lon":"103.86056","name":"Oddar Meanchey","precision":"3","type":"PPLA"},{"awardID":"00073238","lat":"13.75","lon":"105","name":"Preah Vihear","precision":"4","type":"ADM1"},{"awardID":"00073238","lat":"10.91667","lon":"104.83333","name":"Takeo","precision":"4","type":"ADM1"},{"awardID":"00073238","lat":"12.25","lon":"104.66667","name":"Kampong Chhnang","precision":"3","type":"PPLA"},{"awardID":"00073238","lat":"11.99339","lon":"105.4635","name":"Kampong Cham","precision":"3","type":"PPLA"},{"awardID":"00073238","lat":"12.53878","lon":"103.9192","name":"Pursat","precision":"3","type":"PPLA"},{"awardID":"00073238","lat":"10.83333","lon":"104.33333","name":"Kampot","precision":"4","type":"ADM1"},{"awardID":"00073238","lat":"10.60932","lon":"103.52958","name":"Preah Sihanouk","precision":"3","type":"PPLA"},{"awardID":"00073238","lat":"11.61531","lon":"102.9838","name":"Koh Kong","precision":"3","type":"PPLA"},{"awardID":"00073238","lat":"10.5125","lon":"104.31667","name":"Kep","precision":"4","type":"ADM1"},{"awardID":"00073238","lat":"12.66667","lon":"106.08333","name":"Kratie","precision":"4","type":"ADM1"},{"awardID":"00073238","lat":"13.52586","lon":"105.9683","name":"Stung Treng","precision":"3","type":"PPLA"}]}