{"project_descr": "Strengthening climate information and early warning systems in Cambodia to support climate resilient development and adaptation to climate change (EWS-PPG)", "fiscal_year": [2015, 2013, 2014], "end": "2014-04-30", "region_id": "RBAP", "operating_unit_email": "registry.kh@undp.org", "inst_id": "00638", "outputs": [{"output_id": "00086151", "crs": "51010", "donor_id": ["10003"], "focus_area": "1", "gender_descr": "Gender Equality", "output_title": "Early Warning System", "budget": [70362.0, 79638.0, 0.0], "fiscal_year": [2013, 2014, 2015], "gender_id": "1", "donor_name": ["Global Environment Fund Truste"], "award_id": "00073238", "output_descr": "Strengthening climate information and early warning systems in Cambodia to support climate resilient development and adaptation to climate change", "donor_short": ["GEFTrustee"], "expenditure": [32024.0, 55110.0, -120.0], "crs_descr": null, "focus_area_descr": "Inclusive & Sustainable Growth"}], "subnational": [{"outputID": "00086151", "output_locID": "00086151-1", "name": "Battambang", "focus_area": "1", "lat": "13.102710", "type": "PPLA", "awardID": "00073238", "lon": "103.198220", "precision": "1", "focus_area_descr": "Inclusive & Sustainable Growth"}, {"outputID": "00086151", "output_locID": "00086151-2", "name": "Phnum A\u00f4ral", "focus_area": "1", "lat": "12.032560", "type": "MT", "awardID": "00073238", "lon": "104.171250", "precision": "1", "focus_area_descr": "Inclusive & Sustainable Growth"}, {"outputID": "00086151", "output_locID": "00086151-3", "name": "Kampong Chhnang", "focus_area": "1", "lat": "12.250000", "type": "PPLA", "awardID": "00073238", "lon": "104.666670", "precision": "1", "focus_area_descr": "Inclusive & Sustainable Growth"}, {"outputID": "00086151", "output_locID": "00086151-4", "name": "Kampong Cham", "focus_area": "1", "lat": "11.993390", "type": "PPLA", "awardID": "00073238", "lon": "105.463500", "precision": "1", "focus_area_descr": "Inclusive & Sustainable Growth"}, {"outputID": "00086151", "output_locID": "00086151-5", "name": "Sihanoukville", "focus_area": "1", "lat": "10.609320", "type": "PPLA", "awardID": "00073238", "lon": "103.529580", "precision": "1", "focus_area_descr": "Inclusive & Sustainable Growth"}, {"outputID": "00086151", "output_locID": "00086151-6", "name": "Kep", "focus_area": "1", "lat": "10.512500", "type": "ADM1", "awardID": "00073238", "lon": "104.316670", "precision": "1", "focus_area_descr": "Inclusive & Sustainable Growth"}, {"outputID": "00086151", "output_locID": "00086151-7", "name": "Kratie", "focus_area": "1", "lat": "12.666670", "type": "ADM1", "awardID": "00073238", "lon": "106.083330", "precision": "1", "focus_area_descr": "Inclusive & Sustainable Growth"}, {"outputID": "00086151", "output_locID": "00086151-8", "name": "Kampot", "focus_area": "1", "lat": "10.833330", "type": "ADM1", "awardID": "00073238", "lon": "104.333330", "precision": "1", "focus_area_descr": "Inclusive & Sustainable Growth"}, {"outputID": "00086151", "output_locID": "00086151-9", "name": "Kampong Thom", "focus_area": "1", "lat": "12.833330", "type": "ADM1", "awardID": "00073238", "lon": "105.000000", "precision": "1", "focus_area_descr": "Inclusive & Sustainable Growth"}, {"outputID": "00086151", "output_locID": "00086151-10", "name": "Pursat", "focus_area": "1", "lat": "12.538780", "type": "PPLA", "awardID": "00073238", "lon": "103.919200", "precision": "1", "focus_area_descr": "Inclusive & Sustainable Growth"}, {"outputID": "00086151", "output_locID": "00086151-11", "name": "Pa\u00f4y P\u00eat", "focus_area": "1", "lat": "13.656110", "type": "PPL", "awardID": "00073238", "lon": "102.562500", "precision": "1", "focus_area_descr": "Inclusive & Sustainable Growth"}, {"outputID": "00086151", "output_locID": "00086151-12", "name": "Koh Kong", "focus_area": "1", "lat": "11.615310", "type": "PPLA", "awardID": "00073238", "lon": "102.983800", "precision": "1", "focus_area_descr": "Inclusive & Sustainable Growth"}, {"outputID": "00086151", "output_locID": "00086151-13", "name": "Mondolkiri", "focus_area": "1", "lat": "12.750000", "type": "ADM1", "awardID": "00073238", "lon": "107.000000", "precision": "1", "focus_area_descr": "Inclusive & Sustainable Growth"}, {"outputID": "00086151", "output_locID": "00086151-14", "name": "Ratanakiri", "focus_area": "1", "lat": "13.833330", "type": "ADM1", "awardID": "00073238", "lon": "107.116670", "precision": "1", "focus_area_descr": "Inclusive & Sustainable Growth"}, {"outputID": "00086151", "output_locID": "00086151-15", "name": "Prey Veng", "focus_area": "1", "lat": "11.366670", "type": "ADM1", "awardID": "00073238", "lon": "105.466670", "precision": "1", "focus_area_descr": "Inclusive & Sustainable Growth"}, {"outputID": "00086151", "output_locID": "00086151-16", "name": "Preah Vihear", "focus_area": "1", "lat": "13.750000", "type": "ADM1", "awardID": "00073238", "lon": "105.000000", "precision": "1", "focus_area_descr": "Inclusive & Sustainable Growth"}, {"outputID": "00086151", "output_locID": "00086151-17", "name": "Phnom Penh", "focus_area": "1", "lat": "11.562450", "type": "PPLC", "awardID": "00073238", "lon": "104.916010", "precision": "1", "focus_area_descr": "Inclusive & Sustainable Growth"}, {"outputID": "00086151", "output_locID": "00086151-18", "name": "Siem Reap", "focus_area": "1", "lat": "13.361790", "type": "PPLA", "awardID": "00073238", "lon": "103.860560", "precision": "1", "focus_area_descr": "Inclusive & Sustainable Growth"}, {"outputID": "00086151", "output_locID": "00086151-19", "name": "Ot\u00e2r M\u00e9anchey", "focus_area": "1", "lat": "14.166670", "type": "ADM1", "awardID": "00073238", "lon": "103.500000", "precision": "1", "focus_area_descr": "Inclusive & Sustainable Growth"}, {"outputID": "00086151", "output_locID": "00086151-20", "name": "Ot\u00e2r M\u00e9anchey", "focus_area": "1", "lat": "14.166670", "type": "ADM1", "awardID": "00073238", "lon": "103.500000", "precision": "1", "focus_area_descr": "Inclusive & Sustainable Growth"}, {"outputID": "00086151", "output_locID": "00086151-21", "name": "Takeo", "focus_area": "1", "lat": "10.916670", "type": "ADM1", "awardID": "00073238", "lon": "104.833330", "precision": "1", "focus_area_descr": "Inclusive & Sustainable Growth"}, {"outputID": "00086151", "output_locID": "00086151-22", "name": "Svay Rieng", "focus_area": "1", "lat": "11.166670", "type": "ADM1", "awardID": "00073238", "lon": "105.833330", "precision": "1", "focus_area_descr": "Inclusive & Sustainable Growth"}, {"outputID": "00086151", "output_locID": "00086151-23", "name": "Stung Treng", "focus_area": "1", "lat": "13.525860", "type": "PPLA", "awardID": "00073238", "lon": "105.968300", "precision": "1", "focus_area_descr": "Inclusive & Sustainable Growth"}, {"outputID": "00086151", "output_locID": "00086151-24", "name": "Ta Khmau", "focus_area": "1", "lat": "11.483330", "type": "PPLA", "awardID": "00073238", "lon": "104.950000", "precision": "1", "focus_area_descr": "Inclusive & Sustainable Growth"}], "operating_unit": "Cambodia", "budget": 150000.0, "iati_op_id": "KH", "inst_descr": "UNDP Direct Execution", "start": "2013-05-01", "operating_unit_id": "KHM", "expenditure": 87014.0, "document_name": [["Budget Revision", "Two Year Work Plan 2013-2014", "Budget Revision", "DOA", "Project Document"], ["http://www.undp.org/content/dam/undp/documents/projects/KHM/G00 Budget Revision - EWS (3).pdf", "http://www.undp.org/content/dam/undp/documents/projects/KHM/2013-2014 2 Years Work Plan - EWS.pdf", "http://www.undp.org/content/dam/undp/documents/projects/KHM/BRVG001_EWS included AWP in Atlas.pdf", "http://www.undp.org/content/dam/undp/documents/projects/KHM/DOA PPG Cambodia EWS LDCF_signed.pdf", "http://www.undp.org/content/dam/undp/documents/projects/KHM/Initail_Plan_EWS_Apr_2013.pdf"], ["pdf", "pdf", "pdf", "pdf", "pdf"]], "project_id": "00073238", "inst_type_id": "40", "operating_unit_website": "http://www.kh.undp.org/", "project_title": "strengthening climate information & early warning system"}