{"budget":[385000.0],"document_name":[["IP.pdf"],["http://www.undp.org/content/dam/undp/documents/projects/GTM/IP.pdf"]],"end":"2013-03-31","expenditure":[313762.0],"fiscal_year":["2013"],"iati_op_id":"GT","inst_descr":"UNDP","inst_id":"99999","inst_type_id":"40","operating_unit":"Guatemala","operating_unit_email":"webpnud@undp.org.gt","operating_unit_id":"GTM","operating_unit_website":"http://www.pnud.org.gt/","outputs":[{"award_id":"00072937","budget":[385000.0],"crs":"15162","crs_descr":"Human rights","donor_id":["00250"],"donor_name":["UNDETERMINED"],"donor_short":["UND"],"expenditure":[313762.0],"fiscal_year":["2013"],"focus_area":"2","focus_area_descr":"Democratic governance","gender_descr":"Gender Equality","gender_id":"1","output_descr":"Asesor\u00edas y misiones de alto nivel para  contribuir al fortalecimiento de las capacidades de an\u00e1lisis y gesti\u00f3n pol\u00edtica del desarrollo y del impulso de un estilo de debate m\u00e1s informado, plural y democr\u00e1tico.","output_id":"00085920","output_title":"Disminuci\u00f3n conflictividad"}],"project_descr":"Dise\u00f1o de una estrategia en apoyo al Estado para la b\u00fasqueda de concertaci\u00f3n, entendimiento, y evitar la polarizaci\u00f3n y la confrontaci\u00f3n que contribuya a garantizar la gobernabilidad en el pa\u00eds.","project_id":"00072937","project_title":"Estrategia de Apoyo para Disminuci\u00f3n Conflictividad","region_id":"RBLAC","start":"2013-02-01","subnational":[{"awardID":"00072937","focus_area":"2","focus_area_descr":"Democratic governance","lat":"15.5","lon":"-90.25","name":"Guatemala","outputID":"00085920","output_locID":"00085920-1","precision":"9","type":"PCL"},{"awardID":"00072937","focus_area":"2","focus_area_descr":"Democratic governance","lat":"14.28694","lon":"-89.54","name":"Rio Ostua","outputID":"00085920","output_locID":"00085920-2","precision":"4","type":"RES"},{"awardID":"00072937","focus_area":"2","focus_area_descr":"Democratic governance","lat":"14.58333","lon":"-89.91667","name":"Jalapa","outputID":"00085920","output_locID":"00085920-3","precision":"4","type":"ADM1"},{"awardID":"00072937","focus_area":"2","focus_area_descr":"Democratic governance","lat":"14.41667","lon":"-90.25","name":"Casillas","outputID":"00085920","output_locID":"00085920-4","precision":"3","type":"ADM2"},{"awardID":"00072937","focus_area":"2","focus_area_descr":"Democratic governance","lat":"14.46667","lon":"-90.18333","name":"San Rafael las Flores","outputID":"00085920","output_locID":"00085920-5","precision":"3","type":"ADM2"},{"awardID":"00072937","focus_area":"2","focus_area_descr":"Democratic governance","lat":"14.5","lon":"-89.86667","name":"Monjas","outputID":"00085920","output_locID":"00085920-6","precision":"3","type":"PPL"},{"awardID":"00072937","focus_area":"2","focus_area_descr":"Democratic governance","lat":"14.53333","lon":"-90.18333","name":"Mataquescuintla","outputID":"00085920","output_locID":"00085920-7","precision":"3","type":"ADM2"},{"awardID":"00072937","focus_area":"2","focus_area_descr":"Democratic governance","lat":"14.66667","lon":"-89.85","name":"San Pedro Pinula","outputID":"00085920","output_locID":"00085920-8","precision":"3","type":"ADM2"},{"awardID":"00072937","focus_area":"2","focus_area_descr":"Democratic governance","lat":"14.5","lon":"-90.05","name":"San Carlos Alzatate","outputID":"00085920","output_locID":"00085920-9","precision":"3","type":"ADM2"},{"awardID":"00072937","focus_area":"2","focus_area_descr":"Democratic governance","lat":"14.65","lon":"-89.73333","name":"San Luis Jilotepeque","outputID":"00085920","output_locID":"00085920-10","precision":"3","type":"PPL"},{"awardID":"00072937","focus_area":"2","focus_area_descr":"Democratic governance","lat":"14.51667","lon":"-89.76667","name":"San Manuel Chaparron","outputID":"00085920","output_locID":"00085920-11","precision":"3","type":"PPL"},{"awardID":"00072937","focus_area":"2","focus_area_descr":"Democratic governance","lat":"14.16667","lon":"-89.83333","name":"Jutiapa","outputID":"00085920","output_locID":"00085920-12","precision":"4","type":"ADM1"},{"awardID":"00072937","focus_area":"2","focus_area_descr":"Democratic governance","lat":"14.83333","lon":"-90","name":"El Progreso","outputID":"00085920","output_locID":"00085920-13","precision":"4","type":"ADM1"},{"awardID":"00072937","focus_area":"2","focus_area_descr":"Democratic governance","lat":"15.5","lon":"-90.25","name":"Guatemala","outputID":"00085920","output_locID":"00085920-14","precision":"9","type":"PCL"},{"awardID":"00072937","focus_area":"2","focus_area_descr":"Democratic governance","lat":"15.5","lon":"-90.25","name":"Guatemala","outputID":"00085920","output_locID":"00085920-15","precision":"9","type":"PCL"}]}