{"project_descr": "Strengthening climate information and early warning systems in Cambodia to support climate resilient development and adaptation to climate change (EWS-PPG)", "fiscal_year": [2014], "end": "2014-04-30", "region_id": "RBAP", "operating_unit_email": "registry.kh@undp.org", "inst_id": "00638", "outputs": [{"output_id": "00086151", "crs": "41010", "donor_id": ["10003"], "focus_area": "4", "gender_descr": "Gender Equality", "output_title": "Early Warning System", "budget": [79638.0], "fiscal_year": [2014], "gender_id": "1", "donor_name": ["Global Environment Fund Truste"], "award_id": "00073238", "output_descr": "Strengthening climate information and early warning systems in Cambodia to support climate resilient development and adaptation to climate change", "donor_short": ["GEFTrustee"], "expenditure": [47333.0], "crs_descr": "Environmental policy and administrative management", "focus_area_descr": "Environment & sustainable development"}], "subnational": [{"outputID": "00086151", "output_locID": "00086151-1", "name": "Phnom Penh", "focus_area": "4", "lat": "11.56245", "type": "PPLC", "awardID": "00073238", "lon": "104.91601", "precision": "3", "focus_area_descr": "Environment & sustainable development"}, {"outputID": "00086151", "output_locID": "00086151-2", "name": "Svay Rieng", "focus_area": "4", "lat": "11.16667", "type": "ADM1", "awardID": "00073238", "lon": "105.83333", "precision": "4", "focus_area_descr": "Environment & sustainable development"}, {"outputID": "00086151", "output_locID": "00086151-3", "name": "Kandal", "focus_area": "4", "lat": "11.48333", "type": "PPLA", "awardID": "00073238", "lon": "104.95", "precision": "3", "focus_area_descr": "Environment & sustainable development"}, {"outputID": "00086151", "output_locID": "00086151-4", "name": "Prey Veng", "focus_area": "4", "lat": "11.36667", "type": "ADM1", "awardID": "00073238", "lon": "105.46667", "precision": "4", "focus_area_descr": "Environment & sustainable development"}, {"outputID": "00086151", "output_locID": "00086151-5", "name": "Kampong Speu", "focus_area": "4", "lat": "12.03256", "type": "RES", "awardID": "00073238", "lon": "104.17125", "precision": "4", "focus_area_descr": "Environment & sustainable development"}, {"outputID": "00086151", "output_locID": "00086151-6", "name": "Siem Reap", "focus_area": "4", "lat": "13.36179", "type": "PPLA", "awardID": "00073238", "lon": "103.86056", "precision": "3", "focus_area_descr": "Environment & sustainable development"}, {"outputID": "00086151", "output_locID": "00086151-7", "name": "Kampong Thom", "focus_area": "4", "lat": "12.83333", "type": "ADM1", "awardID": "00073238", "lon": "105", "precision": "4", "focus_area_descr": "Environment & sustainable development"}, {"outputID": "00086151", "output_locID": "00086151-8", "name": "Battambang", "focus_area": "4", "lat": "13.10271", "type": "PPLA", "awardID": "00073238", "lon": "103.19822", "precision": "3", "focus_area_descr": "Environment & sustainable development"}, {"outputID": "00086151", "output_locID": "00086151-9", "name": "Kandal", "focus_area": "4", "lat": "11.48333", "type": "PPLA", "awardID": "00073238", "lon": "104.95", "precision": "3", "focus_area_descr": "Environment & sustainable development"}, {"outputID": "00086151", "output_locID": "00086151-10", "name": "Ratanakiri", "focus_area": "4", "lat": "13.83333", "type": "ADM1", "awardID": "00073238", "lon": "107.11667", "precision": "4", "focus_area_descr": "Environment & sustainable development"}, {"outputID": "00086151", "output_locID": "00086151-11", "name": "Mondolkiri", "focus_area": "4", "lat": "12.75", "type": "ADM1", "awardID": "00073238", "lon": "107", "precision": "4", "focus_area_descr": "Environment & sustainable development"}, {"outputID": "00086151", "output_locID": "00086151-12", "name": "Banteay Meanchey", "focus_area": "4", "lat": "13.65611", "type": "PPL", "awardID": "00073238", "lon": "102.5625", "precision": "3", "focus_area_descr": "Environment & sustainable development"}, {"outputID": "00086151", "output_locID": "00086151-13", "name": "Oddar Meanchey", "focus_area": "4", "lat": "13.36179", "type": "PPLA", "awardID": "00073238", "lon": "103.86056", "precision": "3", "focus_area_descr": "Environment & sustainable development"}, {"outputID": "00086151", "output_locID": "00086151-14", "name": "Preah Vihear", "focus_area": "4", "lat": "13.75", "type": "ADM1", "awardID": "00073238", "lon": "105", "precision": "4", "focus_area_descr": "Environment & sustainable development"}, {"outputID": "00086151", "output_locID": "00086151-15", "name": "Takeo", "focus_area": "4", "lat": "10.91667", "type": "ADM1", "awardID": "00073238", "lon": "104.83333", "precision": "4", "focus_area_descr": "Environment & sustainable development"}, {"outputID": "00086151", "output_locID": "00086151-16", "name": "Kampong Chhnang", "focus_area": "4", "lat": "12.25", "type": "PPLA", "awardID": "00073238", "lon": "104.66667", "precision": "3", "focus_area_descr": "Environment & sustainable development"}, {"outputID": "00086151", "output_locID": "00086151-17", "name": "Kampong Cham", "focus_area": "4", "lat": "11.99339", "type": "PPLA", "awardID": "00073238", "lon": "105.4635", "precision": "3", "focus_area_descr": "Environment & sustainable development"}, {"outputID": "00086151", "output_locID": "00086151-18", "name": "Pursat", "focus_area": "4", "lat": "12.53878", "type": "PPLA", "awardID": "00073238", "lon": "103.9192", "precision": "3", "focus_area_descr": "Environment & sustainable development"}, {"outputID": "00086151", "output_locID": "00086151-19", "name": "Kampot", "focus_area": "4", "lat": "10.83333", "type": "ADM1", "awardID": "00073238", "lon": "104.33333", "precision": "4", "focus_area_descr": "Environment & sustainable development"}, {"outputID": "00086151", "output_locID": "00086151-20", "name": "Preah Sihanouk", "focus_area": "4", "lat": "10.60932", "type": "PPLA", "awardID": "00073238", "lon": "103.52958", "precision": "3", "focus_area_descr": "Environment & sustainable development"}, {"outputID": "00086151", "output_locID": "00086151-21", "name": "Koh Kong", "focus_area": "4", "lat": "11.61531", "type": "PPLA", "awardID": "00073238", "lon": "102.9838", "precision": "3", "focus_area_descr": "Environment & sustainable development"}, {"outputID": "00086151", "output_locID": "00086151-22", "name": "Kep", "focus_area": "4", "lat": "10.5125", "type": "ADM1", "awardID": "00073238", "lon": "104.31667", "precision": "4", "focus_area_descr": "Environment & sustainable development"}, {"outputID": "00086151", "output_locID": "00086151-23", "name": "Kratie", "focus_area": "4", "lat": "12.66667", "type": "ADM1", "awardID": "00073238", "lon": "106.08333", "precision": "4", "focus_area_descr": "Environment & sustainable development"}, {"outputID": "00086151", "output_locID": "00086151-24", "name": "Stung Treng", "focus_area": "4", "lat": "13.52586", "type": "PPLA", "awardID": "00073238", "lon": "105.9683", "precision": "3", "focus_area_descr": "Environment & sustainable development"}], "operating_unit": "Cambodia", "budget": 79638.0, "iati_op_id": "KH", "inst_descr": "UNDP Direct Execution", "start": "2013-05-01", "operating_unit_id": "KHM", "expenditure": 47333.0, "document_name": [["Project Document", "KHM", "DOA", "CPAP%202011-2015-with%20LOA"], ["http://www.undp.org/content/dam/undp/documents/projects/KHM/Initail_Plan_EWS_Apr_2013.pdf", "http://www.undp.org/content/dam/undp/documents/IATI/Contract/KHM.xlsx", "http://www.undp.org/content/dam/undp/documents/projects/KHM/DOA PPG Cambodia EWS LDCF_signed.pdf", "http://www.kh.undp.org/content/dam/cambodia/docs/Legal Framework/CPAP 2011-2015-with LOA.pdf"]], "project_id": "00073238", "inst_type_id": "40", "operating_unit_website": "http://www.kh.undp.org/", "project_title": "strengthening climate information & early warning system"}