{"project_descr": "CBPF-MSL:  Strengthening the management effectiveness of the wetland protected area system in Hubei Province", "fiscal_year": [2016, 2017, 2018, 2014, 2015], "end": "2018-09-01", "region_id": "RBAP", "operating_unit_email": "registry.cn@undp.org", "inst_id": "00854", "outputs": [{"output_id": "00085762", "crs": "41010", "donor_id": ["10003"], "focus_area": "2", "gender_descr": "Gender Equality", "output_title": "Wetland PA Sys in Hubei", "budget": [585400.0, 602049.0, 450617.0, 304107.0, 810228.0], "fiscal_year": [2016, 2017, 2018, 2014, 2015], "gender_id": "1", "donor_name": ["Global Environment Fund Truste"], "award_id": "00072714", "output_descr": "CBPF-MSL:  Strengthening the management effectiveness of the wetland protected area system in Hubei Province", "donor_short": ["GEFTrustee"], "expenditure": [0.0, 0.0, 0.0, 206478.0, 748397.0], "crs_descr": null, "focus_area_descr": "Democratic Governance"}], "subnational": [{"outputID": "00085762", "output_locID": "00085762-1", "name": "Xiulin", "focus_area": "2", "lat": "29.716670", "type": "PPL", "awardID": "00072714", "lon": "112.400000", "precision": "1", "focus_area_descr": "Democratic Governance"}, {"outputID": "00085762", "output_locID": "00085762-2", "name": "Xindi", "focus_area": "2", "lat": "29.816670", "type": "PPL", "awardID": "00072714", "lon": "113.466670", "precision": "1", "focus_area_descr": "Democratic Governance"}, {"outputID": "00085762", "output_locID": "00085762-3", "name": "Xindi", "focus_area": "2", "lat": "29.816670", "type": "PPL", "awardID": "00072714", "lon": "113.466670", "precision": "1", "focus_area_descr": "Democratic Governance"}, {"outputID": "00085762", "output_locID": "00085762-4", "name": "Jingzhou", "focus_area": "2", "lat": "30.350280", "type": "PPL", "awardID": "00072714", "lon": "112.190280", "precision": "1", "focus_area_descr": "Democratic Governance"}, {"outputID": "00085762", "output_locID": "00085762-5", "name": "Hubei", "focus_area": "2", "lat": "31.000000", "type": "ADM1", "awardID": "00072714", "lon": "112.250000", "precision": "1", "focus_area_descr": "Democratic Governance"}, {"outputID": "00085762", "output_locID": "00085762-6", "name": "Huangshi", "focus_area": "2", "lat": "30.247060", "type": "PPLA2", "awardID": "00072714", "lon": "115.048140", "precision": "1", "focus_area_descr": "Democratic Governance"}, {"outputID": "00085762", "output_locID": "00085762-7", "name": "Huangmei", "focus_area": "2", "lat": "30.192350", "type": "PPLA3", "awardID": "00072714", "lon": "116.024960", "precision": "1", "focus_area_descr": "Democratic Governance"}, {"outputID": "00085762", "output_locID": "00085762-8", "name": "Danjiangkou Shi", "focus_area": "2", "lat": "32.546500", "type": "ADM3", "awardID": "00072714", "lon": "111.180620", "precision": "1", "focus_area_descr": "Democratic Governance"}, {"outputID": "00085762", "output_locID": "00085762-9", "name": "Caidian", "focus_area": "2", "lat": "30.583330", "type": "PPLA3", "awardID": "00072714", "lon": "114.033330", "precision": "1", "focus_area_descr": "Democratic Governance"}], "operating_unit": "China", "budget": 2752401.0, "iati_op_id": "CN", "inst_descr": "National Execution", "start": "2013-09-01", "operating_unit_id": "CHN", "expenditure": 954875.0, "document_name": [["ProDoc_Hubei_Project", "Purchase Order Summary", "UNDP-CH-StandardBasicFrameworkAgreement", "Request for Procurement"], ["https://info.undp.org/docs/pdc/Documents/CHN/ProDoc-Hubei Project-85762.pdf", "http://open.undp.org/#project/00072714", "http://www.cn.undp.org/content/dam/china/docs/legal framework/UNDP-CH-StandardBasicFrameworkAgreement.pdf", "http://procurement-notices.undp.org/index.cfm"], ["pdf", "pdf", "pdf", ""], [0, 9, 7, 10]], "project_id": "00072714", "inst_type_id": "10", "operating_unit_website": null, "project_title": "strengthening wetland pa system in hubei province"}