{"budget":[120000.0],"document_name":[["Project Document","DOA"],["http://www.undp.org/content/dam/undp/documents/projects/KHM/Initail_Plan_EWS_Apr_2013.pdf","http://www.undp.org/content/dam/undp/documents/projects/KHM/DOA PPG Cambodia EWS LDCF_signed.pdf"]],"end":"2014-04-30","expenditure":[31516.0],"fiscal_year":["2013"],"iati_op_id":"KH","inst_descr":"UNDP Direct Execution","inst_id":"00638","inst_type_id":"40","operating_unit":"Cambodia","operating_unit_email":"registry.kh@undp.org","operating_unit_id":"KHM","operating_unit_website":"http://www.un.org.kh/undp/","outputs":[{"award_id":"00073238","budget":[120000.0],"crs":"41010","crs_descr":"Environmental policy and administrative management","donor_id":["10003"],"donor_name":["Global Environment Fund Truste"],"donor_short":["GEFTrustee"],"expenditure":[31516.0],"fiscal_year":["2013"],"focus_area":"4","focus_area_descr":"Environment & sustainable development","gender_descr":"Gender Equality","gender_id":"1","output_descr":" ","output_id":"00086151","output_title":"Strengthening Climate Informat"}],"project_descr":"Strengthening climate information and early warning systems in Cambodia to support climate resilient development and adaptation to climate change (EWS-PPG)","project_id":"00073238","project_title":"Strengthening Climate Information & Early Warning System","region_id":"RBAP","start":"2013-05-01","subnational":[{"awardID":"00073238","focus_area":"4","focus_area_descr":"Environment & sustainable development","lat":"11.56245","lon":"104.91601","name":"Phnom Penh","outputID":"00086151","output_locID":"00086151-1","precision":"3","type":"PPLC"},{"awardID":"00073238","focus_area":"4","focus_area_descr":"Environment & sustainable development","lat":"11.16667","lon":"105.83333","name":"Svay Rieng","outputID":"00086151","output_locID":"00086151-2","precision":"4","type":"ADM1"},{"awardID":"00073238","focus_area":"4","focus_area_descr":"Environment & sustainable development","lat":"11.48333","lon":"104.95","name":"Kandal","outputID":"00086151","output_locID":"00086151-3","precision":"3","type":"PPLA"},{"awardID":"00073238","focus_area":"4","focus_area_descr":"Environment & sustainable development","lat":"11.36667","lon":"105.46667","name":"Prey Veng","outputID":"00086151","output_locID":"00086151-4","precision":"4","type":"ADM1"},{"awardID":"00073238","focus_area":"4","focus_area_descr":"Environment & sustainable development","lat":"12.03256","lon":"104.17125","name":"Kampong Speu","outputID":"00086151","output_locID":"00086151-5","precision":"4","type":"RES"},{"awardID":"00073238","focus_area":"4","focus_area_descr":"Environment & sustainable development","lat":"13.36179","lon":"103.86056","name":"Siem Reap","outputID":"00086151","output_locID":"00086151-6","precision":"3","type":"PPLA"},{"awardID":"00073238","focus_area":"4","focus_area_descr":"Environment & sustainable development","lat":"12.83333","lon":"105","name":"Kampong Thom","outputID":"00086151","output_locID":"00086151-7","precision":"4","type":"ADM1"},{"awardID":"00073238","focus_area":"4","focus_area_descr":"Environment & sustainable development","lat":"13.10271","lon":"103.19822","name":"Battambang","outputID":"00086151","output_locID":"00086151-8","precision":"3","type":"PPLA"},{"awardID":"00073238","focus_area":"4","focus_area_descr":"Environment & sustainable development","lat":"11.48333","lon":"104.95","name":"Kandal","outputID":"00086151","output_locID":"00086151-9","precision":"3","type":"PPLA"},{"awardID":"00073238","focus_area":"4","focus_area_descr":"Environment & sustainable development","lat":"13.83333","lon":"107.11667","name":"Ratanakiri","outputID":"00086151","output_locID":"00086151-10","precision":"4","type":"ADM1"},{"awardID":"00073238","focus_area":"4","focus_area_descr":"Environment & sustainable development","lat":"12.75","lon":"107","name":"Mondolkiri","outputID":"00086151","output_locID":"00086151-11","precision":"4","type":"ADM1"},{"awardID":"00073238","focus_area":"4","focus_area_descr":"Environment & sustainable development","lat":"13.65611","lon":"102.5625","name":"Banteay Meanchey","outputID":"00086151","output_locID":"00086151-12","precision":"3","type":"PPL"},{"awardID":"00073238","focus_area":"4","focus_area_descr":"Environment & sustainable development","lat":"13.36179","lon":"103.86056","name":"Oddar Meanchey","outputID":"00086151","output_locID":"00086151-13","precision":"3","type":"PPLA"},{"awardID":"00073238","focus_area":"4","focus_area_descr":"Environment & sustainable development","lat":"13.75","lon":"105","name":"Preah Vihear","outputID":"00086151","output_locID":"00086151-14","precision":"4","type":"ADM1"},{"awardID":"00073238","focus_area":"4","focus_area_descr":"Environment & sustainable development","lat":"10.91667","lon":"104.83333","name":"Takeo","outputID":"00086151","output_locID":"00086151-15","precision":"4","type":"ADM1"},{"awardID":"00073238","focus_area":"4","focus_area_descr":"Environment & sustainable development","lat":"12.25","lon":"104.66667","name":"Kampong Chhnang","outputID":"00086151","output_locID":"00086151-16","precision":"3","type":"PPLA"},{"awardID":"00073238","focus_area":"4","focus_area_descr":"Environment & sustainable development","lat":"11.99339","lon":"105.4635","name":"Kampong Cham","outputID":"00086151","output_locID":"00086151-17","precision":"3","type":"PPLA"},{"awardID":"00073238","focus_area":"4","focus_area_descr":"Environment & sustainable development","lat":"12.53878","lon":"103.9192","name":"Pursat","outputID":"00086151","output_locID":"00086151-18","precision":"3","type":"PPLA"},{"awardID":"00073238","focus_area":"4","focus_area_descr":"Environment & sustainable development","lat":"10.83333","lon":"104.33333","name":"Kampot","outputID":"00086151","output_locID":"00086151-19","precision":"4","type":"ADM1"},{"awardID":"00073238","focus_area":"4","focus_area_descr":"Environment & sustainable development","lat":"10.60932","lon":"103.52958","name":"Preah Sihanouk","outputID":"00086151","output_locID":"00086151-20","precision":"3","type":"PPLA"},{"awardID":"00073238","focus_area":"4","focus_area_descr":"Environment & sustainable development","lat":"11.61531","lon":"102.9838","name":"Koh Kong","outputID":"00086151","output_locID":"00086151-21","precision":"3","type":"PPLA"},{"awardID":"00073238","focus_area":"4","focus_area_descr":"Environment & sustainable development","lat":"10.5125","lon":"104.31667","name":"Kep","outputID":"00086151","output_locID":"00086151-22","precision":"4","type":"ADM1"},{"awardID":"00073238","focus_area":"4","focus_area_descr":"Environment & sustainable development","lat":"12.66667","lon":"106.08333","name":"Kratie","outputID":"00086151","output_locID":"00086151-23","precision":"4","type":"ADM1"},{"awardID":"00073238","focus_area":"4","focus_area_descr":"Environment & sustainable development","lat":"13.52586","lon":"105.9683","name":"Stung Treng","outputID":"00086151","output_locID":"00086151-24","precision":"3","type":"PPLA"}]}