{"project_descr": "Encourager une di\u00e8te alimentaire \u00e9quilibr\u00e9e, \u00e0 travers la production biologique \u00e0 petite \u00e9chelle d\u2019aliments frais et la participation de la population concern\u00e9e.", "fiscal_year": [2017, 2016, 2014, 2015], "end": "2017-12-31", "region_id": "RBLAC", "operating_unit_email": "registry.ht@undp.org", "inst_id": "99999", "outputs": [{"output_id": "00089277", "crs": "15110", "donor_id": ["12161", "00012"], "disbursement": [], "focus_area": "1", "gender_descr": "Gender Equality", "output_title": "PROHUERTA", "budget": [1020225.0, 177069.0, 713727.0, 1607585.0], "fiscal_year": [2016, 2017, 2014, 2015], "gender_id": "1", "expenditure": [806600.0, 42816.0, 643201.0, 1566643.0], "award_id": "00079220", "output_descr": "Encourager une di\u00e8te alimentaire \u00e9quilibr\u00e9e, \u00e0 travers la production biologique \u00e0 petite \u00e9chelle d\u2019aliments frais et la participation de la population concern\u00e9e.", "donor_short": ["UNDP", "UNASUR"], "donor_name": ["Voluntary Contributions", "Union de Naciones Suramericana"], "crs_descr": null, "focus_area_descr": "Inclusive & Sustainable Growth"}], "subnational": [{"outputID": "00089277", "output_locID": "00089277-1", "name": "Terre Neuve", "focus_area": "1", "lat": "19.633330", "type": "ADM3", "awardID": "00079220", "lon": "-72.800000", "precision": "1", "focus_area_descr": "Inclusive & Sustainable Growth"}, {"outputID": "00089277", "output_locID": "00089277-2", "name": "Saint-Marc", "focus_area": "1", "lat": "19.100000", "type": "ADM3", "awardID": "00079220", "lon": "-72.650000", "precision": "1", "focus_area_descr": "Inclusive & Sustainable Growth"}, {"outputID": "00089277", "output_locID": "00089277-3", "name": "Arrondissement de Saint-Louis du Nord", "focus_area": "1", "lat": "19.850000", "type": "ADM2", "awardID": "00079220", "lon": "-72.666670", "precision": "1", "focus_area_descr": "Inclusive & Sustainable Growth"}, {"outputID": "00089277", "output_locID": "00089277-4", "name": "Port Margot", "focus_area": "1", "lat": "19.733330", "type": "ADM3", "awardID": "00079220", "lon": "-72.466670", "precision": "1", "focus_area_descr": "Inclusive & Sustainable Growth"}, {"outputID": "00089277", "output_locID": "00089277-5", "name": "Arrondissement de Port-de-Paix", "focus_area": "1", "lat": "19.833330", "type": "ADM2", "awardID": "00079220", "lon": "-72.883330", "precision": "1", "focus_area_descr": "Inclusive & Sustainable Growth"}, {"outputID": "00089277", "output_locID": "00089277-6", "name": "Port-au-Prince", "focus_area": "1", "lat": "18.539170", "type": "PPLC", "awardID": "00079220", "lon": "-72.335000", "precision": "1", "focus_area_descr": "Inclusive & Sustainable Growth"}, {"outputID": "00089277", "output_locID": "00089277-7", "name": "Tigwav", "focus_area": "1", "lat": "18.333330", "type": "ADM3", "awardID": "00079220", "lon": "-72.916670", "precision": "1", "focus_area_descr": "Inclusive & Sustainable Growth"}, {"outputID": "00089277", "output_locID": "00089277-8", "name": "D\u00e9partement du Nord-Est", "focus_area": "1", "lat": "19.488970", "type": "ADM1", "awardID": "00079220", "lon": "-71.857130", "precision": "1", "focus_area_descr": "Inclusive & Sustainable Growth"}, {"outputID": "00089277", "output_locID": "00089277-9", "name": "Nord", "focus_area": "1", "lat": "19.600000", "type": "ADM1", "awardID": "00079220", "lon": "-72.300000", "precision": "1", "focus_area_descr": "Inclusive & Sustainable Growth"}, {"outputID": "00089277", "output_locID": "00089277-10", "name": "M\u00f4le Saint-Nicolas", "focus_area": "1", "lat": "19.750000", "type": "ADM3", "awardID": "00079220", "lon": "-73.333330", "precision": "1", "focus_area_descr": "Inclusive & Sustainable Growth"}, {"outputID": "00089277", "output_locID": "00089277-11", "name": "Marmelade", "focus_area": "1", "lat": "19.500000", "type": "ADM3", "awardID": "00079220", "lon": "-72.366670", "precision": "1", "focus_area_descr": "Inclusive & Sustainable Growth"}, {"outputID": "00089277", "output_locID": "00089277-12", "name": "Mayisad", "focus_area": "1", "lat": "19.183330", "type": "ADM3", "awardID": "00079220", "lon": "-72.166670", "precision": "1", "focus_area_descr": "Inclusive & Sustainable Growth"}, {"outputID": "00089277", "output_locID": "00089277-13", "name": "Lenbe", "focus_area": "1", "lat": "19.650000", "type": "ADM3", "awardID": "00079220", "lon": "-72.416670", "precision": "1", "focus_area_descr": "Inclusive & Sustainable Growth"}, {"outputID": "00089277", "output_locID": "00089277-14", "name": "L\u00e9og\u00e2ne", "focus_area": "1", "lat": "18.433330", "type": "ADM3", "awardID": "00079220", "lon": "-72.583330", "precision": "1", "focus_area_descr": "Inclusive & Sustainable Growth"}, {"outputID": "00089277", "output_locID": "00089277-15", "name": "Jean Rabel", "focus_area": "1", "lat": "19.450000", "type": "PPL", "awardID": "00079220", "lon": "-71.800000", "precision": "1", "focus_area_descr": "Inclusive & Sustainable Growth"}, {"outputID": "00089277", "output_locID": "00089277-16", "name": "Arrondissement de Jacmel", "focus_area": "1", "lat": "18.333330", "type": "ADM2", "awardID": "00079220", "lon": "-72.500000", "precision": "1", "focus_area_descr": "Inclusive & Sustainable Growth"}, {"outputID": "00089277", "output_locID": "00089277-17", "name": "Hinche", "focus_area": "1", "lat": "19.166670", "type": "ADM3", "awardID": "00079220", "lon": "-72.000000", "precision": "1", "focus_area_descr": "Inclusive & Sustainable Growth"}, {"outputID": "00089277", "output_locID": "00089277-18", "name": "Gonayiv", "focus_area": "1", "lat": "19.450000", "type": "ADM3", "awardID": "00079220", "lon": "-72.650000", "precision": "1", "focus_area_descr": "Inclusive & Sustainable Growth"}, {"outputID": "00089277", "output_locID": "00089277-19", "name": "Ganthier", "focus_area": "1", "lat": "18.483330", "type": "ADM3", "awardID": "00079220", "lon": "-72.033330", "precision": "1", "focus_area_descr": "Inclusive & Sustainable Growth"}, {"outputID": "00089277", "output_locID": "00089277-20", "name": "Arrondissement de Dessalines", "focus_area": "1", "lat": "19.166670", "type": "ADM2", "awardID": "00079220", "lon": "-72.416670", "precision": "1", "focus_area_descr": "Inclusive & Sustainable Growth"}, {"outputID": "00089277", "output_locID": "00089277-21", "name": "Croix des Bouquets", "focus_area": "1", "lat": "18.500000", "type": "ADM3", "awardID": "00079220", "lon": "-72.166670", "precision": "1", "focus_area_descr": "Inclusive & Sustainable Growth"}, {"outputID": "00089277", "output_locID": "00089277-22", "name": "Cerca La Source", "focus_area": "1", "lat": "19.166670", "type": "ADM3", "awardID": "00079220", "lon": "-71.750000", "precision": "1", "focus_area_descr": "Inclusive & Sustainable Growth"}, {"outputID": "00089277", "output_locID": "00089277-23", "name": "Centre", "focus_area": "1", "lat": "19.000000", "type": "ADM1", "awardID": "00079220", "lon": "-72.000000", "precision": "1", "focus_area_descr": "Inclusive & Sustainable Growth"}, {"outputID": "00089277", "output_locID": "00089277-24", "name": "Carrefour", "focus_area": "1", "lat": "18.541140", "type": "PPLX", "awardID": "00079220", "lon": "-72.399220", "precision": "1", "focus_area_descr": "Inclusive & Sustainable Growth"}, {"outputID": "00089277", "output_locID": "00089277-25", "name": "Cabaret", "focus_area": "1", "lat": "18.400000", "type": "PPL", "awardID": "00079220", "lon": "-72.600000", "precision": "1", "focus_area_descr": "Inclusive & Sustainable Growth"}, {"outputID": "00089277", "output_locID": "00089277-26", "name": "Bombardopolis", "focus_area": "1", "lat": "19.700000", "type": "ADM3", "awardID": "00079220", "lon": "-73.333330", "precision": "1", "focus_area_descr": "Inclusive & Sustainable Growth"}, {"outputID": "00089277", "output_locID": "00089277-27", "name": "Arrondissement de Belle-Anse", "focus_area": "1", "lat": "18.250000", "type": "ADM2", "awardID": "00079220", "lon": "-72.000000", "precision": "1", "focus_area_descr": "Inclusive & Sustainable Growth"}, {"outputID": "00089277", "output_locID": "00089277-28", "name": "Bassin Bleu", "focus_area": "1", "lat": "19.766670", "type": "ADM3", "awardID": "00079220", "lon": "-72.816670", "precision": "1", "focus_area_descr": "Inclusive & Sustainable Growth"}, {"outputID": "00089277", "output_locID": "00089277-29", "name": "Bainet", "focus_area": "1", "lat": "18.183330", "type": "ADM3", "awardID": "00079220", "lon": "-72.750000", "precision": "1", "focus_area_descr": "Inclusive & Sustainable Growth"}, {"outputID": "00089277", "output_locID": "00089277-30", "name": "D\u00e9partement de l'Artibonite", "focus_area": "1", "lat": "19.333330", "type": "ADM1", "awardID": "00079220", "lon": "-72.500000", "precision": "1", "focus_area_descr": "Inclusive & Sustainable Growth"}, {"outputID": "00089277", "output_locID": "00089277-31", "name": "Arcahaie", "focus_area": "1", "lat": "18.850000", "type": "ADM3", "awardID": "00079220", "lon": "-72.500000", "precision": "1", "focus_area_descr": "Inclusive & Sustainable Growth"}, {"outputID": "00089277", "output_locID": "00089277-32", "name": "Anse-\u00e0-Foleur", "focus_area": "1", "lat": "19.833330", "type": "ADM3", "awardID": "00079220", "lon": "-72.633330", "precision": "1", "focus_area_descr": "Inclusive & Sustainable Growth"}, {"outputID": "00089277", "output_locID": "00089277-33", "name": "Cit\u00e9 Soleil", "focus_area": "1", "lat": "18.580280", "type": "PPLX", "awardID": "00079220", "lon": "-72.338060", "precision": "1", "focus_area_descr": "Inclusive & Sustainable Growth"}, {"outputID": "00089277", "output_locID": "00089277-34", "name": "Cabaret", "focus_area": "1", "lat": "18.735230", "type": "ADM3", "awardID": "00079220", "lon": "-72.419110", "precision": "1", "focus_area_descr": "Inclusive & Sustainable Growth"}], "operating_unit": "Haiti", "budget": 3518606.0, "iati_op_id": "HT", "inst_descr": "United Nations Development Programme", "start": "2014-01-29", "operating_unit_id": "HTI", "expenditure": 3059260.0, "document_name": [["Project document", "AWD79220_PROHUERTA_Plan de travail_2015", "AWD79220_Prohuertas_General Revision 1_24 juin 14", "AWD79220_Prohuertas_Revision project approval_1 avril 14", "GENERAL REVISION FEVRIER 2015", "GENERAL REVISION JANVIER 2016", "Generale Revision No 4", "PLAN DE TRAVAIL ANNUEL 2016", "Revision Budgetaire 28 Janvier 2016", "REVISION BUDGETAIRE DECEMBRE 2015", "REVISION BUDGETAIRE JUIN 2015", "Revision Budgetaire septembre 2016", "Evaluation \u00e0 mi-parcours du Projet : \"Elargissement de PRO-HUERTA HAITI avec l'UNASUR\"", "PROHUERTA_00079220", "RAPPORT ANNUEL 2014", "CDR annuel 2016", "PID79220_PROHUERTAS_Rapport Annuel 2016", "PID89277_PROHUERTA_Rapport davancement_Juin 2014", "Rapport annuel Prohuerta 2015", "PROHUERTA (Promotion des jardins potagers)", "PROHUERTA (Promotion des jardins potagers)", "PROHUERTA (Promotion des jardins potagers)", "PROHUERTA (Promotion des jardins potagers)", "PROHUERTA (Promotion des jardins potagers)", "PROHUERTA (Promotion des jardins potagers)", "PROHUERTA (Promotion des jardins potagers)", "PROHUERTA (Promotion des jardins potagers)", "PROHUERTA (Promotion des jardins potagers)", "PROHUERTA (Promotion des jardins potagers)", "PROHUERTA (Promotion des jardins potagers)"], ["https://info.undp.org/docs/pdc/Documents/HTI/AWD79220_Prohuertas_Project document_ 2014.pdf", "https://info.undp.org/docs/pdc/Documents/HTI/AWD79220_PROHUERTA_Plan de travail_2015.pdf", "https://info.undp.org/docs/pdc/Documents/HTI/AWD79220_Prohuertas_General Revision 1_24 juin 14.pdf", "https://info.undp.org/docs/pdc/Documents/HTI/AWD79220_Prohuertas_Revision project approval_1 avril 14.pdf", "https://info.undp.org/docs/pdc/Documents/HTI/AWD79220_PROHUERTA_General Revision_Fev-2015.pdf", "https://info.undp.org/docs/pdc/Documents/HTI/AWD79220_Prohuertas_General Revision 7_27 janvier 2016.pdf", "https://info.undp.org/docs/pdc/Documents/HTI/AWD79220_Prohuertas_General Revision 4_10 fevrier 2015.pdf", "https://info.undp.org/docs/pdc/Documents/HTI/PID89277_PROHUERTA_PLAN DE TRVAIL 2016_2016.pdf", "https://info.undp.org/docs/pdc/Documents/HTI/AWD79220_PROHUERTA_Revisions budgetaires_Janvier 2016.pdf", "https://info.undp.org/docs/pdc/Documents/HTI/AWD79220_PROHUERTA_Revisions budgetaires_Dec 2015.pdf", "https://info.undp.org/docs/pdc/Documents/HTI/AWD79220_PROHUERTA_Revisions budgetaires_Juin 2015.pdf", "https://info.undp.org/docs/pdc/Documents/HTI/AWD79220_Prohuertas_General Revision 8_sept 2016.pdf", "https://erc.undp.org/evaluation/evaluations/detail/7944", "https://info.undp.org/docs/pdc/Documents/HTI/PID89277_PROHUERTA_Rapport_Final_2016.pdf", "https://info.undp.org/docs/pdc/Documents/HTI/PID89227_Prohuerta_Rapport Annuel 2014.pdf", "https://info.undp.org/docs/pdc/Documents/HTI/AWD79277_Phohuertas_CDR annuel 2016_3 mars 2017.pdf", "https://info.undp.org/docs/pdc/Documents/HTI/PID79220_PROHUERTAS_Rapport Annuel 2016.pdf", "https://info.undp.org/docs/pdc/Documents/HTI/PID89277_PROHUERTA_Rapport d'avancement_Juin 2014.pdf", "https://info.undp.org/docs/pdc/Documents/HTI/Prohuerta - Rapport annuel 2015.pdf", "http://procurement-notices.undp.org/view_notice.cfm?notice_id=20907", "http://procurement-notices.undp.org/view_notice.cfm?notice_id=21099", "http://procurement-notices.undp.org/view_notice.cfm?notice_id=21102", "http://procurement-notices.undp.org/view_notice.cfm?notice_id=22010", "http://procurement-notices.undp.org/view_notice.cfm?notice_id=24791", "http://procurement-notices.undp.org/view_notice.cfm?notice_id=26198", "http://procurement-notices.undp.org/view_notice.cfm?notice_id=26335", "http://procurement-notices.undp.org/view_notice.cfm?notice_id=28550", "http://procurement-notices.undp.org/view_notice.cfm?notice_id=28551", "http://procurement-notices.undp.org/view_notice.cfm?notice_id=30139", "http://procurement-notices.undp.org/view_notice.cfm?notice_id=40840"], ["pdf", "pdf", "pdf", "pdf", "pdf", "pdf", "pdf", "pdf", "pdf", "pdf", "pdf", "pdf", "", "pdf", "pdf", "pdf", "pdf", "pdf", "pdf", "", "", "", "", "", "", "", "", "", "", ""], [0, 3, 3, 3, 3, 3, 3, 3, 3, 3, 3, 3, 5, 5, 5, 6, 6, 6, 6, 10, 10, 10, 10, 10, 10, 10, 10, 10, 10, 10]], "project_id": "00079220", "inst_type_id": "40", "operating_unit_website": null, "project_title": "prohuerta (promotion des jardins potagers)"}