{"project_descr": "Dise\u00f1o de una estrategia en apoyo al Estado para la b\u00fasqueda de concertaci\u00f3n, entendimiento, y evitar la polarizaci\u00f3n y la confrontaci\u00f3n que contribuya a garantizar la gobernabilidad en el pa\u00eds.", "fiscal_year": [2014, 2013], "end": "2014-12-31", "region_id": "RBLAC", "operating_unit_email": "pnud.gt@undp.org", "inst_id": "99999", "outputs": [{"output_id": "00085920", "crs": "74010", "donor_id": ["00250"], "focus_area": "5", "gender_descr": "Gender Equality", "output_title": "Disminuci\u00f3n conflictividad", "budget": [322487.0, 35310.0], "fiscal_year": [2013, 2014], "gender_id": "1", "donor_name": ["UNDETERMINED"], "award_id": "00072937", "output_descr": "Asesor\u00edas y misiones de alto nivel para  contribuir al fortalecimiento de las capacidades de an\u00e1lisis y gesti\u00f3n pol\u00edtica del desarrollo y del impulso de un estilo de debate m\u00e1s informado, plural y democr\u00e1tico.", "donor_short": ["UND"], "expenditure": [322487.0, 24056.0], "crs_descr": null, "focus_area_descr": "Climate Change & Disaster Resilience"}], "subnational": [{"outputID": "00085920", "output_locID": "00085920-1", "name": "Municipio de Casillas", "focus_area": "5", "lat": "14.416670", "type": "ADM2", "awardID": "00072937", "lon": "-90.250000", "precision": "1", "focus_area_descr": "Climate Change & Disaster Resilience"}, {"outputID": "00085920", "output_locID": "00085920-2", "name": "Departamento de El Progreso", "focus_area": "5", "lat": "14.833330", "type": "ADM1", "awardID": "00072937", "lon": "-90.000000", "precision": "1", "focus_area_descr": "Climate Change & Disaster Resilience"}, {"outputID": "00085920", "output_locID": "00085920-3", "name": "Republic of Guatemala", "focus_area": "5", "lat": "15.500000", "type": "PCLI", "awardID": "00072937", "lon": "-90.250000", "precision": "1", "focus_area_descr": "Climate Change & Disaster Resilience"}, {"outputID": "00085920", "output_locID": "00085920-4", "name": "Departamento de Jalapa", "focus_area": "5", "lat": "14.583330", "type": "ADM1", "awardID": "00072937", "lon": "-89.916670", "precision": "1", "focus_area_descr": "Climate Change & Disaster Resilience"}, {"outputID": "00085920", "output_locID": "00085920-5", "name": "Departamento de Jutiapa", "focus_area": "5", "lat": "14.166670", "type": "ADM1", "awardID": "00072937", "lon": "-89.833330", "precision": "1", "focus_area_descr": "Climate Change & Disaster Resilience"}, {"outputID": "00085920", "output_locID": "00085920-6", "name": "Municipio de Mataquescuintla", "focus_area": "5", "lat": "14.533330", "type": "ADM2", "awardID": "00072937", "lon": "-90.183330", "precision": "1", "focus_area_descr": "Climate Change & Disaster Resilience"}, {"outputID": "00085920", "output_locID": "00085920-7", "name": "Monjas", "focus_area": "5", "lat": "14.500000", "type": "PPL", "awardID": "00072937", "lon": "-89.866670", "precision": "1", "focus_area_descr": "Climate Change & Disaster Resilience"}, {"outputID": "00085920", "output_locID": "00085920-8", "name": "R\u00edo Ost\u00faa", "focus_area": "5", "lat": "14.286940", "type": "STM", "awardID": "00072937", "lon": "-89.540000", "precision": "1", "focus_area_descr": "Climate Change & Disaster Resilience"}, {"outputID": "00085920", "output_locID": "00085920-9", "name": "Municipio de San Carlos Alzatate", "focus_area": "5", "lat": "14.500000", "type": "ADM2", "awardID": "00072937", "lon": "-90.050000", "precision": "1", "focus_area_descr": "Climate Change & Disaster Resilience"}, {"outputID": "00085920", "output_locID": "00085920-10", "name": "San Luis Jilotepeque", "focus_area": "5", "lat": "14.650000", "type": "PPL", "awardID": "00072937", "lon": "-89.733330", "precision": "1", "focus_area_descr": "Climate Change & Disaster Resilience"}, {"outputID": "00085920", "output_locID": "00085920-11", "name": "Municipio de San Manuel Chaparr\u00f3n", "focus_area": "5", "lat": "14.516670", "type": "ADM2", "awardID": "00072937", "lon": "-89.766670", "precision": "1", "focus_area_descr": "Climate Change & Disaster Resilience"}, {"outputID": "00085920", "output_locID": "00085920-12", "name": "Municipio de San Pedro Pinula", "focus_area": "5", "lat": "14.666670", "type": "ADM2", "awardID": "00072937", "lon": "-89.850000", "precision": "1", "focus_area_descr": "Climate Change & Disaster Resilience"}, {"outputID": "00085920", "output_locID": "00085920-13", "name": "Municipio de San Rafael Las Flores", "focus_area": "5", "lat": "14.466670", "type": "ADM2", "awardID": "00072937", "lon": "-90.183330", "precision": "1", "focus_area_descr": "Climate Change & Disaster Resilience"}], "operating_unit": "Guatemala", "budget": 357797.0, "iati_op_id": "GT", "inst_descr": "UNDP", "start": "2013-02-01", "operating_unit_id": "GTM", "expenditure": 346543.0, "document_name": [["IP"], ["http://www.undp.org/content/dam/undp/documents/projects/GTM/IP.pdf"], ["pdf"]], "project_id": "00072937", "inst_type_id": "40", "operating_unit_website": "http://www.gt.undp.org/", "project_title": "estrategia de apoyo para disminuci\u00f3n conflictividad"}