{"project_descr": "Le projet vise \u00e0 renforcer le rel\u00e8vement de CT dans 4 r\u00e9gions; contribuer \u00e0  l\u2019appropriation  du cadre politique et juridique de la d\u00e9centralisation et assurer la formulation d'un programme pluriannuel de d\u00e9centralisation", "fiscal_year": [2016, 2015], "end": "2017-03-31", "region_id": "RBA", "operating_unit_email": "registry.ml@undp.org", "inst_id": "XM-DAC-41114", "outputs": [{"output_id": "00093029", "crs": "15113", "donor_id": ["00012"], "disbursement": [], "focus_area": "2", "gender_descr": "Gender Equality", "output_title": "Appui D\u00e9centralisation inclusi", "budget": [125000.0, 540000.0], "fiscal_year": [2016, 2015], "gender_id": "1", "expenditure": [64782.0, 413860.0], "award_id": "00085363", "output_descr": "Les capacit\u00e9s locales pour une gestion participative du rel\u00e8vement imm\u00e9diat et pour la r\u00e9duction des conflits et de la violence faite aux femmes sont renforc\u00e9es dans 4 localit\u00e9s pilotes", "donor_short": ["UNDP"], "donor_name": ["Voluntary Contributions"], "crs_descr": null, "focus_area_descr": "Democratic Governance"}], "subnational": [{"outputID": "00093029", "output_locID": "00093029-1", "name": "Timbuktu", "focus_area": "2", "lat": "16.773480", "type": "PPLA", "awardID": "00085363", "lon": "-3.007420", "precision": "1", "focus_area_descr": "Democratic Governance"}, {"outputID": "00093029", "output_locID": "00093029-2", "name": "Mopti", "focus_area": "2", "lat": "14.484300", "type": "PPLA", "awardID": "00085363", "lon": "-4.182960", "precision": "1", "focus_area_descr": "Democratic Governance"}, {"outputID": "00093029", "output_locID": "00093029-3", "name": "M\u00e9naka", "focus_area": "2", "lat": "15.918200", "type": "PPLA2", "awardID": "00085363", "lon": "2.402200", "precision": "1", "focus_area_descr": "Democratic Governance"}, {"outputID": "00093029", "output_locID": "00093029-4", "name": "Kidal", "focus_area": "2", "lat": "18.441110", "type": "PPLA", "awardID": "00085363", "lon": "1.407780", "precision": "1", "focus_area_descr": "Democratic Governance"}, {"outputID": "00093029", "output_locID": "00093029-5", "name": "Gourma Rharous", "focus_area": "2", "lat": "16.877780", "type": "PPLA2", "awardID": "00085363", "lon": "-1.923060", "precision": "1", "focus_area_descr": "Democratic Governance"}, {"outputID": "00093029", "output_locID": "00093029-6", "name": "Goundam", "focus_area": "2", "lat": "16.414530", "type": "PPLA2", "awardID": "00085363", "lon": "-3.670750", "precision": "1", "focus_area_descr": "Democratic Governance"}, {"outputID": "00093029", "output_locID": "00093029-7", "name": "Gao", "focus_area": "2", "lat": "16.271670", "type": "PPLA", "awardID": "00085363", "lon": "-0.044720", "precision": "1", "focus_area_descr": "Democratic Governance"}, {"outputID": "00093029", "output_locID": "00093029-8", "name": "Dir\u00e9", "focus_area": "2", "lat": "16.257050", "type": "PPLA2", "awardID": "00085363", "lon": "-3.401260", "precision": "1", "focus_area_descr": "Democratic Governance"}, {"outputID": "00093029", "output_locID": "00093029-9", "name": "Bourem", "focus_area": "2", "lat": "16.955000", "type": "PPLA2", "awardID": "00085363", "lon": "-0.348610", "precision": "1", "focus_area_descr": "Democratic Governance"}, {"outputID": "00093029", "output_locID": "00093029-10", "name": "Ansongo", "focus_area": "2", "lat": "15.659700", "type": "PPLA2", "awardID": "00085363", "lon": "0.502200", "precision": "1", "focus_area_descr": "Democratic Governance"}], "operating_unit": "Mali", "budget": 665000.0, "iati_op_id": "ML", "inst_descr": "United Nations Development Programme", "start": "2014-12-10", "operating_unit_id": "MLI", "expenditure": 478642.0, "document_name": [["Programme d'appui \u00e0 une gouvernance locale inclusive, d\u00e9centralis\u00e9e et plus r\u00e9siliente face aux crises", "RFQ EQUIPEMENTS DIVERS - PCJR"], ["https://info.undp.org/docs/pdc/Documents/MLI/Prodoc_Programme d'appui Gouvernance locale inclusive d\u00e9centralis\u00e9e_sign\u00e9.pdf", "http://procurement-notices.undp.org/view_notice.cfm?notice_id=23980"], ["pdf", ""], [0, 10]], "project_id": "00085363", "inst_type_id": "40", "operating_unit_website": null, "project_title": "appui d\u00e9centralisation inclusive et resiliente"}