{"project_descr": "This projects aims to contribute to capacitating states and national bodies to reduce the likelihood of tensions, mitigate conflicts, and lower the risks and costs of natural disasters, including from climate change.", "fiscal_year": [2017, 2016, 2014, 2015], "end": "2017-12-31", "region_id": "global", "operating_unit_email": "registry.sk@undp.org", "inst_id": "99999", "outputs": [{"output_id": "00090283", "crs": "74010", "donor_id": ["00012", "00244"], "disbursement": [], "focus_area": "5", "gender_descr": "Gender Equality", "output_title": "1.Mechanisms to Assess Risks", "budget": [246040.0, 217205.0, 146000.0, 799338.0], "fiscal_year": [2016, 2017, 2014, 2015], "gender_id": "1", "expenditure": [234578.0, 207817.0, 134101.0, 688706.0], "award_id": "00080666", "output_descr": "Mechanisms in place to assess natural and human-made risks, including consideration to gender based differences, at national and subnational levels. (SP Output 5.1)", "donor_short": ["UNDP", "TUR"], "donor_name": ["Voluntary Contributions", "GOVERNMENT OF TURKEY"], "crs_descr": null, "focus_area_descr": "Climate Change & Disaster Resilience"}, {"output_id": "00090284", "crs": "74010", "donor_id": ["00012", "00244"], "disbursement": [], "focus_area": "5", "gender_descr": "Gender Equality", "output_title": "2.Effective Framework", "budget": [474426.0, 250725.0, 50250.0, 187568.0], "fiscal_year": [2016, 2017, 2014, 2015], "gender_id": "1", "expenditure": [266756.0, 247785.0, 43933.0, 141004.0], "award_id": "00080666", "output_descr": "Effective institutional, legislative and policy framework to enhance the implementation of inclusive disaster and climate risk management measures at national and sub-levels. (SP Output 5.2)", "donor_short": ["UNDP", "TUR"], "donor_name": ["Voluntary Contributions", "GOVERNMENT OF TURKEY"], "crs_descr": null, "focus_area_descr": "Climate Change & Disaster Resilience"}, {"output_id": "00090285", "crs": "74010", "donor_id": ["00187", "00012", "00244"], "disbursement": [], "focus_area": "5", "gender_descr": "Gender Equality", "output_title": "3.Policy Frameworks", "budget": [571841.0, 94233.0, 13000.0, 638735.0], "fiscal_year": [2016, 2017, 2014, 2015], "gender_id": "1", "expenditure": [415747.0, 89146.0, 12929.0, 507835.0], "award_id": "00080666", "output_descr": "Policy frameworks and institutional mechanisms enabled at the national and subnational levels for the peaceful management of emerging and recurring conflicts and tensions. (SP Output 5.5)", "donor_short": ["UNDP", "NOR", "TUR"], "donor_name": ["Voluntary Contributions", "GOVERNMENT OF NORWAY", "GOVERNMENT OF TURKEY"], "crs_descr": null, "focus_area_descr": "Climate Change & Disaster Resilience"}, {"output_id": "00090286", "crs": "74010", "donor_id": ["00012", "00296", "00244"], "disbursement": [], "focus_area": "5", "gender_descr": "Gender Equality", "output_title": "4.Preparedness Systems", "budget": [333747.0, 357200.0, 20000.0, 363069.0], "fiscal_year": [2016, 2017, 2014, 2015], "gender_id": "1", "expenditure": [94726.0, 295693.0, 19989.0, 309569.0], "award_id": "00080666", "output_descr": "Preparedness systems in place to effectively address the consequences of and response to natural hazards (e.g., geophysical, climate related) and human-made crisis at all levels of government and community. (SP Output 5.4)", "donor_short": ["UNDP", "TUR", "UN"], "donor_name": ["Voluntary Contributions", "GOVERNMENT OF TURKEY", "UNITED NATIONS"], "crs_descr": null, "focus_area_descr": "Climate Change & Disaster Resilience"}], "subnational": [{"outputID": "00090283", "output_locID": "00090283-1", "name": "Ashgabat", "focus_area": "5", "lat": "37.950000", "type": "PPLC", "awardID": "00080666", "lon": "58.383330", "precision": "1", "focus_area_descr": "Climate Change & Disaster Resilience"}, {"outputID": "00090283", "output_locID": "00090283-2", "name": "Ankara", "focus_area": "5", "lat": "39.919870", "type": "PPLC", "awardID": "00080666", "lon": "32.854270", "precision": "1", "focus_area_descr": "Climate Change & Disaster Resilience"}, {"outputID": "00090283", "output_locID": "00090283-3", "name": "Baku", "focus_area": "5", "lat": "40.377670", "type": "PPLC", "awardID": "00080666", "lon": "49.892010", "precision": "1", "focus_area_descr": "Climate Change & Disaster Resilience"}, {"outputID": "00090283", "output_locID": "00090283-4", "name": "Tbilisi", "focus_area": "5", "lat": "41.694110", "type": "PPLC", "awardID": "00080666", "lon": "44.833680", "precision": "1", "focus_area_descr": "Climate Change & Disaster Resilience"}, {"outputID": "00090283", "output_locID": "00090283-5", "name": "Yerevan", "focus_area": "5", "lat": "40.181110", "type": "PPLC", "awardID": "00080666", "lon": "44.513610", "precision": "1", "focus_area_descr": "Climate Change & Disaster Resilience"}, {"outputID": "00090283", "output_locID": "00090283-6", "name": "Chisinau", "focus_area": "5", "lat": "47.005560", "type": "PPLC", "awardID": "00080666", "lon": "28.857500", "precision": "1", "focus_area_descr": "Climate Change & Disaster Resilience"}, {"outputID": "00090283", "output_locID": "00090283-7", "name": "Minsk", "focus_area": "5", "lat": "53.900000", "type": "PPLC", "awardID": "00080666", "lon": "27.566670", "precision": "1", "focus_area_descr": "Climate Change & Disaster Resilience"}, {"outputID": "00090283", "output_locID": "00090283-8", "name": "Kiev", "focus_area": "5", "lat": "50.454660", "type": "PPLC", "awardID": "00080666", "lon": "30.523800", "precision": "1", "focus_area_descr": "Climate Change & Disaster Resilience"}, {"outputID": "00090283", "output_locID": "00090283-9", "name": "Istanbul", "focus_area": "5", "lat": "41.013840", "type": "PPLA", "awardID": "00080666", "lon": "28.949660", "precision": "1", "focus_area_descr": "Climate Change & Disaster Resilience"}, {"outputID": "00090283", "output_locID": "00090283-10", "name": "Skopje", "focus_area": "5", "lat": "41.996460", "type": "PPLC", "awardID": "00080666", "lon": "21.431410", "precision": "1", "focus_area_descr": "Climate Change & Disaster Resilience"}, {"outputID": "00090283", "output_locID": "00090283-11", "name": "Belgrade", "focus_area": "5", "lat": "44.804010", "type": "PPLC", "awardID": "00080666", "lon": "20.465130", "precision": "1", "focus_area_descr": "Climate Change & Disaster Resilience"}, {"outputID": "00090283", "output_locID": "00090283-12", "name": "Dushanbe", "focus_area": "5", "lat": "38.535750", "type": "PPLC", "awardID": "00080666", "lon": "68.779050", "precision": "1", "focus_area_descr": "Climate Change & Disaster Resilience"}, {"outputID": "00090283", "output_locID": "00090283-13", "name": "Astana", "focus_area": "5", "lat": "51.180100", "type": "PPLC", "awardID": "00080666", "lon": "71.445980", "precision": "1", "focus_area_descr": "Climate Change & Disaster Resilience"}, {"outputID": "00090283", "output_locID": "00090283-14", "name": "Tirana", "focus_area": "5", "lat": "41.327500", "type": "PPLC", "awardID": "00080666", "lon": "19.818890", "precision": "1", "focus_area_descr": "Climate Change & Disaster Resilience"}, {"outputID": "00090283", "output_locID": "00090283-15", "name": "Sarajevo", "focus_area": "5", "lat": "43.848640", "type": "PPLC", "awardID": "00080666", "lon": "18.356440", "precision": "1", "focus_area_descr": "Climate Change & Disaster Resilience"}, {"outputID": "00090283", "output_locID": "00090283-16", "name": "Podgorica", "focus_area": "5", "lat": "42.441110", "type": "PPLC", "awardID": "00080666", "lon": "19.263610", "precision": "1", "focus_area_descr": "Climate Change & Disaster Resilience"}, {"outputID": "00090284", "output_locID": "00090284-1", "name": "Istanbul", "focus_area": "5", "lat": "41.013840", "type": "PPLA", "awardID": "00080666", "lon": "28.949660", "precision": "1", "focus_area_descr": "Climate Change & Disaster Resilience"}, {"outputID": "00090285", "output_locID": "00090285-1", "name": "Istanbul", "focus_area": "5", "lat": "41.013840", "type": "PPLA", "awardID": "00080666", "lon": "28.949660", "precision": "1", "focus_area_descr": "Climate Change & Disaster Resilience"}, {"outputID": "00090286", "output_locID": "00090286-1", "name": "Istanbul", "focus_area": "5", "lat": "41.013840", "type": "PPLA", "awardID": "00080666", "lon": "28.949660", "precision": "1", "focus_area_descr": "Climate Change & Disaster Resilience"}], "operating_unit": null, "budget": 4763377.0, "iati_op_id": "998", "inst_descr": "United Nations Development Programme", "start": "2014-07-01", "operating_unit_id": null, "expenditure": 3710314.0, "document_name": [["ProDoc_Resilience_Building_and_Risk_Management_Signed", "Request for Procurement"], ["https://info.undp.org/docs/pdc/Documents/SVK/ProDoc_Resilience_Building_and_Risk_Management_Signed.pdf", "http://procurement-notices.undp.org/index.cfm"], ["pdf", ""], [0, 10]], "project_id": "00080666", "inst_type_id": "40", "operating_unit_website": null, "project_title": "resilience-building&riskmgt"}