{"project_descr": "Enhancing Climate Resilience of the Vulnerable Communities and Ecosystems in Somalia", "fiscal_year": [2016, 2017, 2018, 2015], "end": "2018-12-31", "region_id": "RBAS", "operating_unit_email": "registry.so@undp.org", "inst_id": "99999", "outputs": [{"output_id": "00092743", "crs": "51010", "donor_id": ["XM-DAC-41114", "41127", "00001", "10003"], "disbursement": [], "focus_area": "1", "gender_descr": "Gender Equality", "output_title": "Enhancing Climate Resilience o", "budget": [3885517.0, 2372500.0, 1802500.0, 2791702.0], "fiscal_year": [2016, 2017, 2018, 2015], "gender_id": "1", "expenditure": [1997988.0, 0.0, 0.0, 2010597.0], "award_id": "00084974", "output_descr": "Enhancing Climate Resilience of the Vulnerable Communities and Ecosystems in Somalia.", "donor_short": ["UNDESA", "GEFTrustee"], "donor_name": ["UN DEPT OF ECONOMIC AND SOCIAL AFFAIRS", "Global Environment Fund Truste", "UNOCHA (Formerly UNDRO)", "UNITED NATIONS DEVELOPMENT PROGRAMME"], "crs_descr": null, "focus_area_descr": "Inclusive & Sustainable Growth"}], "subnational": [{"outputID": "00092743", "output_locID": "00092743-1", "name": "Shiikh", "focus_area": "1", "lat": "9.930990", "type": "PPL", "awardID": "00084974", "lon": "45.192860", "precision": "1", "focus_area_descr": "Inclusive & Sustainable Growth"}, {"outputID": "00092743", "output_locID": "00092743-2", "name": "Qardho", "focus_area": "1", "lat": "9.505060", "type": "PPL", "awardID": "00084974", "lon": "49.084940", "precision": "1", "focus_area_descr": "Inclusive & Sustainable Growth"}, {"outputID": "00092743", "output_locID": "00092743-3", "name": "Oodweyne", "focus_area": "1", "lat": "9.409200", "type": "PPL", "awardID": "00084974", "lon": "45.063970", "precision": "1", "focus_area_descr": "Inclusive & Sustainable Growth"}, {"outputID": "00092743", "output_locID": "00092743-4", "name": "Guri Ceel", "focus_area": "1", "lat": "5.308950", "type": "PPL", "awardID": "00084974", "lon": "45.882960", "precision": "1", "focus_area_descr": "Inclusive & Sustainable Growth"}, {"outputID": "00092743", "output_locID": "00092743-5", "name": "Dilla", "focus_area": "1", "lat": "9.778330", "type": "PPL", "awardID": "00084974", "lon": "43.345560", "precision": "1", "focus_area_descr": "Inclusive & Sustainable Growth"}, {"outputID": "00092743", "output_locID": "00092743-6", "name": "Ceel Afweyn", "focus_area": "1", "lat": "9.929250", "type": "PPL", "awardID": "00084974", "lon": "47.217270", "precision": "1", "focus_area_descr": "Inclusive & Sustainable Growth"}, {"outputID": "00092743", "output_locID": "00092743-7", "name": "Cadaadley", "focus_area": "1", "lat": "9.766740", "type": "PPL", "awardID": "00084974", "lon": "44.693560", "precision": "1", "focus_area_descr": "Inclusive & Sustainable Growth"}, {"outputID": "00092743", "output_locID": "00092743-8", "name": "Burao", "focus_area": "1", "lat": "9.522130", "type": "PPLA", "awardID": "00084974", "lon": "45.533630", "precision": "1", "focus_area_descr": "Inclusive & Sustainable Growth"}, {"outputID": "00092743", "output_locID": "00092743-9", "name": "Buraokibir", "focus_area": "1", "lat": "8.704520", "type": "PPL", "awardID": "00084974", "lon": "45.475740", "precision": "1", "focus_area_descr": "Inclusive & Sustainable Growth"}, {"outputID": "00092743", "output_locID": "00092743-10", "name": "Bandarbeyla", "focus_area": "1", "lat": "9.494200", "type": "PPL", "awardID": "00084974", "lon": "50.812200", "precision": "1", "focus_area_descr": "Inclusive & Sustainable Growth"}, {"outputID": "00092743", "output_locID": "00092743-11", "name": "Balanbal", "focus_area": "1", "lat": "7.450000", "type": "PPL", "awardID": "00084974", "lon": "48.136100", "precision": "1", "focus_area_descr": "Inclusive & Sustainable Growth"}, {"outputID": "00092743", "output_locID": "00092743-12", "name": "Afgooye", "focus_area": "1", "lat": "2.138100", "type": "PPLA2", "awardID": "00084974", "lon": "45.121200", "precision": "1", "focus_area_descr": "Inclusive & Sustainable Growth"}, {"outputID": "00092743", "output_locID": "00092743-13", "name": "Jowhar District", "focus_area": "1", "lat": "2.993370", "type": "ADM2", "awardID": "00084974", "lon": "45.568080", "precision": "1", "focus_area_descr": "Inclusive & Sustainable Growth"}, {"outputID": "00092743", "output_locID": "00092743-14", "name": "Baligubadle", "focus_area": "1", "lat": "9.000000", "type": "PPLA2", "awardID": "00084974", "lon": "44.000280", "precision": "1", "focus_area_descr": "Inclusive & Sustainable Growth"}], "operating_unit": "Somalia", "budget": 10852219.0, "iati_op_id": "SO", "inst_descr": "UNDP", "start": "2015-01-01", "operating_unit_id": "SOM", "expenditure": 4008585.0, "document_name": [["PIMS 5268  LDCF  Somalia  ProDoc_rev1", "Signed AWP 2015  CCR Final 632015", "PREP  Quarterly Report CCR  Jan to Mar 2015", "SBA", "Enhancing Climate Resilience of Vulnerable Communities"], ["https://info.undp.org/docs/pdc/Documents/SOM/PIMS 5268 - LDCF - Somalia - ProDoc_rev1.docx", "https://info.undp.org/docs/pdc/Documents/SOM/Signed AWP 2015 - CCR Final 6-3-2015.pdf", "https://info.undp.org/docs/pdc/Documents/SOM/PREP - Quarterly Report CCR - Jan to Mar 2015.pdf", "http://www.so.undp.org/content/dam/somalia/docs/guide-undp-operations/SBA.pdf", "http://procurement-notices.undp.org/view_notice.cfm?notice_id=27658"], ["doc", "pdf", "pdf", "pdf", ""], [0, 3, 6, 7, 10]], "project_id": "00084974", "inst_type_id": "40", "operating_unit_website": null, "project_title": "enhancing climate resilience of vulnerable communities"}