{"project_descr": "Improving access of services and participation of persons with disabilities on the conceptual framework of UNCRPD and ICF", "fiscal_year": [2017, 2016, 2014, 2015], "end": "2017-12-31", "region_id": "RBEC", "operating_unit_email": "registry.am@undp.org", "inst_id": "00156", "outputs": [{"output_id": "00091438", "crs": "15160", "donor_id": ["11924", "00012"], "disbursement": [], "focus_area": "2", "gender_descr": "Gender Equality", "output_title": "Persons with Disabilities", "budget": [76120.0, 14644.0, 11070.0, 108687.0], "fiscal_year": [2016, 2017, 2014, 2015], "gender_id": "1", "expenditure": [84454.0, 6941.0, 9710.0, 66683.0], "award_id": "00082590", "output_descr": "Improving access of services and participation of persons with disabilities in line with the conceptual framework of UNCRPD and ICF - Armenia", "donor_short": ["UNDP", "UNDP(JPAA)"], "donor_name": ["Voluntary Contributions", "MPTF/JP_UN PART RIGHTS DISAB"], "crs_descr": null, "focus_area_descr": "Democratic Governance"}], "subnational": [{"outputID": "00091438", "output_locID": "00091438-1", "name": "Yeghegnadzor", "focus_area": "2", "lat": "39.763890", "type": "PPLA", "awardID": "00082590", "lon": "45.332390", "precision": "1", "focus_area_descr": "Democratic Governance"}, {"outputID": "00091438", "output_locID": "00091438-2", "name": "Vedi", "focus_area": "2", "lat": "39.913880", "type": "PPL", "awardID": "00082590", "lon": "44.725100", "precision": "1", "focus_area_descr": "Democratic Governance"}, {"outputID": "00091438", "output_locID": "00091438-3", "name": "Yerevan", "focus_area": "2", "lat": "40.181110", "type": "PPLC", "awardID": "00082590", "lon": "44.513610", "precision": "1", "focus_area_descr": "Democratic Governance"}, {"outputID": "00091438", "output_locID": "00091438-4", "name": "Vagharshapat", "focus_area": "2", "lat": "40.165570", "type": "PPL", "awardID": "00082590", "lon": "44.294620", "precision": "1", "focus_area_descr": "Democratic Governance"}, {"outputID": "00091438", "output_locID": "00091438-5", "name": "Spitak", "focus_area": "2", "lat": "40.832210", "type": "PPL", "awardID": "00082590", "lon": "44.267310", "precision": "1", "focus_area_descr": "Democratic Governance"}, {"outputID": "00091438", "output_locID": "00091438-6", "name": "Sevan", "focus_area": "2", "lat": "40.547300", "type": "PPL", "awardID": "00082590", "lon": "44.941710", "precision": "1", "focus_area_descr": "Democratic Governance"}, {"outputID": "00091438", "output_locID": "00091438-7", "name": "Margahovit", "focus_area": "2", "lat": "40.733810", "type": "PPL", "awardID": "00082590", "lon": "44.684740", "precision": "1", "focus_area_descr": "Democratic Governance"}, {"outputID": "00091438", "output_locID": "00091438-8", "name": "Lerrnapat", "focus_area": "2", "lat": "40.815380", "type": "PPL", "awardID": "00082590", "lon": "44.393440", "precision": "1", "focus_area_descr": "Democratic Governance"}, {"outputID": "00091438", "output_locID": "00091438-9", "name": "Armavir", "focus_area": "2", "lat": "40.154460", "type": "PPLA", "awardID": "00082590", "lon": "44.038150", "precision": "1", "focus_area_descr": "Democratic Governance"}, {"outputID": "00091438", "output_locID": "00091438-10", "name": "Gyumri", "focus_area": "2", "lat": "40.794200", "type": "PPLA", "awardID": "00082590", "lon": "43.845280", "precision": "1", "focus_area_descr": "Democratic Governance"}, {"outputID": "00091438", "output_locID": "00091438-11", "name": "Dilijan", "focus_area": "2", "lat": "40.741700", "type": "PPL", "awardID": "00082590", "lon": "44.850100", "precision": "1", "focus_area_descr": "Democratic Governance"}, {"outputID": "00091438", "output_locID": "00091438-12", "name": "Abovyan", "focus_area": "2", "lat": "40.273680", "type": "PPL", "awardID": "00082590", "lon": "44.633480", "precision": "1", "focus_area_descr": "Democratic Governance"}], "operating_unit": "Armenia", "budget": 210521.0, "iati_op_id": "AM", "inst_descr": "Ministry of Social Affairs", "start": "2014-09-01", "operating_unit_id": "ARM", "expenditure": 167788.0, "document_name": [["Disability project - Initial A", "Signature page - Disability project - Initial A", "CPAP_UNDPAM_2010-2015_eng", "Request for Procurement"], ["https://info.undp.org/docs/pdc/Documents/ARM/Armenia UNPRPD project document_updated_30_09_2014_FIN.doc", "https://info.undp.org/docs/pdc/Documents/ARM/Initial AWP PRPD Oct 2014.pdf", "http://www.am.undp.org/content/dam/armenia/docs/CPAP_UNDPAM_2010-2015_eng.pdf", "http://procurement-notices.undp.org/index.cfm"], ["doc", "pdf", "pdf", ""], [0, 0, 7, 10]], "project_id": "00082590", "inst_type_id": "", "operating_unit_website": null, "project_title": "persons with disabilities"}