{"project_descr": "The project has been developed to strengthen TB care and prevention, more engagement of all care providers, case detection and diagnosis of MDR-TB", "fiscal_year": [2018, 2016, 2017, 2015], "end": "2017-12-31", "region_id": "RBAP", "operating_unit_email": "registry.af@undp.org ", "inst_id": "99999", "outputs": [{"output_id": "00094759", "crs": "13040", "donor_id": ["00327", "00012"], "disbursement": [], "focus_area": "3", "gender_descr": "Gender Equality", "output_title": "TB Care and Prevention", "budget": [4115437.0, 6545163.0, 0.0, 3513131.0], "fiscal_year": [2016, 2017, 2018, 2015], "gender_id": "1", "expenditure": [3358091.0, 5290526.0, 408132.0, 1185502.0], "award_id": "00087877", "output_descr": "Procurement of LED microscopes, conducting screening for child TB suspects in hospitals", "donor_short": ["UNDP", "GFATM"], "donor_name": ["Voluntary Contributions", "GLOBAL FUND TO FIGHT AIDS, TUBERCULOSIS"], "crs_descr": null, "focus_area_descr": "Responsive Institutions"}], "subnational": [{"outputID": "00094759", "output_locID": "00094759-1", "name": "Wardak", "focus_area": "3", "lat": "34.250000", "type": "ADM1", "awardID": "00087877", "lon": "68.000000", "precision": "1", "focus_area_descr": "Responsive Institutions"}, {"outputID": "00094759", "output_locID": "00094759-2", "name": "Sar-e Pul", "focus_area": "3", "lat": "35.833330", "type": "ADM1", "awardID": "00087877", "lon": "66.166670", "precision": "1", "focus_area_descr": "Responsive Institutions"}, {"outputID": "00094759", "output_locID": "00094759-3", "name": "Parwan", "focus_area": "3", "lat": "35.000000", "type": "ADM1", "awardID": "00087877", "lon": "68.916670", "precision": "1", "focus_area_descr": "Responsive Institutions"}, {"outputID": "00094759", "output_locID": "00094759-4", "name": "Paktia", "focus_area": "3", "lat": "33.666670", "type": "ADM1", "awardID": "00087877", "lon": "69.333330", "precision": "1", "focus_area_descr": "Responsive Institutions"}, {"outputID": "00094759", "output_locID": "00094759-5", "name": "Nangarhar", "focus_area": "3", "lat": "34.333330", "type": "ADM1", "awardID": "00087877", "lon": "70.416670", "precision": "1", "focus_area_descr": "Responsive Institutions"}, {"outputID": "00094759", "output_locID": "00094759-6", "name": "Mehtar Lam", "focus_area": "3", "lat": "34.671390", "type": "PPLA", "awardID": "00087877", "lon": "70.209440", "precision": "1", "focus_area_descr": "Responsive Institutions"}, {"outputID": "00094759", "output_locID": "00094759-7", "name": "Logar", "focus_area": "3", "lat": "34.000000", "type": "ADM1", "awardID": "00087877", "lon": "69.250000", "precision": "1", "focus_area_descr": "Responsive Institutions"}, {"outputID": "00094759", "output_locID": "00094759-8", "name": "Kunduz", "focus_area": "3", "lat": "36.750000", "type": "ADM1", "awardID": "00087877", "lon": "68.750000", "precision": "1", "focus_area_descr": "Responsive Institutions"}, {"outputID": "00094759", "output_locID": "00094759-9", "name": "Kapisa", "focus_area": "3", "lat": "35.000000", "type": "ADM1", "awardID": "00087877", "lon": "69.583330", "precision": "1", "focus_area_descr": "Responsive Institutions"}, {"outputID": "00094759", "output_locID": "00094759-10", "name": "Kandahar", "focus_area": "3", "lat": "31.000000", "type": "ADM1", "awardID": "00087877", "lon": "65.750000", "precision": "1", "focus_area_descr": "Responsive Institutions"}, {"outputID": "00094759", "output_locID": "00094759-11", "name": "Kabul", "focus_area": "3", "lat": "34.528130", "type": "PPLC", "awardID": "00087877", "lon": "69.172330", "precision": "1", "focus_area_descr": "Responsive Institutions"}, {"outputID": "00094759", "output_locID": "00094759-12", "name": "Herat", "focus_area": "3", "lat": "34.500000", "type": "ADM1", "awardID": "00087877", "lon": "62.000000", "precision": "1", "focus_area_descr": "Responsive Institutions"}, {"outputID": "00094759", "output_locID": "00094759-13", "name": "Helmand", "focus_area": "3", "lat": "31.000000", "type": "ADM1", "awardID": "00087877", "lon": "64.000000", "precision": "1", "focus_area_descr": "Responsive Institutions"}, {"outputID": "00094759", "output_locID": "00094759-14", "name": "Ghowr", "focus_area": "3", "lat": "34.000000", "type": "ADM1", "awardID": "00087877", "lon": "65.000000", "precision": "1", "focus_area_descr": "Responsive Institutions"}, {"outputID": "00094759", "output_locID": "00094759-15", "name": "Ghazni", "focus_area": "3", "lat": "33.333330", "type": "ADM1", "awardID": "00087877", "lon": "67.750000", "precision": "1", "focus_area_descr": "Responsive Institutions"}, {"outputID": "00094759", "output_locID": "00094759-16", "name": "Bamyan", "focus_area": "3", "lat": "34.750000", "type": "ADM1", "awardID": "00087877", "lon": "67.250000", "precision": "1", "focus_area_descr": "Responsive Institutions"}, {"outputID": "00094759", "output_locID": "00094759-17", "name": "Balkh", "focus_area": "3", "lat": "36.750000", "type": "ADM1", "awardID": "00087877", "lon": "67.000000", "precision": "1", "focus_area_descr": "Responsive Institutions"}, {"outputID": "00094759", "output_locID": "00094759-18", "name": "Panjshir", "focus_area": "3", "lat": "35.402480", "type": "ADM1", "awardID": "00087877", "lon": "69.982910", "precision": "1", "focus_area_descr": "Responsive Institutions"}], "operating_unit": "Afghanistan", "budget": 14173731.0, "iati_op_id": "AF", "inst_descr": null, "start": "2015-04-01", "operating_unit_id": "AFG", "expenditure": 10242251.0, "document_name": [["ProDoc GF TB", "ProDoc TB Signed", "Supporting treatment and control of Tuberculosis in AFG", "Supporting treatment and control of Tuberculosis in AFG", "Supporting treatment and control of Tuberculosis in AFG", "Supporting treatment and control of Tuberculosis in AFG", "Supporting treatment and control of Tuberculosis in AFG", "Supporting treatment and control of Tuberculosis in AFG", "Supporting treatment and control of Tuberculosis in AFG", "Supporting treatment and control of Tuberculosis in AFG", "Supporting treatment and control of Tuberculosis in AFG", "Supporting treatment and control of Tuberculosis in AFG", "Supporting treatment and control of Tuberculosis in AFG", "Supporting treatment and control of Tuberculosis in AFG", "Supporting treatment and control of Tuberculosis in AFG", "Supporting treatment and control of Tuberculosis in AFG"], ["https://info.undp.org/docs/pdc/Documents/AFG/ProDoc GF TB.pdf", "https://info.undp.org/docs/pdc/Documents/AFG/ProDoc TB Signed.pdf", "http://procurement-notices.undp.org/view_notice.cfm?notice_id=28368", "http://procurement-notices.undp.org/view_notice.cfm?notice_id=28438", "http://procurement-notices.undp.org/view_notice.cfm?notice_id=30043", "http://procurement-notices.undp.org/view_notice.cfm?notice_id=30497", "http://procurement-notices.undp.org/view_notice.cfm?notice_id=34415", "http://procurement-notices.undp.org/view_notice.cfm?notice_id=34512", "http://procurement-notices.undp.org/view_notice.cfm?notice_id=35786", "http://procurement-notices.undp.org/view_notice.cfm?notice_id=36793", "http://procurement-notices.undp.org/view_notice.cfm?notice_id=37409", "http://procurement-notices.undp.org/view_notice.cfm?notice_id=38346", "http://procurement-notices.undp.org/view_notice.cfm?notice_id=38347", "http://procurement-notices.undp.org/view_notice.cfm?notice_id=42565", "http://procurement-notices.undp.org/view_notice.cfm?notice_id=43106", "http://procurement-notices.undp.org/view_notice.cfm?notice_id=43131"], ["pdf", "pdf", "", "", "", "", "", "", "", "", "", "", "", "", "", ""], [0, 0, 10, 10, 10, 10, 10, 10, 10, 10, 10, 10, 10, 10, 10, 10]], "project_id": "00087877", "inst_type_id": "40", "operating_unit_website": null, "project_title": "supporting treatment and control of tuberculosis in afg"}