{"project_descr": "Increasing women's household income in target communities", "fiscal_year": [2017, 2016, 2015], "end": "2018-12-01", "region_id": "RBAP", "operating_unit_email": "info.in@undp.org", "inst_id": "XM-DAC-41114", "outputs": [{"output_id": "00090113", "crs": "15110", "donor_id": ["11308", "00012"], "disbursement": [], "focus_area": "1", "gender_descr": "Gender Equality", "output_title": "Increasing women's income", "budget": [4494380.0, 2000000.0, 1145678.0], "fiscal_year": [2016, 2017, 2015], "gender_id": "1", "expenditure": [3089167.0, 272392.0, 773435.0], "award_id": "00080436", "output_descr": "Increasing women's household income in target communities", "donor_short": ["UNDP", "IKEASI"], "donor_name": ["Voluntary Contributions", "IKEA Social Initiative"], "crs_descr": null, "focus_area_descr": "Inclusive & Sustainable Growth"}], "subnational": [{"outputID": "00090113", "output_locID": "00090113-1", "name": "Warangal", "focus_area": "1", "lat": "18.000000", "type": "ADM2", "awardID": "00080436", "lon": "79.833330", "precision": "1", "focus_area_descr": "Inclusive & Sustainable Growth"}, {"outputID": "00090113", "output_locID": "00090113-2", "name": "Telangana", "focus_area": "1", "lat": "17.833330", "type": "ADM1", "awardID": "00080436", "lon": "79.083330", "precision": "1", "focus_area_descr": "Inclusive & Sustainable Growth"}, {"outputID": "00090113", "output_locID": "00090113-3", "name": "Sonipat", "focus_area": "1", "lat": "29.000000", "type": "ADM2", "awardID": "00080436", "lon": "76.916670", "precision": "1", "focus_area_descr": "Inclusive & Sustainable Growth"}, {"outputID": "00090113", "output_locID": "00090113-4", "name": "Rohtak", "focus_area": "1", "lat": "28.833330", "type": "ADM2", "awardID": "00080436", "lon": "76.666670", "precision": "1", "focus_area_descr": "Inclusive & Sustainable Growth"}, {"outputID": "00090113", "output_locID": "00090113-5", "name": "Pune District", "focus_area": "1", "lat": "18.750000", "type": "ADM3", "awardID": "00080436", "lon": "73.750000", "precision": "1", "focus_area_descr": "Inclusive & Sustainable Growth"}, {"outputID": "00090113", "output_locID": "00090113-6", "name": "Palghar", "focus_area": "1", "lat": "19.696930", "type": "PPL", "awardID": "00080436", "lon": "72.765430", "precision": "1", "focus_area_descr": "Inclusive & Sustainable Growth"}, {"outputID": "00090113", "output_locID": "00090113-7", "name": "Nagpur", "focus_area": "1", "lat": "21.000000", "type": "ADM3", "awardID": "00080436", "lon": "79.000000", "precision": "1", "focus_area_descr": "Inclusive & Sustainable Growth"}, {"outputID": "00090113", "output_locID": "00090113-8", "name": "Medak", "focus_area": "1", "lat": "17.750000", "type": "ADM2", "awardID": "00080436", "lon": "78.250000", "precision": "1", "focus_area_descr": "Inclusive & Sustainable Growth"}, {"outputID": "00090113", "output_locID": "00090113-9", "name": "Mahbubnagar", "focus_area": "1", "lat": "16.500000", "type": "ADM2", "awardID": "00080436", "lon": "78.250000", "precision": "1", "focus_area_descr": "Inclusive & Sustainable Growth"}, {"outputID": "00090113", "output_locID": "00090113-10", "name": "Maharashtra", "focus_area": "1", "lat": "19.500000", "type": "ADM1", "awardID": "00080436", "lon": "76.000000", "precision": "1", "focus_area_descr": "Inclusive & Sustainable Growth"}, {"outputID": "00090113", "output_locID": "00090113-11", "name": "Karnataka", "focus_area": "1", "lat": "14.666670", "type": "ADM1", "awardID": "00080436", "lon": "75.833330", "precision": "1", "focus_area_descr": "Inclusive & Sustainable Growth"}, {"outputID": "00090113", "output_locID": "00090113-12", "name": "Hyderabad", "focus_area": "1", "lat": "17.401640", "type": "ADM2", "awardID": "00080436", "lon": "78.489760", "precision": "1", "focus_area_descr": "Inclusive & Sustainable Growth"}, {"outputID": "00090113", "output_locID": "00090113-13", "name": "Haryana", "focus_area": "1", "lat": "29.250000", "type": "ADM1", "awardID": "00080436", "lon": "76.333330", "precision": "1", "focus_area_descr": "Inclusive & Sustainable Growth"}, {"outputID": "00090113", "output_locID": "00090113-14", "name": "Gurgaon", "focus_area": "1", "lat": "28.438910", "type": "ADM2", "awardID": "00080436", "lon": "77.005920", "precision": "1", "focus_area_descr": "Inclusive & Sustainable Growth"}, {"outputID": "00090113", "output_locID": "00090113-15", "name": "NCT", "focus_area": "1", "lat": "28.666700", "type": "ADM1", "awardID": "00080436", "lon": "77.100000", "precision": "1", "focus_area_descr": "Inclusive & Sustainable Growth"}, {"outputID": "00090113", "output_locID": "00090113-16", "name": "Bengaluru", "focus_area": "1", "lat": "12.971940", "type": "PPLA", "awardID": "00080436", "lon": "77.593690", "precision": "1", "focus_area_descr": "Inclusive & Sustainable Growth"}, {"outputID": "00090113", "output_locID": "00090113-17", "name": "Amravati", "focus_area": "1", "lat": "21.133330", "type": "ADM3", "awardID": "00080436", "lon": "77.666670", "precision": "1", "focus_area_descr": "Inclusive & Sustainable Growth"}, {"outputID": "00090113", "output_locID": "00090113-18", "name": "Adilabad District", "focus_area": "1", "lat": "19.500000", "type": "ADM2", "awardID": "00080436", "lon": "78.500000", "precision": "1", "focus_area_descr": "Inclusive & Sustainable Growth"}, {"outputID": "00090113", "output_locID": "00090113-19", "name": "Mumbai", "focus_area": "1", "lat": "18.959630", "type": "ADM2", "awardID": "00080436", "lon": "72.849620", "precision": "1", "focus_area_descr": "Inclusive & Sustainable Growth"}, {"outputID": "00090113", "output_locID": "00090113-20", "name": "Panipat", "focus_area": "1", "lat": "29.332590", "type": "ADM2", "awardID": "00080436", "lon": "76.926340", "precision": "1", "focus_area_descr": "Inclusive & Sustainable Growth"}, {"outputID": "00090113", "output_locID": "00090113-21", "name": "Mewat", "focus_area": "1", "lat": "27.981660", "type": "ADM2", "awardID": "00080436", "lon": "77.046560", "precision": "1", "focus_area_descr": "Inclusive & Sustainable Growth"}], "operating_unit": "India", "budget": 7640058.0, "iati_op_id": "IN", "inst_descr": "United Nations Development Programme", "start": "2014-10-01", "operating_unit_id": "IND", "expenditure": 4134994.0, "document_name": [["Project Document - IND - 80436-90113", "Livelihoods for Women", "Livelihoods for Women", "AWP-2016-00090113", "AWP 2016", "undp_country_programme_for_india_2013-2017", "00080436-RFP-UNDP-INDIA-2016-031-00090113", "Increasing women's income", "Increasing women's income", "Increasing women's income", "Increasing women's income", "Increasing women's income", "Increasing women's income", "Increasing women's income", "Increasing women's income", "Increasing women's income", "Increasing women's income"], ["https://info.undp.org/docs/pdc/Documents/IND/00080436-ProDoc-cum-AWP2015-90113.pdf", "https://info.undp.org/docs/pdc/Documents/IND/00080436-Photo1-00090113-Livelihoods for Women.jpg", "https://info.undp.org/docs/pdc/Documents/IND/00080436-Photo2-00090113-Livelihoods for Women.jpg", "https://info.undp.org/docs/pdc/Documents/IND/00080436-AWP-2016-00090113.pdf", "https://info.undp.org/docs/pdc/Documents/IND/00080436-AWP 2016-00090113.pdf", "http://www.in.undp.org/content/dam/india/docs/undp_country_programme_for_india_2013-2017.pdf", "https://info.undp.org/docs/pdc/Documents/IND/00080436-RFP-UNDP-INDIA-2016-031-00090113.pdf", "http://procurement-notices.undp.org/view_notice.cfm?notice_id=27884", "http://procurement-notices.undp.org/view_notice.cfm?notice_id=27885", "http://procurement-notices.undp.org/view_notice.cfm?notice_id=29034", "http://procurement-notices.undp.org/view_notice.cfm?notice_id=31363", "http://procurement-notices.undp.org/view_notice.cfm?notice_id=31789", "http://procurement-notices.undp.org/view_notice.cfm?notice_id=31790", "http://procurement-notices.undp.org/view_notice.cfm?notice_id=31793", "http://procurement-notices.undp.org/view_notice.cfm?notice_id=31794", "http://procurement-notices.undp.org/view_notice.cfm?notice_id=25768", "http://procurement-notices.undp.org/view_notice.cfm?notice_id=25769"], ["pdf", "", "", "pdf", "pdf", "pdf", "pdf", "", "", "", "", "", "", "", "", "", ""], [0, 1, 1, 3, 3, 7, 10, 10, 10, 10, 10, 10, 10, 10, 10, 10, 10]], "project_id": "00080436", "inst_type_id": "10", "operating_unit_website": null, "project_title": "increasing women's income"}