{"project_descr": "Creating employment and entrepreneurship opportunities for underprivileged women through skilling, market linkage and entrepreneurial development leading to job creation and improved quality of life.", "fiscal_year": [2018, 2016, 2017, 2015], "end": "2018-12-01", "region_id": "RBAP", "operating_unit_email": "info.in@undp.org", "inst_id": "03836", "outputs": [{"output_id": "00090113", "crs": "15110", "donor_id": ["11308", "00030", "00012", "12753", "12877"], "disbursement": [], "focus_area": "1", "gender_descr": "Gender Equality", "output_title": "Increasing women's income", "budget": [4494380.0, 4942747.0, 3611494.0, 1145678.0], "fiscal_year": [2016, 2017, 2018, 2015], "gender_id": "1", "expenditure": [3089167.0, 3956911.0, -105150.0, 773435.0], "award_id": "00080436", "output_descr": "Increasing women's household income in target communities through support livelihood options", "donor_short": ["UNDP", "NGO(NATL)", "IKEASI"], "donor_name": ["Voluntary Contributions", "NON-GOVERNMENTAL ORGANIZATION", "IKEA Social Initiative", "Govt. of Chhattisgarh - IND", "IND-L&T PublicCharitable Trust"], "crs_descr": null, "focus_area_descr": "Inclusive & Sustainable Growth"}], "subnational": [{"outputID": "00090113", "output_locID": "00090113-1", "name": "Warangal", "focus_area": "1", "lat": "18.000000", "type": "ADM2", "awardID": "00080436", "lon": "79.833330", "precision": "1", "focus_area_descr": "Inclusive & Sustainable Growth"}, {"outputID": "00090113", "output_locID": "00090113-2", "name": "Telangana", "focus_area": "1", "lat": "17.833330", "type": "ADM1", "awardID": "00080436", "lon": "79.083330", "precision": "1", "focus_area_descr": "Inclusive & Sustainable Growth"}, {"outputID": "00090113", "output_locID": "00090113-3", "name": "Sonipat", "focus_area": "1", "lat": "29.000000", "type": "ADM2", "awardID": "00080436", "lon": "76.916670", "precision": "1", "focus_area_descr": "Inclusive & Sustainable Growth"}, {"outputID": "00090113", "output_locID": "00090113-4", "name": "Rohtak", "focus_area": "1", "lat": "28.833330", "type": "ADM2", "awardID": "00080436", "lon": "76.666670", "precision": "1", "focus_area_descr": "Inclusive & Sustainable Growth"}, {"outputID": "00090113", "output_locID": "00090113-5", "name": "Pune District", "focus_area": "1", "lat": "18.750000", "type": "ADM3", "awardID": "00080436", "lon": "73.750000", "precision": "1", "focus_area_descr": "Inclusive & Sustainable Growth"}, {"outputID": "00090113", "output_locID": "00090113-6", "name": "Palghar", "focus_area": "1", "lat": "19.696930", "type": "PPL", "awardID": "00080436", "lon": "72.765430", "precision": "1", "focus_area_descr": "Inclusive & Sustainable Growth"}, {"outputID": "00090113", "output_locID": "00090113-7", "name": "Nagpur", "focus_area": "1", "lat": "21.000000", "type": "ADM3", "awardID": "00080436", "lon": "79.000000", "precision": "1", "focus_area_descr": "Inclusive & Sustainable Growth"}, {"outputID": "00090113", "output_locID": "00090113-8", "name": "Medak", "focus_area": "1", "lat": "17.750000", "type": "ADM2", "awardID": "00080436", "lon": "78.250000", "precision": "1", "focus_area_descr": "Inclusive & Sustainable Growth"}, {"outputID": "00090113", "output_locID": "00090113-9", "name": "Mahbubnagar", "focus_area": "1", "lat": "16.500000", "type": "ADM2", "awardID": "00080436", "lon": "78.250000", "precision": "1", "focus_area_descr": "Inclusive & Sustainable Growth"}, {"outputID": "00090113", "output_locID": "00090113-10", "name": "Maharashtra", "focus_area": "1", "lat": "19.500000", "type": "ADM1", "awardID": "00080436", "lon": "76.000000", "precision": "1", "focus_area_descr": "Inclusive & Sustainable Growth"}, {"outputID": "00090113", "output_locID": "00090113-11", "name": "Mysore", "focus_area": "1", "lat": "14.666670", "type": "ADM1", "awardID": "00080436", "lon": "75.833330", "precision": "1", "focus_area_descr": "Inclusive & Sustainable Growth"}, {"outputID": "00090113", "output_locID": "00090113-12", "name": "Hyderabad", "focus_area": "1", "lat": "17.401640", "type": "ADM2", "awardID": "00080436", "lon": "78.489760", "precision": "1", "focus_area_descr": "Inclusive & Sustainable Growth"}, {"outputID": "00090113", "output_locID": "00090113-13", "name": "Haryana", "focus_area": "1", "lat": "29.250000", "type": "ADM1", "awardID": "00080436", "lon": "76.333330", "precision": "1", "focus_area_descr": "Inclusive & Sustainable Growth"}, {"outputID": "00090113", "output_locID": "00090113-14", "name": "Gurgaon", "focus_area": "1", "lat": "28.438910", "type": "ADM2", "awardID": "00080436", "lon": "77.005920", "precision": "1", "focus_area_descr": "Inclusive & Sustainable Growth"}, {"outputID": "00090113", "output_locID": "00090113-15", "name": "NCT", "focus_area": "1", "lat": "28.666700", "type": "ADM1", "awardID": "00080436", "lon": "77.100000", "precision": "1", "focus_area_descr": "Inclusive & Sustainable Growth"}, {"outputID": "00090113", "output_locID": "00090113-16", "name": "Bengaluru", "focus_area": "1", "lat": "12.971940", "type": "PPLA", "awardID": "00080436", "lon": "77.593690", "precision": "1", "focus_area_descr": "Inclusive & Sustainable Growth"}, {"outputID": "00090113", "output_locID": "00090113-17", "name": "Amravati", "focus_area": "1", "lat": "21.133330", "type": "ADM3", "awardID": "00080436", "lon": "77.666670", "precision": "1", "focus_area_descr": "Inclusive & Sustainable Growth"}, {"outputID": "00090113", "output_locID": "00090113-18", "name": "Adilabad District", "focus_area": "1", "lat": "19.500000", "type": "ADM2", "awardID": "00080436", "lon": "78.500000", "precision": "1", "focus_area_descr": "Inclusive & Sustainable Growth"}, {"outputID": "00090113", "output_locID": "00090113-19", "name": "Mumbai", "focus_area": "1", "lat": "18.959630", "type": "ADM2", "awardID": "00080436", "lon": "72.849620", "precision": "1", "focus_area_descr": "Inclusive & Sustainable Growth"}, {"outputID": "00090113", "output_locID": "00090113-20", "name": "Panipat", "focus_area": "1", "lat": "29.332590", "type": "ADM2", "awardID": "00080436", "lon": "76.926340", "precision": "1", "focus_area_descr": "Inclusive & Sustainable Growth"}, {"outputID": "00090113", "output_locID": "00090113-21", "name": "Mewat", "focus_area": "1", "lat": "27.981660", "type": "ADM2", "awardID": "00080436", "lon": "77.046560", "precision": "1", "focus_area_descr": "Inclusive & Sustainable Growth"}], "operating_unit": "India", "budget": 14194299.0, "iati_op_id": "IN", "inst_descr": null, "start": "2014-10-01", "operating_unit_id": "IND", "expenditure": 7714363.0, "document_name": [["Project Document - IND - 80436-90113", "Livelihoods for Women", "Livelihoods for Women", "00080436-AWP 2017-00090113", "AWP 2016", "AWP-2016-00090113", "00080436-RFP-UNDP-INDIA-2016-031-00090113", "Increasing women's income", "Increasing women's income", "Increasing women's income", "Increasing women's income", "Increasing women's income", "Increasing women's income", "Increasing women's income", "Increasing women's income", "Increasing women's income", "Increasing women's income", "Increasing women's income", "Increasing women's income", "Increasing women's income", "00080436-LPAC mtg Mins and SES Assessment summary-00090113-Feb2015"], ["https://info.undp.org/docs/pdc/Documents/IND/00080436-ProDoc-cum-AWP2015-90113.pdf", "https://info.undp.org/docs/pdc/Documents/IND/00080436-Photo1-00090113-Livelihoods for Women.jpg", "https://info.undp.org/docs/pdc/Documents/IND/00080436-Photo2-00090113-Livelihoods for Women.jpg", "https://info.undp.org/docs/pdc/Documents/IND/00080436-AWP 2017-00090113.pdf", "https://info.undp.org/docs/pdc/Documents/IND/00080436-AWP 2016-00090113.pdf", "https://info.undp.org/docs/pdc/Documents/IND/00080436-AWP-2016-00090113.pdf", "https://info.undp.org/docs/pdc/Documents/IND/00080436-RFP-UNDP-INDIA-2016-031-00090113.pdf", "http://procurement-notices.undp.org/view_notice.cfm?notice_id=25768", "http://procurement-notices.undp.org/view_notice.cfm?notice_id=25769", "http://procurement-notices.undp.org/view_notice.cfm?notice_id=27884", "http://procurement-notices.undp.org/view_notice.cfm?notice_id=27885", "http://procurement-notices.undp.org/view_notice.cfm?notice_id=29034", "http://procurement-notices.undp.org/view_notice.cfm?notice_id=31363", "http://procurement-notices.undp.org/view_notice.cfm?notice_id=31789", "http://procurement-notices.undp.org/view_notice.cfm?notice_id=31790", "http://procurement-notices.undp.org/view_notice.cfm?notice_id=31793", "http://procurement-notices.undp.org/view_notice.cfm?notice_id=31794", "http://procurement-notices.undp.org/view_notice.cfm?notice_id=40204", "http://procurement-notices.undp.org/view_notice.cfm?notice_id=41533", "http://procurement-notices.undp.org/view_notice.cfm?notice_id=42202", "https://info.undp.org/docs/pdc/Documents/IND/00080436-LPAC mtg Mins and SES Assessment summary-00090113-Feb2015.pdf"], ["pdf", "", "", "pdf", "pdf", "pdf", "pdf", "", "", "", "", "", "", "", "", "", "", "", "", "", "pdf"], [0, 1, 1, 3, 3, 3, 10, 10, 10, 10, 10, 10, 10, 10, 10, 10, 10, 10, 10, 10, 4]], "project_id": "00080436", "inst_type_id": "40", "operating_unit_website": null, "project_title": "increasing women's income"}