{"project_descr": "Strengthening National Service Scheme and Nehru Yuva Kendra Sangathan", "fiscal_year": [2016, 2017, 2014, 2015], "end": "2017-12-31", "region_id": "RBAP", "operating_unit_email": "info.in@undp.org", "inst_id": "03835", "outputs": [{"output_id": "00090216", "crs": "15110", "donor_id": ["XM-DAC-41114", "12308"], "disbursement": [], "focus_area": "1", "gender_descr": "Gender Equality", "output_title": "National Service Scheme", "budget": [611800.0, 801823.0, 70000.0, 129045.0], "fiscal_year": [2016, 2017, 2014, 2015], "gender_id": "1", "expenditure": [276561.0, 0.0, 58946.0, 123045.0], "award_id": "00080554", "output_descr": "Strengthening National Service Scheme and Nehru Yuva Kendra Sangathan", "donor_short": ["MIN-MOYAS"], "donor_name": ["India, MOYAS", "UNITED NATIONS VOLUNTEERS"], "crs_descr": null, "focus_area_descr": "Inclusive & Sustainable Growth"}], "subnational": [{"outputID": "00090216", "output_locID": "00090216-1", "name": "Uttarkashi", "focus_area": "1", "lat": "31.000000", "type": "ADM2", "awardID": "00080554", "lon": "78.500000", "precision": "1", "focus_area_descr": "Inclusive & Sustainable Growth"}, {"outputID": "00090216", "output_locID": "00090216-2", "name": "Udaipur", "focus_area": "1", "lat": "23.533330", "type": "PPL", "awardID": "00080554", "lon": "91.483330", "precision": "1", "focus_area_descr": "Inclusive & Sustainable Growth"}, {"outputID": "00090216", "output_locID": "00090216-3", "name": "Tikamgarh", "focus_area": "1", "lat": "24.750000", "type": "ADM2", "awardID": "00080554", "lon": "79.000000", "precision": "1", "focus_area_descr": "Inclusive & Sustainable Growth"}, {"outputID": "00090216", "output_locID": "00090216-4", "name": "Thane District", "focus_area": "1", "lat": "19.333330", "type": "ADM2", "awardID": "00080554", "lon": "73.250000", "precision": "1", "focus_area_descr": "Inclusive & Sustainable Growth"}, {"outputID": "00090216", "output_locID": "00090216-5", "name": "Surguja district", "focus_area": "1", "lat": "23.250000", "type": "ADM2", "awardID": "00080554", "lon": "83.000000", "precision": "1", "focus_area_descr": "Inclusive & Sustainable Growth"}, {"outputID": "00090216", "output_locID": "00090216-6", "name": "Sitamarhi", "focus_area": "1", "lat": "26.666670", "type": "ADM2", "awardID": "00080554", "lon": "85.500000", "precision": "1", "focus_area_descr": "Inclusive & Sustainable Growth"}, {"outputID": "00090216", "output_locID": "00090216-7", "name": "Sikar", "focus_area": "1", "lat": "27.583330", "type": "ADM2", "awardID": "00080554", "lon": "75.166670", "precision": "1", "focus_area_descr": "Inclusive & Sustainable Growth"}, {"outputID": "00090216", "output_locID": "00090216-8", "name": "Rajkot", "focus_area": "1", "lat": "22.333330", "type": "ADM2", "awardID": "00080554", "lon": "70.833330", "precision": "1", "focus_area_descr": "Inclusive & Sustainable Growth"}, {"outputID": "00090216", "output_locID": "00090216-9", "name": "Rajouri", "focus_area": "1", "lat": "33.250000", "type": "ADM2", "awardID": "00080554", "lon": "74.250000", "precision": "1", "focus_area_descr": "Inclusive & Sustainable Growth"}, {"outputID": "00090216", "output_locID": "00090216-10", "name": "Patiala", "focus_area": "1", "lat": "30.336240", "type": "PPL", "awardID": "00080554", "lon": "76.392200", "precision": "1", "focus_area_descr": "Inclusive & Sustainable Growth"}, {"outputID": "00090216", "output_locID": "00090216-11", "name": "New Delhi", "focus_area": "1", "lat": "28.635760", "type": "PPLC", "awardID": "00080554", "lon": "77.224450", "precision": "1", "focus_area_descr": "Inclusive & Sustainable Growth"}, {"outputID": "00090216", "output_locID": "00090216-12", "name": "Namchi", "focus_area": "1", "lat": "27.164940", "type": "PPL", "awardID": "00080554", "lon": "88.363800", "precision": "1", "focus_area_descr": "Inclusive & Sustainable Growth"}, {"outputID": "00090216", "output_locID": "00090216-13", "name": "Nahan", "focus_area": "1", "lat": "30.560280", "type": "PPL", "awardID": "00080554", "lon": "77.294260", "precision": "1", "focus_area_descr": "Inclusive & Sustainable Growth"}, {"outputID": "00090216", "output_locID": "00090216-14", "name": "Meerut", "focus_area": "1", "lat": "28.916670", "type": "ADM2", "awardID": "00080554", "lon": "77.683330", "precision": "1", "focus_area_descr": "Inclusive & Sustainable Growth"}, {"outputID": "00090216", "output_locID": "00090216-15", "name": "Mangalore", "focus_area": "1", "lat": "12.917230", "type": "PPL", "awardID": "00080554", "lon": "74.856030", "precision": "1", "focus_area_descr": "Inclusive & Sustainable Growth"}, {"outputID": "00090216", "output_locID": "00090216-16", "name": "Mahendragarh", "focus_area": "1", "lat": "28.250000", "type": "ADM2", "awardID": "00080554", "lon": "76.166670", "precision": "1", "focus_area_descr": "Inclusive & Sustainable Growth"}, {"outputID": "00090216", "output_locID": "00090216-17", "name": "Khammam district", "focus_area": "1", "lat": "17.500000", "type": "ADM2", "awardID": "00080554", "lon": "80.333330", "precision": "1", "focus_area_descr": "Inclusive & Sustainable Growth"}, {"outputID": "00090216", "output_locID": "00090216-18", "name": "Kanniyakumari", "focus_area": "1", "lat": "8.090080", "type": "PPL", "awardID": "00080554", "lon": "77.538410", "precision": "1", "focus_area_descr": "Inclusive & Sustainable Growth"}, {"outputID": "00090216", "output_locID": "00090216-19", "name": "Ernakulam", "focus_area": "1", "lat": "10.000000", "type": "ADM2", "awardID": "00080554", "lon": "76.500000", "precision": "1", "focus_area_descr": "Inclusive & Sustainable Growth"}, {"outputID": "00090216", "output_locID": "00090216-20", "name": "Kolkata", "focus_area": "1", "lat": "22.547330", "type": "ADM2", "awardID": "00080554", "lon": "88.373680", "precision": "1", "focus_area_descr": "Inclusive & Sustainable Growth"}, {"outputID": "00090216", "output_locID": "00090216-21", "name": "Anantapur District", "focus_area": "1", "lat": "14.550000", "type": "ADM2", "awardID": "00080554", "lon": "77.416670", "precision": "1", "focus_area_descr": "Inclusive & Sustainable Growth"}, {"outputID": "00090216", "output_locID": "00090216-22", "name": "Lunglei district", "focus_area": "1", "lat": "22.900000", "type": "ADM2", "awardID": "00080554", "lon": "92.750000", "precision": "1", "focus_area_descr": "Inclusive & Sustainable Growth"}, {"outputID": "00090216", "output_locID": "00090216-23", "name": "Nalbari", "focus_area": "1", "lat": "26.500000", "type": "ADM2", "awardID": "00080554", "lon": "91.400000", "precision": "1", "focus_area_descr": "Inclusive & Sustainable Growth"}, {"outputID": "00090216", "output_locID": "00090216-24", "name": "Gumla", "focus_area": "1", "lat": "23.080550", "type": "ADM2", "awardID": "00080554", "lon": "84.538340", "precision": "1", "focus_area_descr": "Inclusive & Sustainable Growth"}, {"outputID": "00090216", "output_locID": "00090216-25", "name": "Rh-Bhoi District", "focus_area": "1", "lat": "25.889970", "type": "ADM2", "awardID": "00080554", "lon": "91.827070", "precision": "1", "focus_area_descr": "Inclusive & Sustainable Growth"}, {"outputID": "00090216", "output_locID": "00090216-26", "name": "Tamenglong", "focus_area": "1", "lat": "24.975480", "type": "ADM2", "awardID": "00080554", "lon": "93.515630", "precision": "1", "focus_area_descr": "Inclusive & Sustainable Growth"}, {"outputID": "00090216", "output_locID": "00090216-27", "name": "Nuapada", "focus_area": "1", "lat": "20.816700", "type": "PPL", "awardID": "00080554", "lon": "82.533300", "precision": "1", "focus_area_descr": "Inclusive & Sustainable Growth"}, {"outputID": "00090216", "output_locID": "00090216-28", "name": "South Goa", "focus_area": "1", "lat": "15.204250", "type": "ADM2", "awardID": "00080554", "lon": "74.167330", "precision": "1", "focus_area_descr": "Inclusive & Sustainable Growth"}, {"outputID": "00090216", "output_locID": "00090216-29", "name": "Dimapur", "focus_area": "1", "lat": "25.778520", "type": "ADM2", "awardID": "00080554", "lon": "93.785080", "precision": "1", "focus_area_descr": "Inclusive & Sustainable Growth"}, {"outputID": "00090216", "output_locID": "00090216-30", "name": "Tawang", "focus_area": "1", "lat": "27.661860", "type": "ADM2", "awardID": "00080554", "lon": "91.953580", "precision": "1", "focus_area_descr": "Inclusive & Sustainable Growth"}], "operating_unit": "India", "budget": 1612668.0, "iati_op_id": "IN", "inst_descr": "National Implementation", "start": "2014-09-01", "operating_unit_id": "IND", "expenditure": 458552.0, "document_name": [["Project Document - IND - 80554-90216", "Project Document - IND - 80554-90216", "Youth and Volunteer", "Annual Work Plan - IND - 2015", "Annual Progress Report-2015", "DSS Agreement", "Request for Procurement"], ["https://info.undp.org/docs/pdc/Documents/IND/00080554-Prodoc cum AWP 2014-00090216.pdf", "https://info.undp.org/docs/pdc/Documents/IND/00080554_ PRODOC and AWP 2015 - 90216.pdf", "https://info.undp.org/docs/pdc/Documents/IND/00080554-Photo1-00090216-Youth and Volunteerism.jpg", "https://info.undp.org/docs/pdc/Documents/IND/00080554-AWP 2015-00090216.pdf", "https://info.undp.org/docs/pdc/Documents/IND/00090216_APR_2015_UNV_HQ.pdf", "https://info.undp.org/docs/pdc/Documents/IND/00080554_MOU - 90216.pdf", "http://procurement-notices.undp.org/index.cfm"], ["pdf", "pdf", "", "pdf", "pdf", "pdf", ""], [0, 0, 1, 3, 6, 7, 10]], "project_id": "00080554", "inst_type_id": "10", "operating_unit_website": null, "project_title": "national service scheme"}