{"project_descr": "It is a Joint Programme designed to provide capacities and maximize the available opportunities to upscale and replicate earlier initiatives on water governance to complement ongoing national government\u2019s hard infrastructure programs on water.", "fiscal_year": [2015, 2016, 2014], "end": "2016-12-31", "region_id": "RBAP", "operating_unit_email": "registry.ph@undp.org", "inst_id": "02473", "outputs": [{"output_id": "00091581", "crs": "41010", "donor_id": ["12270"], "focus_area": "2", "gender_descr": "None", "output_title": "Promoting Water and Sanitation", "budget": [327040.0, 10000.0, 572960.0], "fiscal_year": [2016, 2014, 2015], "gender_id": "0", "donor_name": ["Sustainable DG Fund"], "award_id": "00082882", "output_descr": "It is a Joint Programme designed to provide capacities and maximize the available opportunities to upscale and replicate earlier initiatives on water governance to complement ongoing national government\u2019s hard infrastructure programs on water.", "donor_short": ["MDTFO SDGF"], "expenditure": [0.0, 9920.0, 60974.0], "crs_descr": null, "focus_area_descr": "Democratic Governance"}], "subnational": [{"outputID": "00091581", "output_locID": "00091581-1", "name": "Province of Masbate", "focus_area": "2", "lat": "12.166670", "type": "ADM2", "awardID": "00082882", "lon": "123.583330", "precision": "1", "focus_area_descr": "Democratic Governance"}, {"outputID": "00091581", "output_locID": "00091581-2", "name": "Province of Zamboanga del Norte", "focus_area": "2", "lat": "8.000000", "type": "ADM2", "awardID": "00082882", "lon": "122.666670", "precision": "1", "focus_area_descr": "Democratic Governance"}, {"outputID": "00091581", "output_locID": "00091581-3", "name": "Aroroy", "focus_area": "2", "lat": "12.824300", "type": "PPL", "awardID": "00082882", "lon": "124.005700", "precision": "1", "focus_area_descr": "Democratic Governance"}, {"outputID": "00091581", "output_locID": "00091581-4", "name": "Monreal", "focus_area": "2", "lat": "12.644000", "type": "PPLA3", "awardID": "00082882", "lon": "123.664800", "precision": "1", "focus_area_descr": "Democratic Governance"}, {"outputID": "00091581", "output_locID": "00091581-5", "name": "Northern Samar", "focus_area": "2", "lat": "12.333330", "type": "ADM2", "awardID": "00082882", "lon": "124.666670", "precision": "1", "focus_area_descr": "Democratic Governance"}, {"outputID": "00091581", "output_locID": "00091581-6", "name": "Cawayan", "focus_area": "2", "lat": "9.971800", "type": "PPL", "awardID": "00082882", "lon": "122.624900", "precision": "1", "focus_area_descr": "Democratic Governance"}, {"outputID": "00091581", "output_locID": "00091581-7", "name": "Bobon", "focus_area": "2", "lat": "8.990830", "type": "PPL", "awardID": "00082882", "lon": "125.558610", "precision": "1", "focus_area_descr": "Democratic Governance"}, {"outputID": "00091581", "output_locID": "00091581-8", "name": "Mapanas", "focus_area": "2", "lat": "12.475020", "type": "PPLA3", "awardID": "00082882", "lon": "125.256210", "precision": "1", "focus_area_descr": "Democratic Governance"}, {"outputID": "00091581", "output_locID": "00091581-9", "name": "Siayan", "focus_area": "2", "lat": "8.266670", "type": "PPL", "awardID": "00082882", "lon": "123.100000", "precision": "1", "focus_area_descr": "Democratic Governance"}, {"outputID": "00091581", "output_locID": "00091581-10", "name": "Sindangan", "focus_area": "2", "lat": "8.237600", "type": "PPL", "awardID": "00082882", "lon": "122.997400", "precision": "1", "focus_area_descr": "Democratic Governance"}], "operating_unit": "Philippines", "budget": 910000.0, "iati_op_id": "PH", "inst_descr": "Department of Interior and Loc", "start": "2014-07-30", "operating_unit_id": "PHL", "expenditure": 70894.0, "document_name": [["00091581 Project Document-PHL-Democratic Governance", "2015- Annual Work Plan Pro Water", "SDGF National Steering Committee Minutes of 12 September meeting", "Purchase Order Summary", "United%20Nations%20Development%20Assistance%20Framework%202012-2018"], ["https://info.undp.org/docs/pdc/Documents/PHL/SDGF Pro Water Joint Programme Document.pdf", "https://info.undp.org/docs/pdc/Documents/PHL/2015 AWP_91518 DILG-SDGF Pro-Water.pdf", "https://info.undp.org/docs/pdc/Documents/PHL/SDGF National Steering Committee Minutes of 12 September meeting.pdf", "http://open.undp.org/#project/00082882", "http://www.ph.undp.org/content/dam/philippines/docs/legalframeworks/United Nations Development Assistance Framework 2012-2018.pdf"], ["pdf", "pdf", "pdf", "pdf", "pdf"], [0, 3, 3, 9, 7]], "project_id": "00082882", "inst_type_id": "10", "operating_unit_website": "http://www.ph.undp.org/", "project_title": "promoting water and sanitation access"}