{"project_descr": "Le projet vise l\u2019am\u00e9lioration de la collaboration entre les populations en particulier les  jeunes et les femmes, les institutions de d\u00e9fense et de s\u00e9curit\u00e9 et les  structures techniques", "fiscal_year": [2017, 2016], "end": "2018-06-30", "region_id": "RBA", "operating_unit_email": "registry.ne@undp.org", "inst_id": "02252", "outputs": [{"output_id": "00098449", "crs": "74010", "donor_id": ["11363"], "disbursement": [], "focus_area": "5", "gender_descr": "Gender Equality", "output_title": "Renf Engagement Gest Alerte Ri", "budget": [698981.0, 1810.0], "fiscal_year": [2016, 2017], "gender_id": "1", "expenditure": [676609.0, 2112939.0], "award_id": "00094333", "output_descr": "Le projet vise l\u2019am\u00e9lioration de la collaboration entre les populations en particulier les  jeunes et les femmes, les institutions de d\u00e9fense et de s\u00e9curit\u00e9 et les  structures techniques", "donor_short": ["PBF"], "donor_name": ["Peacebuilding Fund"], "crs_descr": null, "focus_area_descr": "Climate Change & Disaster Resilience"}], "subnational": [{"outputID": "00098449", "output_locID": "00098449-1", "name": "Tillia", "focus_area": "5", "lat": "16.123330", "type": "PPL", "awardID": "00094333", "lon": "4.789720", "precision": "1", "focus_area_descr": "Climate Change & Disaster Resilience"}, {"outputID": "00098449", "output_locID": "00098449-2", "name": "Tillaberi", "focus_area": "5", "lat": "14.207110", "type": "PPLA", "awardID": "00094333", "lon": "1.454180", "precision": "1", "focus_area_descr": "Climate Change & Disaster Resilience"}, {"outputID": "00098449", "output_locID": "00098449-3", "name": "Tchintabaraden", "focus_area": "5", "lat": "15.896900", "type": "PPLA2", "awardID": "00094333", "lon": "5.798500", "precision": "1", "focus_area_descr": "Climate Change & Disaster Resilience"}, {"outputID": "00098449", "output_locID": "00098449-4", "name": "Tassara", "focus_area": "5", "lat": "16.804720", "type": "PPL", "awardID": "00094333", "lon": "5.644170", "precision": "1", "focus_area_descr": "Climate Change & Disaster Resilience"}, {"outputID": "00098449", "output_locID": "00098449-5", "name": "Tahoua", "focus_area": "5", "lat": "16.000000", "type": "ADM1", "awardID": "00094333", "lon": "5.500000", "precision": "1", "focus_area_descr": "Climate Change & Disaster Resilience"}, {"outputID": "00098449", "output_locID": "00098449-6", "name": "Tahoua", "focus_area": "5", "lat": "14.888800", "type": "PPLA", "awardID": "00094333", "lon": "5.269200", "precision": "1", "focus_area_descr": "Climate Change & Disaster Resilience"}, {"outputID": "00098449", "output_locID": "00098449-7", "name": "Bankilare", "focus_area": "5", "lat": "14.576530", "type": "PPL", "awardID": "00094333", "lon": "0.726690", "precision": "1", "focus_area_descr": "Climate Change & Disaster Resilience"}, {"outputID": "00098449", "output_locID": "00098449-8", "name": "Agadez", "focus_area": "5", "lat": "19.750000", "type": "ADM1", "awardID": "00094333", "lon": "10.250000", "precision": "1", "focus_area_descr": "Climate Change & Disaster Resilience"}, {"outputID": "00098449", "output_locID": "00098449-9", "name": "Agadez", "focus_area": "5", "lat": "16.973330", "type": "PPLA", "awardID": "00094333", "lon": "7.991110", "precision": "1", "focus_area_descr": "Climate Change & Disaster Resilience"}, {"outputID": "00098449", "output_locID": "00098449-10", "name": "Ad\u00e9rbissinat", "focus_area": "5", "lat": "15.627500", "type": "PPL", "awardID": "00094333", "lon": "7.894500", "precision": "1", "focus_area_descr": "Climate Change & Disaster Resilience"}, {"outputID": "00098449", "output_locID": "00098449-11", "name": "Abala", "focus_area": "5", "lat": "14.936900", "type": "PPL", "awardID": "00094333", "lon": "3.433600", "precision": "1", "focus_area_descr": "Climate Change & Disaster Resilience"}, {"outputID": "00098449", "output_locID": "00098449-12", "name": "Go\u00fbgaram", "focus_area": "5", "lat": "18.482500", "type": "PPL", "awardID": "00094333", "lon": "7.784440", "precision": "1", "focus_area_descr": "Climate Change & Disaster Resilience"}, {"outputID": "00098449", "output_locID": "00098449-13", "name": "Inatess", "focus_area": "5", "lat": "13.968800", "type": "PPL", "awardID": "00094333", "lon": "3.198200", "precision": "1", "focus_area_descr": "Climate Change & Disaster Resilience"}], "operating_unit": "Niger", "budget": 700791.0, "iati_op_id": "NE", "inst_descr": "United Nations Development Programme", "start": "2016-01-01", "operating_unit_id": "NER", "expenditure": 2789548.0, "document_name": [["Renforcement de l'Engagement communautaire pour la Gestion Alertes des Risques de D\u00e9stabilisation Sociales et S\u00e9curitaires (REGARDS)", "Request for Procurement"], ["https://info.undp.org/docs/pdc/Documents/NER/Prodoc PNUD-HCR.pdf", "http://procurement-notices.undp.org/index.cfm"], ["pdf", ""], [0, 10]], "project_id": "00094333", "inst_type_id": "40", "operating_unit_website": null, "project_title": "renf engagement gest alerte risque destabilisat\u00b0 sociale"}