{"project_descr": "This project proposes direct and indirect farmer-based interventions to assist cocoa farmers adopt environmentally sustainable cocoa production practices on farms while conserving ecosystems and natural resources in cocoa landscapes.", "fiscal_year": [2018, 2016, 2017], "end": "2020-12-31", "region_id": "RBA", "operating_unit_email": "registry.gh@undp.org", "inst_id": "01317", "outputs": [{"output_id": "00099431", "crs": "51010", "donor_id": ["12364"], "disbursement": [], "focus_area": "1", "gender_descr": "Gender Equality", "output_title": "Environmental Sustain Prac 2", "budget": [104898.0, 490325.0, 1119000.0], "fiscal_year": [2016, 2017, 2018], "gender_id": "1", "expenditure": [45595.0, 38608.0, 30284.0], "award_id": "00095425", "output_descr": "This project proposes direct and indirect famer-based interventions to assist cocoa farmers adopt environmentally sustainable cocoa production practices on farms while conserving ecosystems and natural resources in cocoa landscapes.", "donor_short": ["Mondelez E"], "donor_name": ["Mondelez Europe GmbH"], "crs_descr": null, "focus_area_descr": "Inclusive Growth"}], "subnational": [{"outputID": "00099431", "output_locID": "00099431-1", "name": "Suhum", "focus_area": "1", "lat": "6.040890", "type": "PPL", "awardID": "00095425", "lon": "-0.450040", "precision": "1", "focus_area_descr": "Inclusive Growth"}, {"outputID": "00099431", "output_locID": "00099431-2", "name": "Effiduase", "focus_area": "1", "lat": "6.846840", "type": "PPL", "awardID": "00095425", "lon": "-1.396120", "precision": "1", "focus_area_descr": "Inclusive Growth"}, {"outputID": "00099431", "output_locID": "00099431-3", "name": "Ahafo Ano North", "focus_area": "1", "lat": "7.000000", "type": "ADM2", "awardID": "00095425", "lon": "-2.166670", "precision": "1", "focus_area_descr": "Inclusive Growth"}, {"outputID": "00099431", "output_locID": "00099431-4", "name": "Amansie West", "focus_area": "1", "lat": "6.466670", "type": "ADM2", "awardID": "00095425", "lon": "-1.883330", "precision": "1", "focus_area_descr": "Inclusive Growth"}, {"outputID": "00099431", "output_locID": "00099431-5", "name": "Asunafo South", "focus_area": "1", "lat": "6.683330", "type": "ADM2", "awardID": "00095425", "lon": "-2.450000", "precision": "1", "focus_area_descr": "Inclusive Growth"}, {"outputID": "00099431", "output_locID": "00099431-6", "name": "Asutifi", "focus_area": "1", "lat": "6.966670", "type": "ADM2", "awardID": "00095425", "lon": "-2.383330", "precision": "1", "focus_area_descr": "Inclusive Growth"}, {"outputID": "00099431", "output_locID": "00099431-7", "name": "Awutu Senya", "focus_area": "1", "lat": "5.551400", "type": "ADM2", "awardID": "00095425", "lon": "-0.515230", "precision": "1", "focus_area_descr": "Inclusive Growth"}, {"outputID": "00099431", "output_locID": "00099431-8", "name": "Fanteakwa", "focus_area": "1", "lat": "6.383330", "type": "ADM2", "awardID": "00095425", "lon": "-0.383330", "precision": "1", "focus_area_descr": "Inclusive Growth"}, {"outputID": "00099431", "output_locID": "00099431-9", "name": "Juaboso", "focus_area": "1", "lat": "6.333330", "type": "ADM2", "awardID": "00095425", "lon": "-2.833330", "precision": "1", "focus_area_descr": "Inclusive Growth"}, {"outputID": "00099431", "output_locID": "00099431-10", "name": "Mampong", "focus_area": "1", "lat": "7.066670", "type": "ADM2", "awardID": "00095425", "lon": "-1.400000", "precision": "1", "focus_area_descr": "Inclusive Growth"}, {"outputID": "00099431", "output_locID": "00099431-11", "name": "New Juaben", "focus_area": "1", "lat": "6.083330", "type": "ADM2", "awardID": "00095425", "lon": "-0.250000", "precision": "1", "focus_area_descr": "Inclusive Growth"}, {"outputID": "00099431", "output_locID": "00099431-12", "name": "West Akim", "focus_area": "1", "lat": "5.866670", "type": "ADM2", "awardID": "00095425", "lon": "-0.666670", "precision": "1", "focus_area_descr": "Inclusive Growth"}], "operating_unit": "Ghana", "budget": 1714223.0, "iati_op_id": "GH", "inst_descr": "National Execution", "start": "2016-01-01", "operating_unit_id": "GHA", "expenditure": 114487.0, "document_name": [["Environmentally Sustainable Production Practices in Cocoa Landscapes (ESP) - Phase II", "Project Document Template", "Recruitment of National Consultant to Establishment of Community Resources Management Area in the Atobease Landscape, Wassa East District"], ["https://info.undp.org/docs/pdc/Documents/GHA/ESP II Final Project Doc.pdf", "https://info.undp.org/docs/pdc/Documents/GHA/ESP II_Project Document_FINAL.doc", "http://procurement-notices.undp.org/view_notice.cfm?notice_id=38392"], ["pdf", "doc", ""], [0, 0, 10]], "project_id": "00095425", "inst_type_id": "10", "operating_unit_website": null, "project_title": "environmentally sustainable production practices in coco"}