{"project_descr": "El programa da respuesta a los desaf\u00edos que surgen de los Acuerdos de La Habana y que implican preparar a la institucionalidad y a la sociedad para la superaci\u00f3n de las causas del conflicto y cuyo objetivo es resarcir los da\u00f1os causados a las v\u00edctimas.", "fiscal_year": [2017], "end": "2019-12-31", "region_id": "RBLAC", "operating_unit_email": "fo.col@undp.org", "inst_id": "99999", "outputs": [{"output_id": "00101700", "crs": "73010", "donor_id": ["12113", "00012"], "disbursement": [], "focus_area": "6", "gender_descr": "Gender Equality", "output_title": "VERDAD Y MEMORIA HISTORICA", "budget": [582551.0], "fiscal_year": [2017], "gender_id": "1", "expenditure": [369529.0], "award_id": "00098331", "output_descr": "Fortalecidos los mecanismos institucionales y de la sociedad civil para el esclarecimiento de la verdad y la memoria hist\u00f3rica.", "donor_short": ["UNDP", "DFATD"], "donor_name": ["Voluntary Contributions", "The Department of Foreign Affairs, Trade and development - Canada"], "crs_descr": null, "focus_area_descr": "Crisis Prevention & Recovery"}], "subnational": [{"outputID": "00101700", "output_locID": "00101700-1", "name": "Departamento del Valle del Cauca", "focus_area": "6", "lat": "3.750000", "type": "ADM1", "awardID": "00098331", "lon": "-76.500000", "precision": "1", "focus_area_descr": "Crisis Prevention & Recovery"}, {"outputID": "00101700", "output_locID": "00101700-2", "name": "Departamento de Sucre", "focus_area": "6", "lat": "9.000000", "type": "ADM1", "awardID": "00098331", "lon": "-75.000000", "precision": "1", "focus_area_descr": "Crisis Prevention & Recovery"}, {"outputID": "00101700", "output_locID": "00101700-3", "name": "Departamento de Santander", "focus_area": "6", "lat": "6.833330", "type": "ADM1", "awardID": "00098331", "lon": "-73.416670", "precision": "1", "focus_area_descr": "Crisis Prevention & Recovery"}, {"outputID": "00101700", "output_locID": "00101700-4", "name": "Departamento de Nari\u00f1o", "focus_area": "6", "lat": "1.500000", "type": "ADM1", "awardID": "00098331", "lon": "-78.000000", "precision": "1", "focus_area_descr": "Crisis Prevention & Recovery"}, {"outputID": "00101700", "output_locID": "00101700-5", "name": "Departamento del Meta", "focus_area": "6", "lat": "3.500000", "type": "ADM1", "awardID": "00098331", "lon": "-73.000000", "precision": "1", "focus_area_descr": "Crisis Prevention & Recovery"}, {"outputID": "00101700", "output_locID": "00101700-6", "name": "Departamento del Magdalena", "focus_area": "6", "lat": "10.000000", "type": "ADM1", "awardID": "00098331", "lon": "-74.500000", "precision": "1", "focus_area_descr": "Crisis Prevention & Recovery"}, {"outputID": "00101700", "output_locID": "00101700-7", "name": "Bogot\u00e1", "focus_area": "6", "lat": "4.609710", "type": "PPLC", "awardID": "00098331", "lon": "-74.081750", "precision": "1", "focus_area_descr": "Crisis Prevention & Recovery"}, {"outputID": "00101700", "output_locID": "00101700-8", "name": "Departamento de Arauca", "focus_area": "6", "lat": "6.666670", "type": "ADM1", "awardID": "00098331", "lon": "-71.000000", "precision": "1", "focus_area_descr": "Crisis Prevention & Recovery"}], "operating_unit": "Colombia", "budget": 582551.0, "iati_op_id": "CO", "inst_descr": "United Nations Development Programme", "start": "2016-08-22", "operating_unit_id": "COL", "expenditure": 369529.0, "document_name": [["16181 Grant Arrangement 20170331", "Quality Assurance Report  PJT", "Programa de Justicia Transicional"], ["https://info.undp.org/docs/pdc/Documents/COL/16-181 Grant Arrangement 2017-03-31.pdf", "https://info.undp.org/docs/pdc/Documents/COL/Quality Assurance Report - PJT.pdf", "http://procurement-notices.undp.org/view_notice.cfm?notice_id=39762"], ["pdf", "pdf", ""], [0, 0, 10]], "project_id": "00098331", "inst_type_id": "40", "operating_unit_website": null, "project_title": "programa de justicia transicional"}