{"project_descr": "This project is intended to support a preventive and developmental national effort for preventing and responding to violent extremism.", "fiscal_year": [2018, 2017], "end": "2020-12-31", "region_id": "RBA", "operating_unit_email": "registry.tz@undp.org", "inst_id": "99999", "outputs": [{"output_id": "00104705", "crs": "74010", "donor_id": ["00141", "00012", "00555"], "disbursement": [], "focus_area": "5", "gender_descr": "Gender Equality", "output_title": "Preventing Violent Extremism", "budget": [1186597.0, 1280000.0], "fiscal_year": [2017, 2018], "gender_id": "1", "expenditure": [338235.0, 3764.0], "award_id": "00102787", "output_descr": "This project is intended to support a preventive and developmental national effort for preventing and responding to violent extremism.", "donor_short": ["UNDP", "JPN", "SIDA"], "donor_name": ["Voluntary Contributions", "GOVERNMENT OF JAPAN", "SWEDISH INTERNATIONAL DEVELOPMENT COOPER"], "crs_descr": null, "focus_area_descr": "Climate Change & Disaster Resilience"}], "subnational": [{"outputID": "00104705", "output_locID": "00104705-1", "name": "Zanzibar Urban/West", "focus_area": "5", "lat": "-6.166670", "type": "ADM1", "awardID": "00102787", "lon": "39.250000", "precision": "1", "focus_area_descr": "Climate Change & Disaster Resilience"}, {"outputID": "00104705", "output_locID": "00104705-2", "name": "Zanzibar North", "focus_area": "5", "lat": "-5.916670", "type": "ADM1", "awardID": "00102787", "lon": "39.283330", "precision": "1", "focus_area_descr": "Climate Change & Disaster Resilience"}, {"outputID": "00104705", "output_locID": "00104705-3", "name": "Zanzibar Central/South", "focus_area": "5", "lat": "-6.250000", "type": "ADM1", "awardID": "00102787", "lon": "39.416670", "precision": "1", "focus_area_descr": "Climate Change & Disaster Resilience"}, {"outputID": "00104705", "output_locID": "00104705-4", "name": "Tanga", "focus_area": "5", "lat": "-5.200000", "type": "ADM1", "awardID": "00102787", "lon": "38.283330", "precision": "1", "focus_area_descr": "Climate Change & Disaster Resilience"}, {"outputID": "00104705", "output_locID": "00104705-5", "name": "Pwani", "focus_area": "5", "lat": "-7.250000", "type": "ADM1", "awardID": "00102787", "lon": "38.833330", "precision": "1", "focus_area_descr": "Climate Change & Disaster Resilience"}, {"outputID": "00104705", "output_locID": "00104705-6", "name": "Pemba South", "focus_area": "5", "lat": "-5.333330", "type": "ADM1", "awardID": "00102787", "lon": "39.750000", "precision": "1", "focus_area_descr": "Climate Change & Disaster Resilience"}, {"outputID": "00104705", "output_locID": "00104705-7", "name": "Pemba North", "focus_area": "5", "lat": "-5.050000", "type": "ADM1", "awardID": "00102787", "lon": "39.766670", "precision": "1", "focus_area_descr": "Climate Change & Disaster Resilience"}, {"outputID": "00104705", "output_locID": "00104705-8", "name": "Mwanza", "focus_area": "5", "lat": "-2.750000", "type": "ADM1", "awardID": "00102787", "lon": "33.083330", "precision": "1", "focus_area_descr": "Climate Change & Disaster Resilience"}, {"outputID": "00104705", "output_locID": "00104705-9", "name": "Lindi", "focus_area": "5", "lat": "-9.500000", "type": "ADM1", "awardID": "00102787", "lon": "38.500000", "precision": "1", "focus_area_descr": "Climate Change & Disaster Resilience"}, {"outputID": "00104705", "output_locID": "00104705-10", "name": "Mtwara", "focus_area": "5", "lat": "-10.800000", "type": "ADM1", "awardID": "00102787", "lon": "39.133330", "precision": "1", "focus_area_descr": "Climate Change & Disaster Resilience"}], "operating_unit": "United Republic of Tanzania", "budget": 2466597.0, "iati_op_id": "TZ", "inst_descr": "United Nations Development Programme", "start": "2017-03-01", "operating_unit_id": "TZA", "expenditure": 341999.0, "document_name": [["Preventing Violent Extremism in Tanzania", "Consultancy Firm to Conduct Study on Community Perceptions of Security and Violent Extremism in Tanzania"], ["https://info.undp.org/docs/pdc/Documents/TZA/PVE Signed Prodoc.pdf", "http://procurement-notices.undp.org/view_notice.cfm?notice_id=41209"], ["pdf", ""], [0, 10]], "project_id": "00102787", "inst_type_id": "40", "operating_unit_website": null, "project_title": "preventing violent extremism in tanzania"}