{"project_descr": "RP OUTCOME 2: Addressing poverty and inequalities through more inclusive and sustainable development pathways \nSTRATEGIC PLAN 2018-2021, OUTCOME 1: Advance poverty eradication in all its forms and dimensions", "fiscal_year": [2018], "end": "2021-01-31", "region_id": "global", "operating_unit_email": "registry.sk@undp.org", "inst_id": "XM-DAC-41114", "outputs": [{"output_id": "00108432", "crs": "99810", "donor_id": ["00244"], "disbursement": [], "focus_area": "7", "gender_descr": "Gender Equality", "output_title": "Development Dialogues and K&I", "budget": [488189.0], "fiscal_year": [2018], "gender_id": "1", "expenditure": [21304.0], "award_id": "00108864", "output_descr": "Output 2.3. Enabling environment strengthened through diverse partnerships to expand opportunities for public and private sector, including alternative, financing for the achievement of the SDGs", "donor_short": ["TUR"], "donor_name": ["GOVERNMENT OF TURKEY"], "crs_descr": null, "focus_area_descr": "Thought Leadership"}, {"output_id": "00108433", "crs": "99810", "donor_id": ["00206", "10159", "00012", "00244"], "disbursement": [], "focus_area": "7", "gender_descr": "Gender Equality", "output_title": "Partnerships", "budget": [1086055.0], "fiscal_year": [2018], "gender_id": "1", "expenditure": [61750.0], "award_id": "00108864", "output_descr": "Output 2.3. Enabling environment strengthened through diverse partnerships to expand opportunities for public and private sector, including alternative, financing for the achievement of the SDGs", "donor_short": ["UNDP", "EUCOMM", "TUR", "RUS"], "donor_name": ["Voluntary Contributions", "EUROPEAN COMMISSION", "GOVERNMENT OF TURKEY", "GOVERNMENT OF RUSSIAN FEDERATION"], "crs_descr": null, "focus_area_descr": "Thought Leadership"}, {"output_id": "00108495", "crs": null, "donor_id": ["00244"], "disbursement": [], "focus_area": "7", "gender_descr": "Gender Equality", "output_title": "Impact Facility", "budget": [1196600.0], "fiscal_year": [2018], "gender_id": "1", "expenditure": [9826.0], "award_id": "00108864", "output_descr": "Output 2.3. Enabling environment strengthened through diverse partnerships to expand opportunities for public and private sector, including alternative, financing for the achievement of the SDGs", "donor_short": ["TUR"], "donor_name": ["GOVERNMENT OF TURKEY"], "crs_descr": null, "focus_area_descr": "Thought Leadership"}], "subnational": [{"outputID": "00108432", "output_locID": "00108432-1", "name": "Ashgabat", "focus_area": "7", "lat": "37.950000", "type": "PPLC", "awardID": "00108864", "lon": "58.383330", "precision": "1", "focus_area_descr": "Thought Leadership"}, {"outputID": "00108432", "output_locID": "00108432-2", "name": "Ankara", "focus_area": "7", "lat": "39.919870", "type": "PPLC", "awardID": "00108864", "lon": "32.854270", "precision": "1", "focus_area_descr": "Thought Leadership"}, {"outputID": "00108432", "output_locID": "00108432-3", "name": "Baku", "focus_area": "7", "lat": "40.377670", "type": "PPLC", "awardID": "00108864", "lon": "49.892010", "precision": "1", "focus_area_descr": "Thought Leadership"}, {"outputID": "00108432", "output_locID": "00108432-4", "name": "Tbilisi", "focus_area": "7", "lat": "41.694110", "type": "PPLC", "awardID": "00108864", "lon": "44.833680", "precision": "1", "focus_area_descr": "Thought Leadership"}, {"outputID": "00108432", "output_locID": "00108432-5", "name": "Yerevan", "focus_area": "7", "lat": "40.181110", "type": "PPLC", "awardID": "00108864", "lon": "44.513610", "precision": "1", "focus_area_descr": "Thought Leadership"}, {"outputID": "00108432", "output_locID": "00108432-6", "name": "Chisinau", "focus_area": "7", "lat": "47.005560", "type": "PPLC", "awardID": "00108864", "lon": "28.857500", "precision": "1", "focus_area_descr": "Thought Leadership"}, {"outputID": "00108432", "output_locID": "00108432-7", "name": "Minsk", "focus_area": "7", "lat": "53.900000", "type": "PPLC", "awardID": "00108864", "lon": "27.566670", "precision": "1", "focus_area_descr": "Thought Leadership"}, {"outputID": "00108432", "output_locID": "00108432-8", "name": "Kiev", "focus_area": "7", "lat": "50.454660", "type": "PPLC", "awardID": "00108864", "lon": "30.523800", "precision": "1", "focus_area_descr": "Thought Leadership"}, {"outputID": "00108432", "output_locID": "00108432-9", "name": "Skopje", "focus_area": "7", "lat": "41.996460", "type": "PPLC", "awardID": "00108864", "lon": "21.431410", "precision": "1", "focus_area_descr": "Thought Leadership"}, {"outputID": "00108432", "output_locID": "00108432-10", "name": "Pristina", "focus_area": "7", "lat": "42.672720", "type": "PPLC", "awardID": "00108864", "lon": "21.166880", "precision": "1", "focus_area_descr": "Thought Leadership"}, {"outputID": "00108432", "output_locID": "00108432-11", "name": "Belgrade", "focus_area": "7", "lat": "44.804010", "type": "PPLC", "awardID": "00108864", "lon": "20.465130", "precision": "1", "focus_area_descr": "Thought Leadership"}, {"outputID": "00108432", "output_locID": "00108432-12", "name": "Dushanbe", "focus_area": "7", "lat": "38.535750", "type": "PPLC", "awardID": "00108864", "lon": "68.779050", "precision": "1", "focus_area_descr": "Thought Leadership"}, {"outputID": "00108432", "output_locID": "00108432-13", "name": "Tashkent", "focus_area": "7", "lat": "41.264650", "type": "PPLC", "awardID": "00108864", "lon": "69.216270", "precision": "1", "focus_area_descr": "Thought Leadership"}, {"outputID": "00108432", "output_locID": "00108432-14", "name": "Astana", "focus_area": "7", "lat": "51.180100", "type": "PPLC", "awardID": "00108864", "lon": "71.445980", "precision": "1", "focus_area_descr": "Thought Leadership"}, {"outputID": "00108432", "output_locID": "00108432-15", "name": "Bishkek", "focus_area": "7", "lat": "42.870000", "type": "PPLC", "awardID": "00108864", "lon": "74.590000", "precision": "1", "focus_area_descr": "Thought Leadership"}, {"outputID": "00108432", "output_locID": "00108432-16", "name": "Tirana", "focus_area": "7", "lat": "41.327500", "type": "PPLC", "awardID": "00108864", "lon": "19.818890", "precision": "1", "focus_area_descr": "Thought Leadership"}, {"outputID": "00108432", "output_locID": "00108432-17", "name": "Sarajevo", "focus_area": "7", "lat": "43.848640", "type": "PPLC", "awardID": "00108864", "lon": "18.356440", "precision": "1", "focus_area_descr": "Thought Leadership"}, {"outputID": "00108432", "output_locID": "00108432-18", "name": "Podgorica", "focus_area": "7", "lat": "42.441110", "type": "PPLC", "awardID": "00108864", "lon": "19.263610", "precision": "1", "focus_area_descr": "Thought Leadership"}, {"outputID": "00108433", "output_locID": "00108433-1", "name": "Ashgabat", "focus_area": "7", "lat": "37.950000", "type": "PPLC", "awardID": "00108864", "lon": "58.383330", "precision": "1", "focus_area_descr": "Thought Leadership"}, {"outputID": "00108433", "output_locID": "00108433-2", "name": "Ankara", "focus_area": "7", "lat": "39.919870", "type": "PPLC", "awardID": "00108864", "lon": "32.854270", "precision": "1", "focus_area_descr": "Thought Leadership"}, {"outputID": "00108433", "output_locID": "00108433-3", "name": "Baku", "focus_area": "7", "lat": "40.377670", "type": "PPLC", "awardID": "00108864", "lon": "49.892010", "precision": "1", "focus_area_descr": "Thought Leadership"}, {"outputID": "00108433", "output_locID": "00108433-4", "name": "Tbilisi", "focus_area": "7", "lat": "41.694110", "type": "PPLC", "awardID": "00108864", "lon": "44.833680", "precision": "1", "focus_area_descr": "Thought Leadership"}, {"outputID": "00108433", "output_locID": "00108433-5", "name": "Yerevan", "focus_area": "7", "lat": "40.181110", "type": "PPLC", "awardID": "00108864", "lon": "44.513610", "precision": "1", "focus_area_descr": "Thought Leadership"}, {"outputID": "00108433", "output_locID": "00108433-6", "name": "Chisinau", "focus_area": "7", "lat": "47.005560", "type": "PPLC", "awardID": "00108864", "lon": "28.857500", "precision": "1", "focus_area_descr": "Thought Leadership"}, {"outputID": "00108433", "output_locID": "00108433-7", "name": "Minsk", "focus_area": "7", "lat": "53.900000", "type": "PPLC", "awardID": "00108864", "lon": "27.566670", "precision": "1", "focus_area_descr": "Thought Leadership"}, {"outputID": "00108433", "output_locID": "00108433-8", "name": "Kiev", "focus_area": "7", "lat": "50.454660", "type": "PPLC", "awardID": "00108864", "lon": "30.523800", "precision": "1", "focus_area_descr": "Thought Leadership"}, {"outputID": "00108433", "output_locID": "00108433-9", "name": "Skopje", "focus_area": "7", "lat": "41.996460", "type": "PPLC", "awardID": "00108864", "lon": "21.431410", "precision": "1", "focus_area_descr": "Thought Leadership"}, {"outputID": "00108433", "output_locID": "00108433-10", "name": "Pristina", "focus_area": "7", "lat": "42.672720", "type": "PPLC", "awardID": "00108864", "lon": "21.166880", "precision": "1", "focus_area_descr": "Thought Leadership"}, {"outputID": "00108433", "output_locID": "00108433-11", "name": "Belgrade", "focus_area": "7", "lat": "44.804010", "type": "PPLC", "awardID": "00108864", "lon": "20.465130", "precision": "1", "focus_area_descr": "Thought Leadership"}, {"outputID": "00108433", "output_locID": "00108433-12", "name": "Dushanbe", "focus_area": "7", "lat": "38.535750", "type": "PPLC", "awardID": "00108864", "lon": "68.779050", "precision": "1", "focus_area_descr": "Thought Leadership"}, {"outputID": "00108433", "output_locID": "00108433-13", "name": "Tashkent", "focus_area": "7", "lat": "41.264650", "type": "PPLC", "awardID": "00108864", "lon": "69.216270", "precision": "1", "focus_area_descr": "Thought Leadership"}, {"outputID": "00108433", "output_locID": "00108433-14", "name": "Astana", "focus_area": "7", "lat": "51.180100", "type": "PPLC", "awardID": "00108864", "lon": "71.445980", "precision": "1", "focus_area_descr": "Thought Leadership"}, {"outputID": "00108433", "output_locID": "00108433-15", "name": "Bishkek", "focus_area": "7", "lat": "42.870000", "type": "PPLC", "awardID": "00108864", "lon": "74.590000", "precision": "1", "focus_area_descr": "Thought Leadership"}, {"outputID": "00108433", "output_locID": "00108433-16", "name": "Tirana", "focus_area": "7", "lat": "41.327500", "type": "PPLC", "awardID": "00108864", "lon": "19.818890", "precision": "1", "focus_area_descr": "Thought Leadership"}, {"outputID": "00108433", "output_locID": "00108433-17", "name": "Sarajevo", "focus_area": "7", "lat": "43.848640", "type": "PPLC", "awardID": "00108864", "lon": "18.356440", "precision": "1", "focus_area_descr": "Thought Leadership"}, {"outputID": "00108433", "output_locID": "00108433-18", "name": "Podgorica", "focus_area": "7", "lat": "42.441110", "type": "PPLC", "awardID": "00108864", "lon": "19.263610", "precision": "1", "focus_area_descr": "Thought Leadership"}, {"outputID": "00108495", "output_locID": "00108495-1", "name": "Ashgabat", "focus_area": "7", "lat": "37.950000", "type": "PPLC", "awardID": "00108864", "lon": "58.383330", "precision": "1", "focus_area_descr": "Thought Leadership"}, {"outputID": "00108495", "output_locID": "00108495-2", "name": "Ankara", "focus_area": "7", "lat": "39.919870", "type": "PPLC", "awardID": "00108864", "lon": "32.854270", "precision": "1", "focus_area_descr": "Thought Leadership"}, {"outputID": "00108495", "output_locID": "00108495-3", "name": "Baku", "focus_area": "7", "lat": "40.377670", "type": "PPLC", "awardID": "00108864", "lon": "49.892010", "precision": "1", "focus_area_descr": "Thought Leadership"}, {"outputID": "00108495", "output_locID": "00108495-4", "name": "Tbilisi", "focus_area": "7", "lat": "41.694110", "type": "PPLC", "awardID": "00108864", "lon": "44.833680", "precision": "1", "focus_area_descr": "Thought Leadership"}, {"outputID": "00108495", "output_locID": "00108495-5", "name": "Yerevan", "focus_area": "7", "lat": "40.181110", "type": "PPLC", "awardID": "00108864", "lon": "44.513610", "precision": "1", "focus_area_descr": "Thought Leadership"}, {"outputID": "00108495", "output_locID": "00108495-6", "name": "Chisinau", "focus_area": "7", "lat": "47.005560", "type": "PPLC", "awardID": "00108864", "lon": "28.857500", "precision": "1", "focus_area_descr": "Thought Leadership"}, {"outputID": "00108495", "output_locID": "00108495-7", "name": "Minsk", "focus_area": "7", "lat": "53.900000", "type": "PPLC", "awardID": "00108864", "lon": "27.566670", "precision": "1", "focus_area_descr": "Thought Leadership"}, {"outputID": "00108495", "output_locID": "00108495-8", "name": "Kiev", "focus_area": "7", "lat": "50.454660", "type": "PPLC", "awardID": "00108864", "lon": "30.523800", "precision": "1", "focus_area_descr": "Thought Leadership"}, {"outputID": "00108495", "output_locID": "00108495-9", "name": "Skopje", "focus_area": "7", "lat": "41.996460", "type": "PPLC", "awardID": "00108864", "lon": "21.431410", "precision": "1", "focus_area_descr": "Thought Leadership"}, {"outputID": "00108495", "output_locID": "00108495-10", "name": "Pristina", "focus_area": "7", "lat": "42.672720", "type": "PPLC", "awardID": "00108864", "lon": "21.166880", "precision": "1", "focus_area_descr": "Thought Leadership"}, {"outputID": "00108495", "output_locID": "00108495-11", "name": "Belgrade", "focus_area": "7", "lat": "44.804010", "type": "PPLC", "awardID": "00108864", "lon": "20.465130", "precision": "1", "focus_area_descr": "Thought Leadership"}, {"outputID": "00108495", "output_locID": "00108495-12", "name": "Dushanbe", "focus_area": "7", "lat": "38.535750", "type": "PPLC", "awardID": "00108864", "lon": "68.779050", "precision": "1", "focus_area_descr": "Thought Leadership"}, {"outputID": "00108495", "output_locID": "00108495-13", "name": "Tashkent", "focus_area": "7", "lat": "41.264650", "type": "PPLC", "awardID": "00108864", "lon": "69.216270", "precision": "1", "focus_area_descr": "Thought Leadership"}, {"outputID": "00108495", "output_locID": "00108495-14", "name": "Astana", "focus_area": "7", "lat": "51.180100", "type": "PPLC", "awardID": "00108864", "lon": "71.445980", "precision": "1", "focus_area_descr": "Thought Leadership"}, {"outputID": "00108495", "output_locID": "00108495-15", "name": "Bishkek", "focus_area": "7", "lat": "42.870000", "type": "PPLC", "awardID": "00108864", "lon": "74.590000", "precision": "1", "focus_area_descr": "Thought Leadership"}, {"outputID": "00108495", "output_locID": "00108495-16", "name": "Tirana", "focus_area": "7", "lat": "41.327500", "type": "PPLC", "awardID": "00108864", "lon": "19.818890", "precision": "1", "focus_area_descr": "Thought Leadership"}, {"outputID": "00108495", "output_locID": "00108495-17", "name": "Sarajevo", "focus_area": "7", "lat": "43.848640", "type": "PPLC", "awardID": "00108864", "lon": "18.356440", "precision": "1", "focus_area_descr": "Thought Leadership"}, {"outputID": "00108495", "output_locID": "00108495-18", "name": "Podgorica", "focus_area": "7", "lat": "42.441110", "type": "PPLC", "awardID": "00108864", "lon": "19.263610", "precision": "1", "focus_area_descr": "Thought Leadership"}], "operating_unit": null, "budget": 2770844.0, "iati_op_id": "998", "inst_descr": "United Nations Development Programme", "start": "2018-01-02", "operating_unit_id": null, "expenditure": 92880.0, "document_name": [["Budget 2017/18", "UNDP-IRH-RFQ-2018-03 - Production of Video Teasers for Kapuscinski Lectures"], ["https://info.undp.org/docs/pdc/Documents/SVK/108864.PDF", "http://procurement-notices.undp.org/view_notice.cfm?notice_id=45858"], ["pdf", ""], [3, 10]], "project_id": "00108864", "inst_type_id": "40", "operating_unit_website": null, "project_title": "development dialogues, innovation and partnerships"}