{"project_descr": "Apoyo a la revitalizaci\u00f3n del sector productivo y econ\u00f3mico local en cuatro provincias afectadas por el paso del Hurac\u00e1n Irma en el centro de Cuba", "fiscal_year": [2018, 2017], "end": "2018-11-24", "region_id": "RBLAC", "operating_unit_email": "registry.cu@undp.org", "inst_id": "99999", "outputs": [{"output_id": "00107858", "crs": "73010", "donor_id": ["10282"], "disbursement": [], "focus_area": "6", "gender_descr": "Gender Equality", "output_title": "Sector productivo y econ\u00f3mico", "budget": [2160.0, 1499342.0], "fiscal_year": [2017, 2018], "gender_id": "1", "expenditure": [0.0, 0.0], "award_id": "00107582", "output_descr": "Apoyo a la revitalizaci\u00f3n del sector productivo y econ\u00f3mico local en cuatro provincias afectadas por el paso del Hurac\u00e1n Irma en el centro de Cuba", "donor_short": ["SDC"], "donor_name": ["SWISS AGENCY FOR DEVELOPMENT AND COOPERATION - SDC"], "crs_descr": null, "focus_area_descr": "Crisis Prevention & Recovery"}], "subnational": [{"outputID": "00107858", "output_locID": "00107858-1", "name": "Yaguajay", "focus_area": "6", "lat": "22.326910", "type": "PPLA2", "awardID": "00107582", "lon": "-79.235670", "precision": "1", "focus_area_descr": "Crisis Prevention & Recovery"}, {"outputID": "00107858", "output_locID": "00107858-2", "name": "Trinidad", "focus_area": "6", "lat": "21.802240", "type": "PPLA2", "awardID": "00107582", "lon": "-79.984670", "precision": "1", "focus_area_descr": "Crisis Prevention & Recovery"}, {"outputID": "00107858", "output_locID": "00107858-3", "name": "Taguasco", "focus_area": "6", "lat": "22.001980", "type": "PPLA2", "awardID": "00107582", "lon": "-79.263870", "precision": "1", "focus_area_descr": "Crisis Prevention & Recovery"}, {"outputID": "00107858", "output_locID": "00107858-4", "name": "Sagua la Grande", "focus_area": "6", "lat": "22.806670", "type": "PPLA2", "awardID": "00107582", "lon": "-80.075560", "precision": "1", "focus_area_descr": "Crisis Prevention & Recovery"}, {"outputID": "00107858", "output_locID": "00107858-5", "name": "Remedios", "focus_area": "6", "lat": "22.495020", "type": "PPLA2", "awardID": "00107582", "lon": "-79.545480", "precision": "1", "focus_area_descr": "Crisis Prevention & Recovery"}, {"outputID": "00107858", "output_locID": "00107858-6", "name": "Nuevitas", "focus_area": "6", "lat": "21.545850", "type": "PPL", "awardID": "00107582", "lon": "-77.265040", "precision": "1", "focus_area_descr": "Crisis Prevention & Recovery"}, {"outputID": "00107858", "output_locID": "00107858-7", "name": "Mor\u00f3n", "focus_area": "6", "lat": "22.107740", "type": "PPLA2", "awardID": "00107582", "lon": "-78.626670", "precision": "1", "focus_area_descr": "Crisis Prevention & Recovery"}, {"outputID": "00107858", "output_locID": "00107858-8", "name": "Minas", "focus_area": "6", "lat": "21.488020", "type": "PPLA2", "awardID": "00107582", "lon": "-77.610330", "precision": "1", "focus_area_descr": "Crisis Prevention & Recovery"}, {"outputID": "00107858", "output_locID": "00107858-9", "name": "Jatibonico", "focus_area": "6", "lat": "21.943330", "type": "PPLA2", "awardID": "00107582", "lon": "-79.169060", "precision": "1", "focus_area_descr": "Crisis Prevention & Recovery"}, {"outputID": "00107858", "output_locID": "00107858-10", "name": "Florida", "focus_area": "6", "lat": "21.525360", "type": "PPLA2", "awardID": "00107582", "lon": "-78.225790", "precision": "1", "focus_area_descr": "Crisis Prevention & Recovery"}, {"outputID": "00107858", "output_locID": "00107858-11", "name": "Esmeralda", "focus_area": "6", "lat": "21.851390", "type": "PPLA2", "awardID": "00107582", "lon": "-78.117250", "precision": "1", "focus_area_descr": "Crisis Prevention & Recovery"}, {"outputID": "00107858", "output_locID": "00107858-12", "name": "Chambas", "focus_area": "6", "lat": "22.195340", "type": "PPLA2", "awardID": "00107582", "lon": "-78.912300", "precision": "1", "focus_area_descr": "Crisis Prevention & Recovery"}, {"outputID": "00107858", "output_locID": "00107858-13", "name": "Caibari\u00e9n", "focus_area": "6", "lat": "22.519960", "type": "PPLA2", "awardID": "00107582", "lon": "-79.465990", "precision": "1", "focus_area_descr": "Crisis Prevention & Recovery"}, {"outputID": "00107858", "output_locID": "00107858-14", "name": "Bolivia", "focus_area": "6", "lat": "22.083970", "type": "PPLA2", "awardID": "00107582", "lon": "-78.338840", "precision": "1", "focus_area_descr": "Crisis Prevention & Recovery"}, {"outputID": "00107858", "output_locID": "00107858-15", "name": "Cubitas", "focus_area": "6", "lat": "21.712120", "type": "PPLA2", "awardID": "00107582", "lon": "-77.761300", "precision": "1", "focus_area_descr": "Crisis Prevention & Recovery"}], "operating_unit": "Cuba", "budget": 1501502.0, "iati_op_id": "CU", "inst_descr": "United Nations Development Programme", "start": "2017-11-24", "operating_unit_id": "CUB", "expenditure": 0.0, "document_name": [["107582 PRODOC FIRMADO COSUDE IRMA"], ["https://info.undp.org/docs/pdc/Documents/CUB/107582 PRODOC FIRMADO COSUDE IRMA.pdf"], ["pdf"], [0]], "project_id": "00107582", "inst_type_id": "40", "operating_unit_website": null, "project_title": "sector productivo y econ\u00f3mico huracan irma"}