{"project_descr": "Technical Support to Eligible Parties to Produce the Sixth National Report to the Convention on Biological Diversity in Latin America and Caribbean Region II (GEF project ID PIMS 6127)", "fiscal_year": [2018, 2017], "end": "2019-11-25", "region_id": "global", "operating_unit_email": "registry.sk@undp.org", "inst_id": "XM-DAC-41114", "outputs": [{"output_id": "00106962", "crs": "23010", "donor_id": ["10003"], "disbursement": [], "focus_area": "1", "gender_descr": "Gender Equality", "output_title": "6th National Reports in LAC II", "budget": [55500.0, 42416.0], "fiscal_year": [2017, 2018], "gender_id": "1", "expenditure": [2574.0, 18175.0], "award_id": "00106016", "output_descr": "Provide technical support to GEF-eligible Parties to the Convention on Biological Diversity (CBD) in their work to develop a high quality, gender-responsive and data-driven 6th National Report in Latin America and Caribbean Region II (LAC II)", "donor_short": ["GEFTrustee"], "donor_name": ["Global Environment Fund Truste"], "crs_descr": null, "focus_area_descr": "Inclusive & Sustainable Growth"}], "subnational": [{"outputID": "00106962", "output_locID": "00106962-1", "name": "Paramaribo", "focus_area": "1", "lat": "5.866380", "type": "PPLC", "awardID": "00106016", "lon": "-55.166820", "precision": "1", "focus_area_descr": "Inclusive & Sustainable Growth"}, {"outputID": "00106962", "output_locID": "00106962-2", "name": "Montevideo", "focus_area": "1", "lat": "-34.903280", "type": "PPLC", "awardID": "00106016", "lon": "-56.188160", "precision": "1", "focus_area_descr": "Inclusive & Sustainable Growth"}, {"outputID": "00106962", "output_locID": "00106962-3", "name": "Bras\u00edlia", "focus_area": "1", "lat": "-15.779720", "type": "PPLC", "awardID": "00106016", "lon": "-47.929720", "precision": "1", "focus_area_descr": "Inclusive & Sustainable Growth"}, {"outputID": "00106962", "output_locID": "00106962-4", "name": "Mexico City", "focus_area": "1", "lat": "19.428470", "type": "PPLC", "awardID": "00106016", "lon": "-99.127660", "precision": "1", "focus_area_descr": "Inclusive & Sustainable Growth"}, {"outputID": "00106962", "output_locID": "00106962-5", "name": "Havana", "focus_area": "1", "lat": "23.133020", "type": "PPLC", "awardID": "00106016", "lon": "-82.383040", "precision": "1", "focus_area_descr": "Inclusive & Sustainable Growth"}, {"outputID": "00106962", "output_locID": "00106962-6", "name": "Port of Spain", "focus_area": "1", "lat": "10.666680", "type": "PPLC", "awardID": "00106016", "lon": "-61.518890", "precision": "1", "focus_area_descr": "Inclusive & Sustainable Growth"}, {"outputID": "00106962", "output_locID": "00106962-7", "name": "Roseau", "focus_area": "1", "lat": "15.301740", "type": "PPLC", "awardID": "00106016", "lon": "-61.388080", "precision": "1", "focus_area_descr": "Inclusive & Sustainable Growth"}, {"outputID": "00106962", "output_locID": "00106962-8", "name": "St. George's", "focus_area": "1", "lat": "12.052880", "type": "PPLC", "awardID": "00106016", "lon": "-61.752260", "precision": "1", "focus_area_descr": "Inclusive & Sustainable Growth"}, {"outputID": "00106962", "output_locID": "00106962-9", "name": "Guatemala City", "focus_area": "1", "lat": "14.640720", "type": "PPLC", "awardID": "00106016", "lon": "-90.513270", "precision": "1", "focus_area_descr": "Inclusive & Sustainable Growth"}, {"outputID": "00106962", "output_locID": "00106962-10", "name": "Panama City", "focus_area": "1", "lat": "8.993600", "type": "PPLC", "awardID": "00106016", "lon": "-79.519730", "precision": "1", "focus_area_descr": "Inclusive & Sustainable Growth"}, {"outputID": "00106962", "output_locID": "00106962-11", "name": "Port-au-Prince", "focus_area": "1", "lat": "18.539170", "type": "PPLC", "awardID": "00106016", "lon": "-72.335000", "precision": "1", "focus_area_descr": "Inclusive & Sustainable Growth"}, {"outputID": "00106962", "output_locID": "00106962-12", "name": "Santiago", "focus_area": "1", "lat": "-33.456940", "type": "PPLC", "awardID": "00106016", "lon": "-70.648270", "precision": "1", "focus_area_descr": "Inclusive & Sustainable Growth"}], "operating_unit": null, "budget": 97916.0, "iati_op_id": "998", "inst_descr": "United Nations Development Programme", "start": "2017-11-25", "operating_unit_id": null, "expenditure": 20749.0, "document_name": [["6NRLAC II", "Annotated UNDP-GEF Project Document Template", "6NR 00106016 AWP_December 2017"], ["https://info.undp.org/docs/pdc/Documents/SVK/6NR-LAC II.PDF", "https://info.undp.org/docs/pdc/Documents/SVK/PIMS 6127 6NR LAC II prodoc final LPACed.doc", "https://info.undp.org/docs/pdc/Documents/SVK/6NR 00106016_December 2017.rar"], ["pdf", "doc", "obj"], [0, 0, 0]], "project_id": "00106016", "inst_type_id": "40", "operating_unit_website": null, "project_title": "sixth national reports on biological diversity in lacii"}