{"project_descr": "PIMS 6114: Technical Support to Eligible Parties to Produce the Sixth National Report to the Convention on Biological Diversity in LAC Region", "fiscal_year": [2017], "end": "2019-11-25", "region_id": "global", "operating_unit_email": "registry.sk@undp.org", "inst_id": "99999", "outputs": [{"output_id": "00106960", "crs": "23010", "donor_id": ["10003"], "disbursement": [], "focus_area": "1", "gender_descr": "Gender Equality", "output_title": "Support to 6NR to CBD (LAC)", "budget": [1840325.0], "fiscal_year": [2017], "gender_id": "1", "expenditure": [8678.0], "award_id": "00106014", "output_descr": "The project is to provide technical support to GEF-eligible Parties to the Convention on Biological Diversity (CBD) in their work to develop a high quality, gender-responsive and data-driven sixth national report 6th National Report.", "donor_short": ["GEFTrustee"], "donor_name": ["Global Environment Fund Truste"], "crs_descr": null, "focus_area_descr": "Inclusive & Sustainable Growth"}], "subnational": [{"outputID": "00106960", "output_locID": "00106960-1", "name": "Georgetown", "focus_area": "1", "lat": "6.804480", "type": "PPLC", "awardID": "00106014", "lon": "-58.155270", "precision": "1", "focus_area_descr": "Inclusive & Sustainable Growth"}, {"outputID": "00106960", "output_locID": "00106960-2", "name": "Buenos Aires", "focus_area": "1", "lat": "-34.613150", "type": "PPLC", "awardID": "00106014", "lon": "-58.377230", "precision": "1", "focus_area_descr": "Inclusive & Sustainable Growth"}, {"outputID": "00106960", "output_locID": "00106960-3", "name": "Asunci\u00f3n", "focus_area": "1", "lat": "-25.300660", "type": "PPLC", "awardID": "00106014", "lon": "-57.635910", "precision": "1", "focus_area_descr": "Inclusive & Sustainable Growth"}, {"outputID": "00106960", "output_locID": "00106960-4", "name": "Kingston", "focus_area": "1", "lat": "17.997020", "type": "PPLC", "awardID": "00106014", "lon": "-76.793580", "precision": "1", "focus_area_descr": "Inclusive & Sustainable Growth"}, {"outputID": "00106960", "output_locID": "00106960-5", "name": "Santo Domingo", "focus_area": "1", "lat": "18.500120", "type": "PPLC", "awardID": "00106014", "lon": "-69.988570", "precision": "1", "focus_area_descr": "Inclusive & Sustainable Growth"}, {"outputID": "00106960", "output_locID": "00106960-6", "name": "Basseterre", "focus_area": "1", "lat": "17.294840", "type": "PPLC", "awardID": "00106014", "lon": "-62.726100", "precision": "1", "focus_area_descr": "Inclusive & Sustainable Growth"}, {"outputID": "00106960", "output_locID": "00106960-7", "name": "St John's", "focus_area": "1", "lat": "17.120960", "type": "PPLC", "awardID": "00106014", "lon": "-61.843290", "precision": "1", "focus_area_descr": "Inclusive & Sustainable Growth"}, {"outputID": "00106960", "output_locID": "00106960-8", "name": "Castries", "focus_area": "1", "lat": "13.995700", "type": "PPLC", "awardID": "00106014", "lon": "-61.006140", "precision": "1", "focus_area_descr": "Inclusive & Sustainable Growth"}, {"outputID": "00106960", "output_locID": "00106960-9", "name": "Kingstown", "focus_area": "1", "lat": "13.155270", "type": "PPLC", "awardID": "00106014", "lon": "-61.227420", "precision": "1", "focus_area_descr": "Inclusive & Sustainable Growth"}, {"outputID": "00106960", "output_locID": "00106960-10", "name": "Belmopan", "focus_area": "1", "lat": "17.250000", "type": "PPLC", "awardID": "00106014", "lon": "-88.766670", "precision": "1", "focus_area_descr": "Inclusive & Sustainable Growth"}, {"outputID": "00106960", "output_locID": "00106960-11", "name": "San Salvador", "focus_area": "1", "lat": "13.689350", "type": "PPLC", "awardID": "00106014", "lon": "-89.187180", "precision": "1", "focus_area_descr": "Inclusive & Sustainable Growth"}, {"outputID": "00106960", "output_locID": "00106960-12", "name": "Tegucigalpa", "focus_area": "1", "lat": "14.081800", "type": "PPLC", "awardID": "00106014", "lon": "-87.206810", "precision": "1", "focus_area_descr": "Inclusive & Sustainable Growth"}, {"outputID": "00106960", "output_locID": "00106960-13", "name": "San Jos\u00e9", "focus_area": "1", "lat": "9.933330", "type": "PPLC", "awardID": "00106014", "lon": "-84.083330", "precision": "1", "focus_area_descr": "Inclusive & Sustainable Growth"}, {"outputID": "00106960", "output_locID": "00106960-14", "name": "Quito", "focus_area": "1", "lat": "-0.229850", "type": "PPLC", "awardID": "00106014", "lon": "-78.524950", "precision": "1", "focus_area_descr": "Inclusive & Sustainable Growth"}, {"outputID": "00106960", "output_locID": "00106960-15", "name": "Bogot\u00e1", "focus_area": "1", "lat": "4.609710", "type": "PPLC", "awardID": "00106014", "lon": "-74.081750", "precision": "1", "focus_area_descr": "Inclusive & Sustainable Growth"}, {"outputID": "00106960", "output_locID": "00106960-16", "name": "Sucre", "focus_area": "1", "lat": "-19.033320", "type": "PPLC", "awardID": "00106014", "lon": "-65.262740", "precision": "1", "focus_area_descr": "Inclusive & Sustainable Growth"}, {"outputID": "00106960", "output_locID": "00106960-17", "name": "Lima", "focus_area": "1", "lat": "-12.043180", "type": "PPLC", "awardID": "00106014", "lon": "-77.028240", "precision": "1", "focus_area_descr": "Inclusive & Sustainable Growth"}], "operating_unit": null, "budget": 1840325.0, "iati_op_id": "998", "inst_descr": "United Nations Development Programme", "start": "2017-11-25", "operating_unit_id": null, "expenditure": 8678.0, "document_name": [["6NRLAC", "Annotated UNDP-GEF Project Document Template", "PIMS 6114 6NR LAC prodoc", "PIMS 6114 6NR LAC UNDPGEF DOA signed"], ["https://info.undp.org/docs/pdc/Documents/SVK/6NR-LAC.PDF", "https://info.undp.org/docs/pdc/Documents/SVK/PIMS 6114 6NR LAC prodoc final LPAced.doc", "https://info.undp.org/docs/pdc/Documents/SVK/PIMS 6114 6NR LAC prodoc 111117final.doc", "https://info.undp.org/docs/pdc/Documents/SVK/PIMS 6114 6NR LAC UNDP-GEF DOA signed.pdf"], ["pdf", "doc", "doc", "pdf"], [0, 0, 0, 0]], "project_id": "00106014", "inst_type_id": "40", "operating_unit_website": null, "project_title": "support to 6th national reports on cbd in lac"}