{"project_descr": "This Plan seeks to strengthen UNDP Colombia\u2019s capacity to provide technical assistance to national and subnational partners in Rule of Law areas, set up spaces of dialogue and expand and consolidate a UNDP integrated portfolio in Rule of Law", "fiscal_year": [2018], "end": "2018-12-31", "region_id": "RBLAC", "operating_unit_email": "fo.col@undp.org", "inst_id": "99999", "outputs": [{"output_id": "00108019", "crs": "15160", "donor_id": ["10282"], "disbursement": [], "focus_area": "2", "gender_descr": "Gender Equality", "output_title": "ACCESS TO JUSTICE", "budget": [500000.0], "fiscal_year": [2018], "gender_id": "1", "expenditure": [0.0], "award_id": "00107922", "output_descr": "The Initiation Plan intents to achieve an integrated RoL portfolio/programme, capitalizing on current projects (i.e. citizen security at the local level and local justice systems) while expanding the scope and impact of interventions", "donor_short": ["SDC"], "donor_name": ["SWISS AGENCY FOR DEVELOPMENT AND COOPERATION - SDC"], "crs_descr": null, "focus_area_descr": "Democratic Governance"}], "subnational": [{"outputID": "00108019", "output_locID": "00108019-1", "name": "Departamento del Valle del Cauca", "focus_area": "2", "lat": "3.750000", "type": "ADM1", "awardID": "00107922", "lon": "-76.500000", "precision": "1", "focus_area_descr": "Democratic Governance"}, {"outputID": "00108019", "output_locID": "00108019-2", "name": "Departamento de Tolima", "focus_area": "2", "lat": "4.000000", "type": "ADM1", "awardID": "00107922", "lon": "-75.250000", "precision": "1", "focus_area_descr": "Democratic Governance"}, {"outputID": "00108019", "output_locID": "00108019-3", "name": "Departamento de Sucre", "focus_area": "2", "lat": "9.000000", "type": "ADM1", "awardID": "00107922", "lon": "-75.000000", "precision": "1", "focus_area_descr": "Democratic Governance"}, {"outputID": "00108019", "output_locID": "00108019-4", "name": "Departamento del Putumayo", "focus_area": "2", "lat": "0.500000", "type": "ADM1", "awardID": "00107922", "lon": "-76.000000", "precision": "1", "focus_area_descr": "Democratic Governance"}, {"outputID": "00108019", "output_locID": "00108019-5", "name": "Departamento de Norte de Santander", "focus_area": "2", "lat": "8.000000", "type": "ADM1", "awardID": "00107922", "lon": "-73.000000", "precision": "1", "focus_area_descr": "Democratic Governance"}, {"outputID": "00108019", "output_locID": "00108019-6", "name": "Departamento de Nari\u00f1o", "focus_area": "2", "lat": "1.500000", "type": "ADM1", "awardID": "00107922", "lon": "-78.000000", "precision": "1", "focus_area_descr": "Democratic Governance"}, {"outputID": "00108019", "output_locID": "00108019-7", "name": "Departamento del Meta", "focus_area": "2", "lat": "3.500000", "type": "ADM1", "awardID": "00107922", "lon": "-73.000000", "precision": "1", "focus_area_descr": "Democratic Governance"}, {"outputID": "00108019", "output_locID": "00108019-8", "name": "Departamento del Magdalena", "focus_area": "2", "lat": "10.000000", "type": "ADM1", "awardID": "00107922", "lon": "-74.500000", "precision": "1", "focus_area_descr": "Democratic Governance"}, {"outputID": "00108019", "output_locID": "00108019-9", "name": "Departamento de La Guajira", "focus_area": "2", "lat": "11.500000", "type": "ADM1", "awardID": "00107922", "lon": "-72.500000", "precision": "1", "focus_area_descr": "Democratic Governance"}, {"outputID": "00108019", "output_locID": "00108019-10", "name": "Departamento del Huila", "focus_area": "2", "lat": "2.500000", "type": "ADM1", "awardID": "00107922", "lon": "-75.583330", "precision": "1", "focus_area_descr": "Democratic Governance"}, {"outputID": "00108019", "output_locID": "00108019-11", "name": "Departamento del Guaviare", "focus_area": "2", "lat": "1.916670", "type": "ADM1", "awardID": "00107922", "lon": "-72.000000", "precision": "1", "focus_area_descr": "Democratic Governance"}, {"outputID": "00108019", "output_locID": "00108019-12", "name": "Departamento de C\u00f3rdoba", "focus_area": "2", "lat": "8.333330", "type": "ADM1", "awardID": "00107922", "lon": "-75.666670", "precision": "1", "focus_area_descr": "Democratic Governance"}, {"outputID": "00108019", "output_locID": "00108019-13", "name": "Departamento del Choc\u00f3", "focus_area": "2", "lat": "6.000000", "type": "ADM1", "awardID": "00107922", "lon": "-77.000000", "precision": "1", "focus_area_descr": "Democratic Governance"}, {"outputID": "00108019", "output_locID": "00108019-14", "name": "Departamento del Cesar", "focus_area": "2", "lat": "9.333330", "type": "ADM1", "awardID": "00107922", "lon": "-73.500000", "precision": "1", "focus_area_descr": "Democratic Governance"}, {"outputID": "00108019", "output_locID": "00108019-15", "name": "Departamento del Cauca", "focus_area": "2", "lat": "2.500000", "type": "ADM1", "awardID": "00107922", "lon": "-76.833330", "precision": "1", "focus_area_descr": "Democratic Governance"}, {"outputID": "00108019", "output_locID": "00108019-16", "name": "Departamento del Caquet\u00e1", "focus_area": "2", "lat": "0.750000", "type": "ADM1", "awardID": "00107922", "lon": "-74.000000", "precision": "1", "focus_area_descr": "Democratic Governance"}, {"outputID": "00108019", "output_locID": "00108019-17", "name": "Departamento de Bol\u00edvar", "focus_area": "2", "lat": "9.000000", "type": "ADM1", "awardID": "00107922", "lon": "-74.333330", "precision": "1", "focus_area_descr": "Democratic Governance"}, {"outputID": "00108019", "output_locID": "00108019-18", "name": "Bogot\u00e1", "focus_area": "2", "lat": "4.609710", "type": "PPLC", "awardID": "00107922", "lon": "-74.081750", "precision": "1", "focus_area_descr": "Democratic Governance"}, {"outputID": "00108019", "output_locID": "00108019-19", "name": "Departamento de Arauca", "focus_area": "2", "lat": "6.666670", "type": "ADM1", "awardID": "00107922", "lon": "-71.000000", "precision": "1", "focus_area_descr": "Democratic Governance"}, {"outputID": "00108019", "output_locID": "00108019-20", "name": "Antioquia", "focus_area": "2", "lat": "7.000000", "type": "ADM1", "awardID": "00107922", "lon": "-75.500000", "precision": "1", "focus_area_descr": "Democratic Governance"}], "operating_unit": "Colombia", "budget": 500000.0, "iati_op_id": "CO", "inst_descr": "United Nations Development Programme", "start": "2018-01-01", "operating_unit_id": "COL", "expenditure": 0.0, "document_name": [[], [], [], []], "project_id": "00107922", "inst_type_id": "40", "operating_unit_website": null, "project_title": "preparation rule of law programme colombia"}