{"project_descr": "Fournir l'aide l\u00e9gale aux populations vuln\u00e9rables au Burundi", "fiscal_year": [2017], "end": "2019-12-31", "region_id": "RBA", "operating_unit_email": "registry.bi@undp.org", "inst_id": "XM-DAC-41114", "outputs": [{"output_id": "00104223", "crs": "13040", "donor_id": ["00182"], "disbursement": [], "focus_area": "3", "gender_descr": "Gender Equality", "output_title": "Appui a l aide legale", "budget": [300000.0], "fiscal_year": [2017], "gender_id": "1", "expenditure": [0.0], "award_id": "00101997", "output_descr": "Fournir le service d'aide l\u00e9gale aux populations vuln\u00e9rables du Burundi", "donor_short": ["NET"], "donor_name": ["GOVERNMENT OF NETHERLANDS"], "crs_descr": null, "focus_area_descr": "Responsive Institutions"}], "subnational": [{"outputID": "00104223", "output_locID": "00104223-1", "name": "Makamba", "focus_area": "3", "lat": "-4.166670", "type": "ADM1", "awardID": "00101997", "lon": "29.752780", "precision": "1", "focus_area_descr": "Responsive Institutions"}, {"outputID": "00104223", "output_locID": "00104223-2", "name": "Bururi", "focus_area": "3", "lat": "-3.850000", "type": "ADM1", "awardID": "00101997", "lon": "29.633330", "precision": "1", "focus_area_descr": "Responsive Institutions"}, {"outputID": "00104223", "output_locID": "00104223-3", "name": "Bujumbura", "focus_area": "3", "lat": "-3.382200", "type": "PPLC", "awardID": "00101997", "lon": "29.364400", "precision": "1", "focus_area_descr": "Responsive Institutions"}, {"outputID": "00104223", "output_locID": "00104223-4", "name": "Gitega", "focus_area": "3", "lat": "-3.500000", "type": "ADM1", "awardID": "00101997", "lon": "29.950000", "precision": "1", "focus_area_descr": "Responsive Institutions"}, {"outputID": "00104223", "output_locID": "00104223-5", "name": "Ngozi", "focus_area": "3", "lat": "-2.875000", "type": "ADM1", "awardID": "00101997", "lon": "29.925000", "precision": "1", "focus_area_descr": "Responsive Institutions"}, {"outputID": "00104223", "output_locID": "00104223-6", "name": "Kayanza", "focus_area": "3", "lat": "-3.066670", "type": "ADM1", "awardID": "00101997", "lon": "29.666670", "precision": "1", "focus_area_descr": "Responsive Institutions"}, {"outputID": "00104223", "output_locID": "00104223-7", "name": "Muyinga", "focus_area": "3", "lat": "-2.833330", "type": "ADM1", "awardID": "00101997", "lon": "30.333330", "precision": "1", "focus_area_descr": "Responsive Institutions"}, {"outputID": "00104223", "output_locID": "00104223-8", "name": "Kirundo", "focus_area": "3", "lat": "-2.583330", "type": "ADM1", "awardID": "00101997", "lon": "30.166670", "precision": "1", "focus_area_descr": "Responsive Institutions"}, {"outputID": "00104223", "output_locID": "00104223-9", "name": "Rutana", "focus_area": "3", "lat": "-3.866670", "type": "ADM1", "awardID": "00101997", "lon": "30.100000", "precision": "1", "focus_area_descr": "Responsive Institutions"}, {"outputID": "00104223", "output_locID": "00104223-10", "name": "Rumonge", "focus_area": "3", "lat": "-3.964780", "type": "ADM1", "awardID": "00101997", "lon": "29.447650", "precision": "1", "focus_area_descr": "Responsive Institutions"}], "operating_unit": "Burundi", "budget": 300000.0, "iati_op_id": "BI", "inst_descr": "United Nations Development Programme", "start": "2017-02-01", "operating_unit_id": "BDI", "expenditure": 0.0, "document_name": [["AWP", "BDI10%20UNDAF%202012-2016", "Request for Procurement"], ["https://info.undp.org/docs/pdc/Documents/BDI/20170303 AWP legal aide project UNGM077_51174901.pdf", "http://www.bi.undp.org/content/dam/burundi/docs/cadre-legal/BDI10 UNDAF 2012-2016.pdf", "http://procurement-notices.undp.org/index.cfm"], ["pdf", "pdf", ""], [3, 7, 10]], "project_id": "00101997", "inst_type_id": "40", "operating_unit_website": null, "project_title": "fournir l aide legal"}