{"project_descr": "Technical Support to Eligible Parties to Produce the Sixth National Report to the Convention on Biological Diversity in Latin America and Caribbean (LAC)Region (GEF project ID PIMS 6114)", "fiscal_year": [2018, 2017], "end": "2019-11-25", "region_id": "global", "operating_unit_email": "registry.sk@undp.org", "inst_id": "XM-DAC-41114", "outputs": [{"output_id": "00106960", "crs": "23010", "donor_id": ["10003"], "disbursement": [], "focus_area": "1", "gender_descr": "Gender Equality", "output_title": "6th National Reports in LAC", "budget": [61800.0, 1893447.0], "fiscal_year": [2017, 2018], "gender_id": "1", "expenditure": [8678.0, 5230.0], "award_id": "00106014", "output_descr": "Provide technical support to GEF-eligible Parties to the Convention on Biological Diversity (CBD) in their work to develop a high quality, gender-responsive and data-driven sixth national report 6th National Report in Latin America and Caribbean (LAC)", "donor_short": ["GEFTrustee"], "donor_name": ["Global Environment Fund Truste"], "crs_descr": null, "focus_area_descr": "Inclusive Growth"}], "subnational": [{"outputID": "00106960", "output_locID": "00106960-1", "name": "Sanaa", "focus_area": "1", "lat": "15.354720", "type": "PPLC", "awardID": "00106014", "lon": "44.206670", "precision": "1", "focus_area_descr": "Inclusive Growth"}, {"outputID": "00106960", "output_locID": "00106960-2", "name": "Baghdad", "focus_area": "1", "lat": "33.340580", "type": "PPLC", "awardID": "00106014", "lon": "44.400880", "precision": "1", "focus_area_descr": "Inclusive Growth"}, {"outputID": "00106960", "output_locID": "00106960-3", "name": "Ashgabat", "focus_area": "1", "lat": "37.950000", "type": "PPLC", "awardID": "00106014", "lon": "58.383330", "precision": "1", "focus_area_descr": "Inclusive Growth"}, {"outputID": "00106960", "output_locID": "00106960-4", "name": "Amman", "focus_area": "1", "lat": "31.955220", "type": "PPLC", "awardID": "00106014", "lon": "35.945030", "precision": "1", "focus_area_descr": "Inclusive Growth"}, {"outputID": "00106960", "output_locID": "00106960-5", "name": "Beirut", "focus_area": "1", "lat": "33.893320", "type": "PPLC", "awardID": "00106014", "lon": "35.501570", "precision": "1", "focus_area_descr": "Inclusive Growth"}, {"outputID": "00106960", "output_locID": "00106960-6", "name": "Cairo", "focus_area": "1", "lat": "30.062630", "type": "PPLC", "awardID": "00106014", "lon": "31.249670", "precision": "1", "focus_area_descr": "Inclusive Growth"}, {"outputID": "00106960", "output_locID": "00106960-7", "name": "Kabul", "focus_area": "1", "lat": "34.528130", "type": "PPLC", "awardID": "00106014", "lon": "69.172330", "precision": "1", "focus_area_descr": "Inclusive Growth"}, {"outputID": "00106960", "output_locID": "00106960-8", "name": "Dhaka", "focus_area": "1", "lat": "23.710400", "type": "PPLC", "awardID": "00106014", "lon": "90.407440", "precision": "1", "focus_area_descr": "Inclusive Growth"}, {"outputID": "00106960", "output_locID": "00106960-9", "name": "Dushanbe", "focus_area": "1", "lat": "38.535750", "type": "PPLC", "awardID": "00106014", "lon": "68.779050", "precision": "1", "focus_area_descr": "Inclusive Growth"}, {"outputID": "00106960", "output_locID": "00106960-10", "name": "Colombo", "focus_area": "1", "lat": "6.931940", "type": "PPLC", "awardID": "00106014", "lon": "79.847780", "precision": "1", "focus_area_descr": "Inclusive Growth"}, {"outputID": "00106960", "output_locID": "00106960-11", "name": "Thimphu", "focus_area": "1", "lat": "27.466090", "type": "PPLC", "awardID": "00106014", "lon": "89.641910", "precision": "1", "focus_area_descr": "Inclusive Growth"}, {"outputID": "00106960", "output_locID": "00106960-12", "name": "New Delhi", "focus_area": "1", "lat": "28.635760", "type": "PPLC", "awardID": "00106014", "lon": "77.224450", "precision": "1", "focus_area_descr": "Inclusive Growth"}, {"outputID": "00106960", "output_locID": "00106960-13", "name": "Kathmandu", "focus_area": "1", "lat": "27.701690", "type": "PPLC", "awardID": "00106014", "lon": "85.320600", "precision": "1", "focus_area_descr": "Inclusive Growth"}, {"outputID": "00106960", "output_locID": "00106960-14", "name": "Tashkent", "focus_area": "1", "lat": "41.264650", "type": "PPLC", "awardID": "00106014", "lon": "69.216270", "precision": "1", "focus_area_descr": "Inclusive Growth"}, {"outputID": "00106960", "output_locID": "00106960-15", "name": "Astana", "focus_area": "1", "lat": "51.180100", "type": "PPLC", "awardID": "00106014", "lon": "71.445980", "precision": "1", "focus_area_descr": "Inclusive Growth"}, {"outputID": "00106960", "output_locID": "00106960-16", "name": "Bishkek", "focus_area": "1", "lat": "42.870000", "type": "PPLC", "awardID": "00106014", "lon": "74.590000", "precision": "1", "focus_area_descr": "Inclusive Growth"}, {"outputID": "00106960", "output_locID": "00106960-17", "name": "Hanoi", "focus_area": "1", "lat": "21.024500", "type": "PPLC", "awardID": "00106014", "lon": "105.841170", "precision": "1", "focus_area_descr": "Inclusive Growth"}, {"outputID": "00106960", "output_locID": "00106960-18", "name": "Bangkok", "focus_area": "1", "lat": "13.753980", "type": "PPLC", "awardID": "00106014", "lon": "100.501440", "precision": "1", "focus_area_descr": "Inclusive Growth"}, {"outputID": "00106960", "output_locID": "00106960-19", "name": "Jakarta", "focus_area": "1", "lat": "-6.214620", "type": "PPLC", "awardID": "00106014", "lon": "106.845130", "precision": "1", "focus_area_descr": "Inclusive Growth"}, {"outputID": "00106960", "output_locID": "00106960-20", "name": "Vientiane", "focus_area": "1", "lat": "17.966670", "type": "PPLC", "awardID": "00106014", "lon": "102.600000", "precision": "1", "focus_area_descr": "Inclusive Growth"}, {"outputID": "00106960", "output_locID": "00106960-21", "name": "Manila", "focus_area": "1", "lat": "14.604200", "type": "PPLC", "awardID": "00106014", "lon": "120.982200", "precision": "1", "focus_area_descr": "Inclusive Growth"}, {"outputID": "00106960", "output_locID": "00106960-22", "name": "Kuala Lumpur", "focus_area": "1", "lat": "3.141200", "type": "PPLC", "awardID": "00106014", "lon": "101.686530", "precision": "1", "focus_area_descr": "Inclusive Growth"}, {"outputID": "00106960", "output_locID": "00106960-23", "name": "Beijing", "focus_area": "1", "lat": "39.907500", "type": "PPLC", "awardID": "00106014", "lon": "116.397230", "precision": "1", "focus_area_descr": "Inclusive Growth"}, {"outputID": "00106960", "output_locID": "00106960-24", "name": "Phnom Penh", "focus_area": "1", "lat": "11.562450", "type": "PPLC", "awardID": "00106014", "lon": "104.916010", "precision": "1", "focus_area_descr": "Inclusive Growth"}, {"outputID": "00106960", "output_locID": "00106960-25", "name": "Port Moresby", "focus_area": "1", "lat": "-9.443140", "type": "PPLC", "awardID": "00106014", "lon": "147.179720", "precision": "1", "focus_area_descr": "Inclusive Growth"}, {"outputID": "00106960", "output_locID": "00106960-26", "name": "Nouakchott", "focus_area": "1", "lat": "18.085810", "type": "PPLC", "awardID": "00106014", "lon": "-15.978500", "precision": "1", "focus_area_descr": "Inclusive Growth"}, {"outputID": "00106960", "output_locID": "00106960-27", "name": "Tunis", "focus_area": "1", "lat": "36.818970", "type": "PPLC", "awardID": "00106014", "lon": "10.165790", "precision": "1", "focus_area_descr": "Inclusive Growth"}, {"outputID": "00106960", "output_locID": "00106960-28", "name": "Algiers", "focus_area": "1", "lat": "36.732250", "type": "PPLC", "awardID": "00106014", "lon": "3.087460", "precision": "1", "focus_area_descr": "Inclusive Growth"}, {"outputID": "00106960", "output_locID": "00106960-29", "name": "Rabat", "focus_area": "1", "lat": "34.013250", "type": "PPLC", "awardID": "00106014", "lon": "-6.832550", "precision": "1", "focus_area_descr": "Inclusive Growth"}, {"outputID": "00106960", "output_locID": "00106960-30", "name": "Bridgetown", "focus_area": "1", "lat": "13.107320", "type": "PPLC", "awardID": "00106014", "lon": "-59.620210", "precision": "1", "focus_area_descr": "Inclusive Growth"}, {"outputID": "00106960", "output_locID": "00106960-31", "name": "Georgetown", "focus_area": "1", "lat": "6.804480", "type": "PPLC", "awardID": "00106014", "lon": "-58.155270", "precision": "1", "focus_area_descr": "Inclusive Growth"}, {"outputID": "00106960", "output_locID": "00106960-32", "name": "Buenos Aires", "focus_area": "1", "lat": "-34.613150", "type": "PPLC", "awardID": "00106014", "lon": "-58.377230", "precision": "1", "focus_area_descr": "Inclusive Growth"}, {"outputID": "00106960", "output_locID": "00106960-33", "name": "Asunci\u00f3n", "focus_area": "1", "lat": "-25.300660", "type": "PPLC", "awardID": "00106014", "lon": "-57.635910", "precision": "1", "focus_area_descr": "Inclusive Growth"}, {"outputID": "00106960", "output_locID": "00106960-34", "name": "Kingston", "focus_area": "1", "lat": "17.997020", "type": "PPLC", "awardID": "00106014", "lon": "-76.793580", "precision": "1", "focus_area_descr": "Inclusive Growth"}, {"outputID": "00106960", "output_locID": "00106960-35", "name": "Santo Domingo", "focus_area": "1", "lat": "18.500120", "type": "PPLC", "awardID": "00106014", "lon": "-69.988570", "precision": "1", "focus_area_descr": "Inclusive Growth"}, {"outputID": "00106960", "output_locID": "00106960-36", "name": "Nassau", "focus_area": "1", "lat": "25.058230", "type": "PPLC", "awardID": "00106014", "lon": "-77.343060", "precision": "1", "focus_area_descr": "Inclusive Growth"}, {"outputID": "00106960", "output_locID": "00106960-37", "name": "Basseterre", "focus_area": "1", "lat": "17.294840", "type": "PPLC", "awardID": "00106014", "lon": "-62.726100", "precision": "1", "focus_area_descr": "Inclusive Growth"}, {"outputID": "00106960", "output_locID": "00106960-38", "name": "St John's", "focus_area": "1", "lat": "17.120960", "type": "PPLC", "awardID": "00106014", "lon": "-61.843290", "precision": "1", "focus_area_descr": "Inclusive Growth"}, {"outputID": "00106960", "output_locID": "00106960-39", "name": "Castries", "focus_area": "1", "lat": "13.995700", "type": "PPLC", "awardID": "00106014", "lon": "-61.006140", "precision": "1", "focus_area_descr": "Inclusive Growth"}, {"outputID": "00106960", "output_locID": "00106960-40", "name": "Kingstown", "focus_area": "1", "lat": "13.155270", "type": "PPLC", "awardID": "00106014", "lon": "-61.227420", "precision": "1", "focus_area_descr": "Inclusive Growth"}, {"outputID": "00106960", "output_locID": "00106960-41", "name": "Belmopan", "focus_area": "1", "lat": "17.250000", "type": "PPLC", "awardID": "00106014", "lon": "-88.766670", "precision": "1", "focus_area_descr": "Inclusive Growth"}, {"outputID": "00106960", "output_locID": "00106960-42", "name": "San Salvador", "focus_area": "1", "lat": "13.689350", "type": "PPLC", "awardID": "00106014", "lon": "-89.187180", "precision": "1", "focus_area_descr": "Inclusive Growth"}, {"outputID": "00106960", "output_locID": "00106960-43", "name": "Tegucigalpa", "focus_area": "1", "lat": "14.081800", "type": "PPLC", "awardID": "00106014", "lon": "-87.206810", "precision": "1", "focus_area_descr": "Inclusive Growth"}, {"outputID": "00106960", "output_locID": "00106960-44", "name": "San Jos\u00e9", "focus_area": "1", "lat": "9.933330", "type": "PPLC", "awardID": "00106014", "lon": "-84.083330", "precision": "1", "focus_area_descr": "Inclusive Growth"}, {"outputID": "00106960", "output_locID": "00106960-45", "name": "Quito", "focus_area": "1", "lat": "-0.229850", "type": "PPLC", "awardID": "00106014", "lon": "-78.524950", "precision": "1", "focus_area_descr": "Inclusive Growth"}, {"outputID": "00106960", "output_locID": "00106960-46", "name": "Bogot\u00e1", "focus_area": "1", "lat": "4.609710", "type": "PPLC", "awardID": "00106014", "lon": "-74.081750", "precision": "1", "focus_area_descr": "Inclusive Growth"}, {"outputID": "00106960", "output_locID": "00106960-47", "name": "Sucre", "focus_area": "1", "lat": "-19.033320", "type": "PPLC", "awardID": "00106014", "lon": "-65.262740", "precision": "1", "focus_area_descr": "Inclusive Growth"}, {"outputID": "00106960", "output_locID": "00106960-48", "name": "Lima", "focus_area": "1", "lat": "-12.043180", "type": "PPLC", "awardID": "00106014", "lon": "-77.028240", "precision": "1", "focus_area_descr": "Inclusive Growth"}, {"outputID": "00106960", "output_locID": "00106960-49", "name": "Apia", "focus_area": "1", "lat": "-13.833330", "type": "PPLC", "awardID": "00106014", "lon": "-171.766660", "precision": "1", "focus_area_descr": "Inclusive Growth"}, {"outputID": "00106960", "output_locID": "00106960-50", "name": "Nay Pyi Taw", "focus_area": "1", "lat": "19.745000", "type": "PPLC", "awardID": "00106014", "lon": "96.129720", "precision": "1", "focus_area_descr": "Inclusive Growth"}], "operating_unit": null, "budget": 1955247.0, "iati_op_id": "998", "inst_descr": "United Nations Development Programme", "start": "2017-11-25", "operating_unit_id": null, "expenditure": 13908.0, "document_name": [["6NRLAC", "Annotated UNDP-GEF Project Document Template", "PIMS 6114 6NR LAC prodoc", "BBRSO45992: Preparation of 6NR for Saint Lucia", "BBRSO45993: Preparation of 6NR for St Kitts and Nevis", "BBRSO45994: Preparation of 6NR for St. Vincent and the Grenadines", "PNUD/IC-080/2018 Soporte t\u00e9cnico para el seguimiento a la elaboraci\u00f3n del reporte del proyecto CDB", "PNUD/IC-088/2018 - Evaluaci\u00f3n de los logros alcanzados en las metas nacionales de Diversidad Biol\u00f3gica a ser reportados en el VI Informe al CDB", "6NR 00106014 AWP_December 2017"], ["https://info.undp.org/docs/pdc/Documents/SVK/6NR-LAC.PDF", "https://info.undp.org/docs/pdc/Documents/SVK/PIMS 6114 6NR LAC prodoc final LPAced.doc", "https://info.undp.org/docs/pdc/Documents/SVK/PIMS 6114 6NR LAC prodoc 111117final.doc", "http://procurement-notices.undp.org/view_notice.cfm?notice_id=45776", "http://procurement-notices.undp.org/view_notice.cfm?notice_id=45895", "http://procurement-notices.undp.org/view_notice.cfm?notice_id=45896", "http://procurement-notices.undp.org/view_notice.cfm?notice_id=44512", "http://procurement-notices.undp.org/view_notice.cfm?notice_id=44637", "https://info.undp.org/docs/pdc/Documents/SVK/6NR 00106014_December 2017.rar"], ["pdf", "doc", "doc", "", "", "", "", "", "obj"], [0, 0, 0, 10, 10, 10, 10, 10, 0]], "project_id": "00106014", "inst_type_id": "40", "operating_unit_website": null, "project_title": "sixth national reports on biodiversity in lac"}