{"project_descr": "This project will promote education and awareness on climate change impacts and drivers among Europe and CIS youth and general public through scaled up implementation of the innovative interactive learning toolkit on climate change- the Climate Box.", "fiscal_year": [2018, 2017], "end": "2019-08-31", "region_id": "global", "operating_unit_email": "registry.sk@undp.org", "inst_id": "XM-DAC-41114", "outputs": [{"output_id": "00106258", "crs": "51010", "donor_id": ["00206"], "disbursement": [], "focus_area": "1", "gender_descr": "Gender Equality", "output_title": "Climate Box Dissemination", "budget": [7560.0, 42660.0], "fiscal_year": [2017, 2018], "gender_id": "1", "expenditure": [0.0, 3353.0], "award_id": "00104894", "output_descr": "Climate Box adapted and ready for dissemination in four target Europe and CIS countries to promote education and awareness on climate change impacts and drivers.", "donor_short": ["RUS"], "donor_name": ["GOVERNMENT OF RUSSIAN FEDERATION"], "crs_descr": null, "focus_area_descr": "Inclusive Growth"}], "subnational": [{"outputID": "00106258", "output_locID": "00106258-1", "name": "Ashgabat", "focus_area": "1", "lat": "37.950000", "type": "PPLC", "awardID": "00104894", "lon": "58.383330", "precision": "1", "focus_area_descr": "Inclusive Growth"}, {"outputID": "00106258", "output_locID": "00106258-2", "name": "Yerevan", "focus_area": "1", "lat": "40.181110", "type": "PPLC", "awardID": "00104894", "lon": "44.513610", "precision": "1", "focus_area_descr": "Inclusive Growth"}, {"outputID": "00106258", "output_locID": "00106258-3", "name": "Chisinau", "focus_area": "1", "lat": "47.005560", "type": "PPLC", "awardID": "00104894", "lon": "28.857500", "precision": "1", "focus_area_descr": "Inclusive Growth"}, {"outputID": "00106258", "output_locID": "00106258-4", "name": "Dushanbe", "focus_area": "1", "lat": "38.535750", "type": "PPLC", "awardID": "00104894", "lon": "68.779050", "precision": "1", "focus_area_descr": "Inclusive Growth"}, {"outputID": "00106258", "output_locID": "00106258-5", "name": "Tashkent", "focus_area": "1", "lat": "41.264650", "type": "PPLC", "awardID": "00104894", "lon": "69.216270", "precision": "1", "focus_area_descr": "Inclusive Growth"}, {"outputID": "00106258", "output_locID": "00106258-6", "name": "Astana", "focus_area": "1", "lat": "51.180100", "type": "PPLC", "awardID": "00104894", "lon": "71.445980", "precision": "1", "focus_area_descr": "Inclusive Growth"}, {"outputID": "00106258", "output_locID": "00106258-7", "name": "Bishkek", "focus_area": "1", "lat": "42.870000", "type": "PPLC", "awardID": "00104894", "lon": "74.590000", "precision": "1", "focus_area_descr": "Inclusive Growth"}], "operating_unit": null, "budget": 50220.0, "iati_op_id": "998", "inst_descr": "United Nations Development Programme", "start": "2017-09-01", "operating_unit_id": null, "expenditure": 3353.0, "document_name": [["104894 Prodoc", "Multiyear AWP (2017-2019)"], ["https://info.undp.org/docs/pdc/Documents/SVK/104894- Prodoc.pdf", "https://info.undp.org/docs/pdc/Documents/SVK/Climate Box AWP.PDF"], ["pdf", "pdf"], [0, 0]], "project_id": "00104894", "inst_type_id": "40", "operating_unit_website": null, "project_title": "climate change education and awareness - climate box"}